{"key":"ac_hotel","displayName":"AC Hotel","category":"hotels","useLocationName":false,"locations":[
  {"lat":32.60717,"lon":-85.47885,"city":"Auburn","state":"AL","address":"146 North Gay Street","name":""},
  {"lat":34.725671,"lon":-86.588478,"city":"Huntsville","state":"AL","address":"435 Williams Avenue SW","name":""},
  {"lat":33.208119,"lon":-87.570383,"city":"Tuscaloosa","state":"AL","address":"2585 Gary Fitts Street","name":""},
  {"lat":36.364391,"lon":-94.195587,"city":"Bentonville","state":"AR","address":"1201 SE 8th Street","name":""},
  {"lat":34.744158,"lon":-92.272542,"city":"Little Rock","state":"AR","address":"201 West Capitol Avenue","name":""},
  {"lat":33.452874,"lon":-112.068513,"city":"Phoenix","state":"AZ","address":"414 North 5th Street","name":""},
  {"lat":33.509403,"lon":-112.020028,"city":"Phoenix","state":"AZ","address":"2811 East Camelback Road","name":""},
  {"lat":33.715814,"lon":-112.108324,"city":"Phoenix","state":"AZ","address":"25100 N. 22nd Lane","name":""},
  {"lat":33.624195,"lon":-111.931054,"city":"Scottsdale","state":"AZ","address":"15200 North Kierland Boulevard","name":""},
  {"lat":33.49607,"lon":-111.92762,"city":"Scottsdale","state":"AZ","address":"7117 E. 3rd Ave.","name":""},
  {"lat":33.430608,"lon":-111.937328,"city":"Tempe","state":"AZ","address":"100 East Rio Salado Parkway","name":""},
  {"lat":32.221308,"lon":-110.967489,"city":"Tucson","state":"AZ","address":"151 East Broadway Boulevard","name":""},
  {"lat":33.92665,"lon":-118.386406,"city":"El Segundo","state":"CA","address":"2130 East Maple Avenue","name":""},
  {"lat":33.672383,"lon":-117.844511,"city":"Irvine","state":"CA","address":"3309 Michelson Drive","name":""},
  {"lat":34.04058,"lon":-118.26725,"city":"Los Angeles","state":"CA","address":"1260 South Figueroa Street","name":""},
  {"lat":34.063869,"lon":-118.368036,"city":"Los Angeles","state":"CA","address":"6399 Wilshire Boulevard","name":""},
  {"lat":37.806183,"lon":-122.274719,"city":"Oakland","state":"CA","address":"1431 Jefferson Street","name":""},
  {"lat":37.417609,"lon":-122.102348,"city":"Palo Alto","state":"CA","address":"744 San Antonio Road","name":""},
  {"lat":34.145588,"lon":-118.138438,"city":"Pasadena","state":"CA","address":"19 S Madison Ave","name":""},
  {"lat":37.698472,"lon":-121.930103,"city":"Pleasanton","state":"CA","address":"5990 Stoneridge Mall Road","name":""},
  {"lat":38.58223,"lon":-121.49699,"city":"Sacramento","state":"CA","address":"905 7th St.","name":""},
  {"lat":32.713469,"lon":-117.159906,"city":"San Diego","state":"CA","address":"743 Fifth Avenue","name":""},
  {"lat":37.333222,"lon":-121.896161,"city":"San Jose","state":"CA","address":"350 West Santa Clara Street","name":""},
  {"lat":37.974211,"lon":-122.529484,"city":"San Rafael","state":"CA","address":"1201 5th Avenue","name":""},
  {"lat":37.385358,"lon":-121.980525,"city":"Santa Clara","state":"CA","address":"2970 Lakeside Drive","name":""},
  {"lat":38.438509,"lon":-122.719455,"city":"Santa Rosa","state":"CA","address":"300 Davis Street","name":""},
  {"lat":37.664438,"lon":-122.395713,"city":"South San Francisco","state":"CA","address":"1333 Veterans Boulevard","name":""},
  {"lat":37.363008,"lon":-122.025633,"city":"Sunnyvale","state":"CA","address":"597 East El Camino Real","name":""},
  {"lat":37.412406,"lon":-122.02294,"city":"Sunnyvale","state":"CA","address":"1235 Bordeaux Drive","name":""},
  {"lat":39.744603,"lon":-104.993847,"city":"Denver","state":"CO","address":"750 15th Street","name":""},
  {"lat":39.590706,"lon":-106.097145,"city":"Frisco","state":"CO","address":"1202 Summit Boulevard","name":""},
  {"lat":38.880414,"lon":-77.005712,"city":"Washington","state":"DC","address":"867 New Jersey Avenue SE","name":""},
  {"lat":38.904372,"lon":-77.043897,"city":"Washington","state":"DC","address":"1112 19th Street NW","name":""},
  {"lat":38.903022,"lon":-77.020231,"city":"Washington","state":"DC","address":"601 K Street NW","name":""},
  {"lat":25.968581,"lon":-80.142364,"city":"Aventura","state":"FL","address":"20805 Biscayne Blvd","name":""},
  {"lat":27.971689,"lon":-82.828434,"city":"Clearwater Beach","state":"FL","address":"395 Coronado Drive","name":""},
  {"lat":26.053207,"lon":-80.157494,"city":"Dania Beach","state":"FL","address":"154 N Compass Way","name":""},
  {"lat":25.810564,"lon":-80.328158,"city":"Doral","state":"FL","address":"8091 NW 36th Street","name":""},
  {"lat":26.125243,"lon":-80.104352,"city":"Fort Lauderdale","state":"FL","address":"3029 Alhambra Street","name":""},
  {"lat":29.653069,"lon":-82.340425,"city":"Gainesville","state":"FL","address":"151 NW 14th Street","name":""},
  {"lat":30.253642,"lon":-81.523216,"city":"Jacksonville","state":"FL","address":"5323 Big Island Drive","name":""},
  {"lat":25.808903,"lon":-80.189914,"city":"Miami","state":"FL","address":"3400 Biscayne Boulevard","name":""},
  {"lat":25.691513,"lon":-80.315283,"city":"Miami","state":"FL","address":"7695 N Kendall Drive","name":""},
  {"lat":25.766859,"lon":-80.196111,"city":"Miami","state":"FL","address":"115 SW 8th Street","name":""},
  {"lat":25.805177,"lon":-80.125359,"city":"Miami Beach","state":"FL","address":"2912 Collins Avenue","name":""},
  {"lat":26.143259,"lon":-81.79121,"city":"Naples","state":"FL","address":"455 12th Street South","name":""},
  {"lat":28.380467,"lon":-81.503895,"city":"Orlando","state":"FL","address":"12799 S Apopka Vineland Road","name":""},
  {"lat":28.539499,"lon":-81.380067,"city":"Orlando","state":"FL","address":"333 South Garland Avenue","name":""},
  {"lat":29.890053,"lon":-81.319207,"city":"St Augustine","state":"FL","address":"90 Riberia Street","name":""},
  {"lat":27.772471,"lon":-82.635687,"city":"St Petersburg","state":"FL","address":"110 2nd Street North","name":""},
  {"lat":26.150026,"lon":-80.318746,"city":"Sunrise","state":"FL","address":"1870 Sawgrass Mills Circle","name":""},
  {"lat":30.435722,"lon":-84.278196,"city":"Tallahassee","state":"FL","address":"801 South Gadsden Street","name":""},
  {"lat":27.965317,"lon":-82.511133,"city":"Tampa","state":"FL","address":"4020 West Boy Scout Boulevard","name":""},
  {"lat":33.78635,"lon":-84.385917,"city":"Atlanta","state":"GA","address":"53 14th Street NE","name":""},
  {"lat":33.854014,"lon":-84.359792,"city":"Atlanta","state":"GA","address":"3600 Wieuca Road NE","name":""},
  {"lat":33.641544,"lon":-84.457056,"city":"Atlanta","state":"GA","address":"2079 Hospitality Way","name":""},
  {"lat":33.759897,"lon":-84.391025,"city":"Atlanta","state":"GA","address":"101 Andrew Young Intl Blvd NW","name":""},
  {"lat":32.469737,"lon":-84.993821,"city":"Columbus","state":"GA","address":"1225 Broadway","name":""},
  {"lat":33.92836,"lon":-84.341444,"city":"Dunwoody","state":"GA","address":"40 Perimeter Center Place","name":""},
  {"lat":32.07914,"lon":-81.08352,"city":"Savannah","state":"GA","address":"601 East River Street","name":""},
  {"lat":21.309586,"lon":-157.859877,"city":"Honolulu","state":"HI","address":"1111 Bishop Street","name":""},
  {"lat":20.688245,"lon":-156.436428,"city":"Wailea","state":"HI","address":"88 Wailea Ike Place","name":""},
  {"lat":41.590272,"lon":-93.613036,"city":"Des Moines","state":"IA","address":"401 East Grand Avenue","name":""},
  {"lat":43.615018,"lon":116.202314,"city":"Boise","state":"ID","address":"1005 W Grove Street","name":""},
  {"lat":41.893701,"lon":-87.625437,"city":"Chicago","state":"IL","address":"630 North Rush Street","name":""},
  {"lat":37.685887,"lon":-97.335994,"city":"Wichita","state":"KS","address":"105 South Broadway","name":""},
  {"lat":38.2536,"lon":-85.738358,"city":"Louisville","state":"KY","address":"727 East Market Street","name":""},
  {"lat":29.952277,"lon":-90.071147,"city":"New Orleans","state":"LA","address":"221 Carondelet Street","name":""},
  {"lat":42.335075,"lon":-71.15015,"city":"Boston","state":"MA","address":"395 Chestnut Hill Avenue","name":""},
  {"lat":42.344656,"lon":-71.062106,"city":"Boston","state":"MA","address":"225 Albany Street","name":""},
  {"lat":42.398803,"lon":-71.147385,"city":"Cambridge","state":"MA","address":"10 Acorn Park Drive","name":""},
  {"lat":42.40215,"lon":-71.081161,"city":"Medford","state":"MA","address":"95 Station Landing","name":""},
  {"lat":42.262053,"lon":-71.798847,"city":"Worcester","state":"MA","address":"125 Front Street","name":""},
  {"lat":38.98379,"lon":-77.09282,"city":"Bethesda","state":"MD","address":"4646 Montgomery Avenue","name":""},
  {"lat":38.784474,"lon":-77.016013,"city":"National Harbor","state":"MD","address":"156 Waterfront Street","name":""},
  {"lat":43.661078,"lon":-70.246225,"city":"Portland","state":"ME","address":"158 Fore Street","name":""},
  {"lat":42.281115,"lon":-83.745788,"city":"Ann Arbor","state":"MI","address":"310 East Huron Street","name":""},
  {"lat":42.346723,"lon":-83.056919,"city":"Detroit","state":"MI","address":"10 Eliot Street","name":""},
  {"lat":42.964395,"lon":-85.672079,"city":"Grand Rapids","state":"MI","address":"50 Monroe Avenue NW","name":""},
  {"lat":42.733504,"lon":-84.506469,"city":"Lansing","state":"MI","address":"3160 East Michigan Avenue","name":""},
  {"lat":44.856388,"lon":-93.236014,"city":"Bloomington","state":"MN","address":"8100 26th Avenue South","name":""},
  {"lat":44.980211,"lon":-93.271339,"city":"Minneapolis","state":"MN","address":"401 Hennepin Avenue","name":""},
  {"lat":44.969871,"lon":-93.34415,"city":"St Louis Park","state":"MN","address":"5075 Wayzata Blvd.","name":""},
  {"lat":38.66102,"lon":-90.56994,"city":"Chesterfield","state":"MO","address":"16461 Wild Horse Creek Road","name":""},
  {"lat":38.646405,"lon":-90.338832,"city":"Clayton","state":"MO","address":"227 South Central Avenue","name":""},
  {"lat":39.103221,"lon":-94.580933,"city":"Kansas City","state":"MO","address":"906 Grand Boulevard","name":""},
  {"lat":39.052178,"lon":-94.593167,"city":"Kansas City","state":"MO","address":"560 Westport Road","name":""},
  {"lat":38.644111,"lon":-90.262799,"city":"St Louis","state":"MO","address":"215 York Avenue","name":""},
  {"lat":38.63117,"lon":-90.197137,"city":"St. Louis","state":"MO","address":"415 N. Tucker Blvd","name":""},
  {"lat":32.443862,"lon":-90.151512,"city":"Ridgeland","state":"MS","address":"221 Township Avenue","name":""},
  {"lat":45.680461,"lon":-111.037162,"city":"Bozeman","state":"MT","address":"110 North Tracy Avenue","name":""},
  {"lat":46.870765,"lon":-113.993547,"city":"Missoula","state":"MT","address":"175 N. Pattee Street","name":""},
  {"lat":35.595808,"lon":-82.551989,"city":"Asheville","state":"NC","address":"10 Broadway Street","name":""},
  {"lat":35.563668,"lon":-82.540861,"city":"Asheville","state":"NC","address":"186 Hendersonville Road","name":""},
  {"lat":35.913349,"lon":-79.058703,"city":"Chapel Hill","state":"NC","address":"214 West Rosemary Street","name":""},
  {"lat":35.156744,"lon":-80.829869,"city":"Charlotte","state":"NC","address":"1824 Roxborough Road","name":""},
  {"lat":35.225481,"lon":-80.841475,"city":"Charlotte","state":"NC","address":"220 East Trade Street","name":""},
  {"lat":35.053839,"lon":-80.852616,"city":"Charlotte","state":"NC","address":"14819 Ballantyne Village Way","name":""},
  {"lat":36.007922,"lon":-78.946879,"city":"Durham","state":"NC","address":"2800 Erwin Road","name":""},
  {"lat":35.781279,"lon":-78.647787,"city":"Raleigh","state":"NC","address":"9 Glenwood Avenue","name":""},
  {"lat":35.838149,"lon":-78.640276,"city":"Raleigh","state":"NC","address":"101 Park at North Hills Street","name":""},
  {"lat":43.079736,"lon":-70.762419,"city":"Portsmouth","state":"NH","address":"299 Vaughan Street","name":""},
  {"lat":40.588001,"lon":-74.623744,"city":"Bridgewater","state":"NJ","address":"600 Somerset Corporate Boulevard","name":""},
  {"lat":36.17012,"lon":-115.15345,"city":"Las Vegas","state":"NV","address":"330 S. Grand Central Parkway","name":""},
  {"lat":40.755433,"lon":-73.990181,"city":"New York","state":"NY","address":"260 West 40th Street","name":""},
  {"lat":40.705939,"lon":-74.005017,"city":"New York","state":"NY","address":"151 Maiden Lane","name":""},
  {"lat":43.072437,"lon":-73.786812,"city":"Saratoga Springs","state":"NY","address":"176 South Broadway","name":""},
  {"lat":39.096989,"lon":-84.508769,"city":"Cincinnati","state":"OH","address":"135 Joe Nuxhall Way","name":""},
  {"lat":39.972908,"lon":-83.004978,"city":"Columbus","state":"OH","address":"517 Park St","name":""},
  {"lat":39.763326,"lon":-84.185163,"city":"Dayton","state":"OH","address":"124 Madison Street","name":""},
  {"lat":40.100692,"lon":-83.109193,"city":"Dublin","state":"OH","address":"6540 Riverside Drive","name":""},
  {"lat":39.37187,"lon":-84.375263,"city":"Liberty Township","state":"OH","address":"7505 Gibson Street","name":""},
  {"lat":41.453264,"lon":-81.486522,"city":"Orange Village","state":"OH","address":"300 Park Avenue, Suite 200","name":""},
  {"lat":35.466564,"lon":-97.505619,"city":"Oklahoma City","state":"OK","address":"411 East Sheridan Avenue","name":""},
  {"lat":45.52576,"lon":-122.838743,"city":"Beaverton","state":"OR","address":"15705 NW Blueridge Dr","name":""},
  {"lat":45.41919,"lon":-122.74119,"city":"Lake Oswego","state":"OR","address":"14811 Kruse Oaks Drive","name":""},
  {"lat":45.5169,"lon":-122.67595,"city":"Portland","state":"OR","address":"888 SW Third Avenue","name":""},
  {"lat":40.27514,"lon":-80.165157,"city":"Canonsburg","state":"PA","address":"1500 Main Street","name":""},
  {"lat":39.989065,"lon":-75.406175,"city":"Newtown Square","state":"PA","address":"200 Squire Drive","name":""},
  {"lat":40.445803,"lon":-79.993492,"city":"Pittsburgh","state":"PA","address":"1126 Smallman Street","name":""},
  {"lat":34.84685,"lon":-82.40029,"city":"Greenville","state":"SC","address":"315 South Main Street","name":""},
  {"lat":34.948061,"lon":-81.935081,"city":"Spartanburg","state":"SC","address":"225 West Main Street","name":""},
  {"lat":36.034274,"lon":-86.792369,"city":"Brentwood","state":"TN","address":"5007 Maryland Way","name":""},
  {"lat":36.156375,"lon":-86.775306,"city":"Nashville","state":"TN","address":"410 Rep John Lewis Way South","name":""},
  {"lat":30.282167,"lon":-97.74305,"city":"Austin","state":"TX","address":"1901 San Antonio Street","name":""},
  {"lat":30.256942,"lon":-97.870622,"city":"Austin","state":"TX","address":"7415 Southwest Parkway, Building 8, Suite 100","name":""},
  {"lat":32.928975,"lon":-96.816414,"city":"Dallas","state":"TX","address":"5460 James Temple Drive","name":""},
  {"lat":32.780103,"lon":-96.796326,"city":"Dallas","state":"TX","address":"1712 Commerce Street","name":""},
  {"lat":32.754061,"lon":-97.330732,"city":"Fort Worth","state":"TX","address":"101 West 5th Street","name":""},
  {"lat":33.116472,"lon":-96.829808,"city":"Frisco","state":"TX","address":"4343 Frisco Green Avenue","name":""},
  {"lat":29.758483,"lon":-95.363348,"city":"Houston","state":"TX","address":"723 Main Street","name":""},
  {"lat":29.425694,"lon":-98.493283,"city":"San Antonio","state":"TX","address":"111 Soledad Street","name":""},
  {"lat":31.554,"lon":-97.13095,"city":"Waco","state":"TX","address":"600 Mary Ave","name":""},
  {"lat":40.7279,"lon":-111.549191,"city":"Park City","state":"UT","address":"6609 North Landmark Drive","name":""},
  {"lat":40.764617,"lon":-111.897722,"city":"Salt Lake City","state":"UT","address":"225 West 200 South","name":""},
  {"lat":38.856514,"lon":-77.051366,"city":"Arlington","state":"VA","address":"1999 Richmond Highway","name":""},
  {"lat":38.954747,"lon":-77.361093,"city":"Reston","state":"VA","address":"1975 Opportunity Way","name":""},
  {"lat":44.47895,"lon":-73.215,"city":"Burlington","state":"VT","address":"130 Bank Street","name":""},
  {"lat":47.612219,"lon":-122.197917,"city":"Bellevue","state":"WA","address":"208 106th Place NE","name":""},
  {"lat":47.619217,"lon":-122.330578,"city":"Seattle","state":"WA","address":"117 North Yale Avenue","name":""},
  {"lat":47.44722,"lon":-122.29538,"city":"Seattle","state":"WA","address":"17338 International Boulevard","name":""},
  {"lat":45.623152,"lon":-122.675916,"city":"Vancouver","state":"WA","address":"333 West Columbia Way","name":""},
  {"lat":43.076537,"lon":-89.382488,"city":"Madison","state":"WI","address":"One North Webster Street","name":""}]}