{"key":"academy_sports","displayName":"Academy Sports","category":"shopping","useLocationName":false,"locations":[
  {"lat":32.609628,"lon":-85.427209,"city":"Auburn","state":"AL","address":"2325 Bent Creek Road","name":""},
  {"lat":30.421135,"lon":-86.649185,"city":"Fort Walton Beach","state":"FL","address":"546 Mary Esther Cut Off Northwest Suite #2","name":""},
  {"lat":26.608561,"lon":-81.808824,"city":"Fort Myers","state":"FL","address":"9331 Ben C Pratt 6 Mile Cypress Pkwy","name":""},
  {"lat":29.217507,"lon":-81.095139,"city":"Daytona Beach","state":"FL","address":"1511 Cornerstone Blvd","name":""},
  {"lat":27.492859,"lon":-82.468133,"city":"Bradenton","state":"FL","address":"7125 FL-64","name":""},
  {"lat":34.813568,"lon":-92.20634,"city":"Sherwood","state":"AR","address":"6100 Warden Road","name":""},
  {"lat":35.232568,"lon":-91.706432,"city":"Searcy","state":"AR","address":"1405 Janet Drive","name":""},
  {"lat":35.278411,"lon":-93.117334,"city":"Russellville","state":"AR","address":"1355 East Main Street","name":""},
  {"lat":36.286297,"lon":-94.150418,"city":"Rogers","state":"AR","address":"3855 South 26th Street","name":""},
  {"lat":34.755431,"lon":-92.402417,"city":"Little Rock","state":"AR","address":"11400 West Markham Street","name":""},
  {"lat":35.818532,"lon":-90.67164,"city":"Jonesboro","state":"AR","address":"2800 Parkwood Rd","name":""},
  {"lat":35.339389,"lon":-94.37987,"city":"Fort Smith","state":"AR","address":"5001 Phoenix Avenue","name":""},
  {"lat":36.121601,"lon":-94.154433,"city":"Fayetteville","state":"AR","address":"3864 N Steele Blvd","name":""},
  {"lat":35.062634,"lon":-92.414398,"city":"Conway","state":"AR","address":"1260 S Amity Rd","name":""},
  {"lat":34.610372,"lon":-92.531876,"city":"Benton","state":"AR","address":"20790 Interstate 30 North","name":""},
  {"lat":33.167283,"lon":-87.546093,"city":"Tuscaloosa","state":"AL","address":"710 Skyland Boulevard","name":""},
  {"lat":39.637023,"lon":-80.007029,"city":"Westover","state":"WV","address":"54 Crosscut Drive","name":""},
  {"lat":37.813296,"lon":-81.184196,"city":"Beckley","state":"WV","address":"301 Beckley Plaza","name":""},
  {"lat":38.414724,"lon":-82.290464,"city":"Barboursville","state":"WV","address":"30 Tanyard Station Dr","name":""},
  {"lat":36.819426,"lon":-76.067746,"city":"Virginia Beach","state":"VA","address":"2701 North Mall Drive Suite #101","name":""},
  {"lat":37.651864,"lon":-77.62301,"city":"Richmond","state":"VA","address":"11861 W. Broad Street","name":""},
  {"lat":37.508726,"lon":-77.587534,"city":"Richmond","state":"VA","address":"10400 Midlothian Tpke","name":""},
  {"lat":38.301745,"lon":-77.510667,"city":"Fredericksburg","state":"VA","address":"1320 Carl D. Silver Parkway","name":""},
  {"lat":37.166701,"lon":-80.41931,"city":"Christiansburg","state":"VA","address":"2711 Market Street NE","name":""},
  {"lat":33.874876,"lon":-98.536597,"city":"Wichita Falls","state":"TX","address":"3201 Lawrence Road","name":""},
  {"lat":26.175193,"lon":-97.985981,"city":"Weslaco","state":"TX","address":"535 E Expressway 83","name":""},
  {"lat":29.519378,"lon":-95.119597,"city":"Webster","state":"TX","address":"21351 Gulf Freeway","name":""},
  {"lat":32.728926,"lon":-97.800939,"city":"Weatherford","state":"TX","address":"326 W Interstate 20 Frontage Road","name":""},
  {"lat":32.42884,"lon":-96.83598,"city":"Waxahachie","state":"TX","address":"1650 N Hwy 77","name":""},
  {"lat":31.522732,"lon":-97.172123,"city":"Waco","state":"TX","address":"210 North New Road","name":""},
  {"lat":28.877122,"lon":-96.999823,"city":"Victoria","state":"TX","address":"8903 N Navarro","name":""},
  {"lat":32.255034,"lon":-95.306166,"city":"Tyler","state":"TX","address":"8668 South Broadway Avenue","name":""},
  {"lat":30.086055,"lon":-95.637794,"city":"Tomball","state":"TX","address":"14221 Farm to Market Road 2920","name":""},
  {"lat":30.169454,"lon":-95.456157,"city":"The Woodlands","state":"TX","address":"1360 Lake Woodlands Drive","name":""},
  {"lat":33.448566,"lon":-94.104694,"city":"Texarkana","state":"TX","address":"1101 Walton Drive","name":""},
  {"lat":32.719464,"lon":-96.32521,"city":"Terrell","state":"TX","address":"580 American Way","name":""},
  {"lat":31.062472,"lon":-97.3685,"city":"Temple","state":"TX","address":"1407 Marlandwood Road","name":""},
  {"lat":30.227771,"lon":-97.822745,"city":"Sunset Valley","state":"TX","address":"5400 Brodie Lane","name":""},
  {"lat":29.593313,"lon":-95.633078,"city":"Sugar Land","state":"TX","address":"16610 Southwest Freeway","name":""},
  {"lat":30.082938,"lon":-95.519564,"city":"Spring","state":"TX","address":"21650 Kuykendahl Rd","name":""},
  {"lat":30.073012,"lon":-95.433303,"city":"Spring","state":"TX","address":"1461 Spring Cypress Road","name":""},
  {"lat":29.803732,"lon":-98.419554,"city":"Spring Branch","state":"TX","address":"407 Singing Oaks 101","name":""},
  {"lat":33.678779,"lon":-96.604887,"city":"Sherman","state":"TX","address":"3939 US Highway 75 North","name":""},
  {"lat":29.576571,"lon":-98.317018,"city":"Selma","state":"TX","address":"15350 I-35 North","name":""},
  {"lat":29.600714,"lon":-97.948755,"city":"Seguin","state":"TX","address":"1316 IH 10 E","name":""},
  {"lat":29.848196,"lon":-97.968533,"city":"San Marcos","state":"TX","address":"550 Barnes Drive","name":""},
  {"lat":29.552875,"lon":-98.663664,"city":"San Antonio","state":"TX","address":"11650 Bandera Rd","name":""},
  {"lat":29.602537,"lon":-98.563726,"city":"San Antonio","state":"TX","address":"4071 North Loop 1604 West","name":""},
  {"lat":29.512382,"lon":-98.537805,"city":"San Antonio","state":"TX","address":"2643 NW Loop 410","name":""},
  {"lat":29.439121,"lon":-98.709127,"city":"San Antonio","state":"TX","address":"714 West Loop 1604 North","name":""},
  {"lat":29.605621,"lon":-98.461126,"city":"San Antonio","state":"TX","address":"2024 Texas 1604 Loop","name":""},
  {"lat":29.353342,"lon":-98.538452,"city":"San Antonio","state":"TX","address":"7903 S IH 35","name":""},
  {"lat":29.445159,"lon":-98.639073,"city":"San Antonio","state":"TX","address":"7523 Northwest Loop 410","name":""},
  {"lat":29.51741,"lon":-98.409616,"city":"San Antonio","state":"TX","address":"2727 Northeast Loop 410","name":""},
  {"lat":31.434179,"lon":-100.503112,"city":"San Angelo","state":"TX","address":"4351 Sunset Drive","name":""},
  {"lat":30.499032,"lon":-97.677367,"city":"Round Rock","state":"TX","address":"1351 North Interstate 35 Frontage Road","name":""},
  {"lat":29.5431,"lon":-95.746765,"city":"Rosenberg","state":"TX","address":"23801 Brazos Town Crossing","name":""},
  {"lat":32.895541,"lon":-96.46841,"city":"Rockwall","state":"TX","address":"920 Steger Towne Rd","name":""},
  {"lat":29.663294,"lon":-95.71582,"city":"Richmond","state":"TX","address":"19150 W. Bellfort Street","name":""},
  {"lat":29.700487,"lon":-95.810112,"city":"Richmond","state":"TX","address":"24970 Farm to Market 1093","name":""},
  {"lat":27.893039,"lon":-97.306783,"city":"Portland","state":"TX","address":"1900 US-181","name":""},
  {"lat":29.940988,"lon":-93.99191,"city":"Port Arthur","state":"TX","address":"8453 Memorial Blvd","name":""},
  {"lat":33.046444,"lon":-96.831966,"city":"Plano","state":"TX","address":"3305 Dallas Parkway","name":""},
  {"lat":33.051918,"lon":-96.698372,"city":"Plano","state":"TX","address":"4045 Central Expressway","name":""},
  {"lat":26.201473,"lon":-98.202101,"city":"Pharr","state":"TX","address":"500 North Jackson Road","name":""},
  {"lat":29.561634,"lon":-95.260769,"city":"Pearland","state":"TX","address":"2550 Pearland Pkwy","name":""},
  {"lat":29.559217,"lon":-95.393069,"city":"Pearland","state":"TX","address":"2804 Business Center Dr","name":""},
  {"lat":29.639822,"lon":-95.156949,"city":"Pasadena","state":"TX","address":"4627 E Sam Houston Pkwy S","name":""},
  {"lat":31.733689,"lon":-95.608858,"city":"Palestine","state":"TX","address":"2100 South Loop 256","name":""},
  {"lat":31.900054,"lon":-102.315223,"city":"Odessa","state":"TX","address":"6201 E Hwy 191","name":""},
  {"lat":32.836911,"lon":-97.220895,"city":"North Richland Hills","state":"TX","address":"7441 NE Loop 820","name":""},
  {"lat":30.133297,"lon":-95.231954,"city":"New Caney","state":"TX","address":"21770 Market Place Dr","name":""},
  {"lat":29.688722,"lon":-98.112222,"city":"New Braunfels","state":"TX","address":"159 I-35 S","name":""},
  {"lat":29.53561,"lon":-95.531188,"city":"Missouri City","state":"TX","address":"9210 Highway 6","name":""},
  {"lat":32.014028,"lon":-102.156474,"city":"Midland","state":"TX","address":"5300 West Wadley Avenue","name":""},
  {"lat":32.810763,"lon":-96.623575,"city":"Mesquite","state":"TX","address":"1665 North Town East Blvd","name":""},
  {"lat":33.218788,"lon":-96.633337,"city":"McKinney","state":"TX","address":"1720 W University Dr","name":""},
  {"lat":26.193057,"lon":-98.266308,"city":"McAllen","state":"TX","address":"3901 Expressway 83","name":""},
  {"lat":32.571718,"lon":-97.113004,"city":"Mansfield","state":"TX","address":"1711 E Broad Street","name":""},
  {"lat":31.296984,"lon":-94.724295,"city":"Lufkin","state":"TX","address":"2912 Brentwood Lane","name":""},
  {"lat":33.487783,"lon":-101.902539,"city":"Lubbock","state":"TX","address":"11445 Quaker Ave","name":""},
  {"lat":33.579427,"lon":-101.940873,"city":"Lubbock","state":"TX","address":"5802 19th Street","name":""},
  {"lat":32.538635,"lon":-94.757144,"city":"Longview","state":"TX","address":"445 Forest Square","name":""},
  {"lat":33.005731,"lon":-96.966172,"city":"Lewisville","state":"TX","address":"2428 South Stemmons Freeway","name":""},
  {"lat":27.616877,"lon":-99.467297,"city":"Laredo","state":"TX","address":"10820 International Boulevard","name":""},
  {"lat":27.555096,"lon":-99.505315,"city":"Laredo","state":"TX","address":"5720 San Bernardo Ave.","name":""},
  {"lat":29.050346,"lon":-95.463417,"city":"Lake Jackson","state":"TX","address":"120 Texas 332","name":""},
  {"lat":30.01329,"lon":-97.855931,"city":"Kyle","state":"TX","address":"5755 Kyle Pkwy Suite 200","name":""},
  {"lat":31.08761,"lon":-97.71736,"city":"Killeen","state":"TX","address":"2500 E Central Texas Expressway","name":""},
  {"lat":29.783538,"lon":-95.772902,"city":"Katy","state":"TX","address":"23155 Katy Freeway","name":""},
  {"lat":30.543531,"lon":-97.564628,"city":"Hutto","state":"TX","address":"250 Alliance Blvd","name":""},
  {"lat":30.70558,"lon":-95.56583,"city":"Huntsville","state":"TX","address":"281 Smither Drive","name":""},
  {"lat":30.00285,"lon":-95.281114,"city":"Humble","state":"TX","address":"9470 FM 1960","name":""},
  {"lat":29.686797,"lon":-95.456384,"city":"Houston","state":"TX","address":"8715-A W Loop S","name":""},
  {"lat":29.739389,"lon":-95.646358,"city":"Houston","state":"TX","address":"2320 State Highway 6","name":""},
  {"lat":29.96574,"lon":-95.543954,"city":"Houston","state":"TX","address":"7650 Farm-to-Market 1960 Rd W","name":""},
  {"lat":29.739931,"lon":-95.503775,"city":"Houston","state":"TX","address":"7600 Westheimer Road","name":""},
  {"lat":29.818018,"lon":-95.46952,"city":"Houston","state":"TX","address":"11077 Northwest Freeway","name":""},
  {"lat":29.732348,"lon":-95.415886,"city":"Houston","state":"TX","address":"2404 Southwest Fwy","name":""},
  {"lat":29.916399,"lon":-95.415654,"city":"Houston","state":"TX","address":"10375 North Freeway","name":""},
  {"lat":29.640632,"lon":-95.245776,"city":"Houston","state":"TX","address":"10414 Gulf Frwy","name":""},
  {"lat":29.787672,"lon":-95.536171,"city":"Houston","state":"TX","address":"9734 Katy Freeway","name":""},
  {"lat":29.768549,"lon":-95.188363,"city":"Houston","state":"TX","address":"13400 East Freeway","name":""},
  {"lat":29.916606,"lon":-95.612651,"city":"Houston","state":"TX","address":"19720 Northwest Freeway","name":""},
  {"lat":26.183203,"lon":-97.726081,"city":"Harlingen","state":"TX","address":"2833 West Expressway 83","name":""},
  {"lat":33.096395,"lon":-96.115941,"city":"Greenville","state":"TX","address":"3204 Interstate 30","name":""},
  {"lat":32.929584,"lon":-97.096648,"city":"Grapevine","state":"TX","address":"1523 State Highway 114","name":""},
  {"lat":30.633017,"lon":-97.700731,"city":"Georgetown","state":"TX","address":"1310 W University Ave","name":""},
  {"lat":32.958952,"lon":-96.646471,"city":"Garland","state":"TX","address":"4920 North Garland Avenue","name":""},
  {"lat":29.274975,"lon":-94.813441,"city":"Galveston","state":"TX","address":"4523 Fort Crockett Boulevard","name":""},
  {"lat":33.216837,"lon":-96.875908,"city":"Frisco","state":"TX","address":"1725 US HWY 380","name":""},
  {"lat":33.112505,"lon":-96.802812,"city":"Frisco","state":"TX","address":"4000 Preston Rd","name":""},
  {"lat":32.893315,"lon":-97.260952,"city":"Fort Worth","state":"TX","address":"5836 North Tarrant Parkway","name":""},
  {"lat":32.741069,"lon":-97.450584,"city":"Fort Worth","state":"TX","address":"1701 South Cherry Lane","name":""},
  {"lat":32.681354,"lon":-97.416767,"city":"Fort Worth","state":"TX","address":"6101 Bryant Irvin Road","name":""},
  {"lat":33.069766,"lon":-97.08649,"city":"Flower Mound","state":"TX","address":"3621 Justin Rd","name":""},
  {"lat":31.766233,"lon":-106.26504,"city":"El Paso","state":"TX","address":"1971 North Zaragoza Road Suite C","name":""},
  {"lat":31.68086,"lon":-106.316773,"city":"El Paso","state":"TX","address":"201 South Americas Avenue","name":""},
  {"lat":31.817779,"lon":-106.540126,"city":"El Paso","state":"TX","address":"801 South Mesa Hills Drive","name":""},
  {"lat":26.263145,"lon":-98.163754,"city":"Edinburg","state":"TX","address":"651 East Trenton Road","name":""},
  {"lat":28.718736,"lon":-100.478373,"city":"Eagle Pass","state":"TX","address":"2083 N Veterans Blvd","name":""},
  {"lat":33.232229,"lon":-97.16189,"city":"Denton","state":"TX","address":"2600 W University Dr","name":""},
  {"lat":32.859084,"lon":-96.750953,"city":"Dallas","state":"TX","address":"6375 E. Northwest Highway","name":""},
  {"lat":29.993265,"lon":-95.747003,"city":"Cypress","state":"TX","address":"28616 U.S. 290","name":""},
  {"lat":32.068558,"lon":-96.503656,"city":"Corsicana","state":"TX","address":"3621 State Highway 31 West","name":""},
  {"lat":27.711125,"lon":-97.381926,"city":"Corpus Christi","state":"TX","address":"5001 South Padre Island Drive","name":""},
  {"lat":30.334715,"lon":-95.481085,"city":"Conroe","state":"TX","address":"1414 Loop 336 West","name":""},
  {"lat":30.614208,"lon":-96.289791,"city":"College Station","state":"TX","address":"2511 Earl Rudder","name":""},
  {"lat":30.529011,"lon":-97.810501,"city":"Cedar Park","state":"TX","address":"1104 C-Bar Ranch Trail","name":""},
  {"lat":32.57293,"lon":-97.321979,"city":"Burleson","state":"TX","address":"12700 South Freeway","name":""},
  {"lat":25.966753,"lon":-97.515072,"city":"Brownsville","state":"TX","address":"4305 Old Highway 77","name":""},
  {"lat":30.14427,"lon":-96.379971,"city":"Brenham","state":"TX","address":"1041 Nolan St","name":""},
  {"lat":30.135144,"lon":-94.166407,"city":"Beaumont","state":"TX","address":"7130 Eastex Freeway","name":""},
  {"lat":29.7949,"lon":-94.982302,"city":"Baytown","state":"TX","address":"6425 Garth Rd","name":""},
  {"lat":30.114705,"lon":-97.354236,"city":"Bastrop","state":"TX","address":"749 Texas 71","name":""},
  {"lat":30.425617,"lon":-97.756458,"city":"Austin","state":"TX","address":"12250 Research Blvd","name":""},
  {"lat":30.335842,"lon":-97.699382,"city":"Austin","state":"TX","address":"7513 North Interstate Highway 35","name":""},
  {"lat":30.189006,"lon":-97.773196,"city":"Austin","state":"TX","address":"801 East William Cannon Drive","name":""},
  {"lat":32.682681,"lon":-97.124521,"city":"Arlington","state":"TX","address":"1101 West Arbrook Boulevard","name":""},
  {"lat":35.162591,"lon":-101.939841,"city":"Amarillo","state":"TX","address":"4400 Soncy Road","name":""},
  {"lat":32.407921,"lon":-99.771721,"city":"Abilene","state":"TX","address":"3518 S Clack Street","name":""},
  {"lat":35.986037,"lon":-86.555327,"city":"Smyrna","state":"TN","address":"1150 Genie Lane","name":""},
  {"lat":36.175728,"lon":-86.520464,"city":"Mount Juliet","state":"TN","address":"549 Pleasant Grove Rd","name":""},
  {"lat":35.197433,"lon":-89.798045,"city":"Memphis","state":"TN","address":"7926 Giacosa Place","name":""},
  {"lat":36.31056,"lon":-86.681303,"city":"Madison","state":"TN","address":"2350 Gallatin Pike North","name":""},
  {"lat":35.907568,"lon":-84.092606,"city":"Knoxville","state":"TN","address":"145 Moss Grove Boulevard","name":""},
  {"lat":36.550984,"lon":-82.495846,"city":"Kingsport","state":"TN","address":"2626 E Stone Drive","name":""},
  {"lat":36.334667,"lon":-82.407471,"city":"Johnson City","state":"TN","address":"925 Hamilton Place","name":""},
  {"lat":35.682981,"lon":-88.8582,"city":"Jackson","state":"TN","address":"193 Stonebrook Place","name":""},
  {"lat":35.164531,"lon":-85.250376,"city":"Hixson","state":"TN","address":"5929 Hwy 153","name":""},
  {"lat":35.955627,"lon":-86.819099,"city":"Franklin","state":"TN","address":"1915 Mallory Lane","name":""},
  {"lat":36.141441,"lon":-85.507854,"city":"Cookeville","state":"TN","address":"1265 Interstate Dr","name":""},
  {"lat":35.59781,"lon":-87.05523,"city":"Columbia","state":"TN","address":"800 South James M. Campbell Boulevard Suite 160","name":""},
  {"lat":35.048439,"lon":-89.690949,"city":"Collierville","state":"TN","address":"275 New Byhalia Road","name":""},
  {"lat":36.590688,"lon":-87.296671,"city":"Clarksville","state":"TN","address":"130 South Hampton Pl","name":""},
  {"lat":35.038623,"lon":-85.15435,"city":"Chattanooga","state":"TN","address":"2220 Hamilton Place Blvd","name":""},
  {"lat":34.933886,"lon":-81.999775,"city":"Spartanburg","state":"SC","address":"100 Peachwood Centre Drive","name":""},
  {"lat":34.940051,"lon":-80.957399,"city":"Rock Hill","state":"SC","address":"2468 Crosspointe Drive","name":""},
  {"lat":34.82886,"lon":-82.305831,"city":"Greenville","state":"SC","address":"59 Woodruff Industrial Ln Suite C","name":""},
  {"lat":34.186028,"lon":-79.824501,"city":"Florence","state":"SC","address":"120 Woody Jones Blvd","name":""},
  {"lat":34.829056,"lon":-82.54543,"city":"Easley","state":"SC","address":"201 Rolling Hills Circle","name":""},
  {"lat":34.071377,"lon":-81.154404,"city":"Columbia","state":"SC","address":"237 Park Terrace Dr","name":""},
  {"lat":34.126427,"lon":-80.877619,"city":"Columbia","state":"SC","address":"730 Fashion Drive","name":""},
  {"lat":32.427616,"lon":-80.728038,"city":"Beaufort","state":"SC","address":"320 Robert Smalls Parkway","name":""},
  {"lat":34.546686,"lon":-82.67287,"city":"Anderson","state":"SC","address":"3423 Clemson Blvd","name":""},
  {"lat":33.519365,"lon":-81.72321,"city":"Aiken","state":"SC","address":"321 Fabian Drive","name":""},
  {"lat":39.97619,"lon":-76.673095,"city":"York","state":"PA","address":"2801 East Market Street Suite 24","name":""},
  {"lat":40.309569,"lon":-76.795868,"city":"Harrisburg","state":"PA","address":"5125 Jonestown Road","name":""},
  {"lat":35.475877,"lon":-97.747541,"city":"Yukon","state":"OK","address":"12324 NW 10th St.","name":""},
  {"lat":36.102956,"lon":-95.908354,"city":"Tulsa","state":"OK","address":"6120 E 41st St","name":""},
  {"lat":36.049364,"lon":-95.856166,"city":"Tulsa","state":"OK","address":"7850 S 107th E Ave","name":""},
  {"lat":36.146065,"lon":-97.049462,"city":"Stillwater","state":"OK","address":"2409 N Perkins Rd","name":""},
  {"lat":36.285368,"lon":-95.846371,"city":"Owasso","state":"OK","address":"8959 N Garnett Rd","name":""},
  {"lat":35.389752,"lon":-97.519695,"city":"Oklahoma City","state":"OK","address":"7700 South Walker Avenue","name":""},
  {"lat":35.53741,"lon":-97.595989,"city":"Oklahoma City","state":"OK","address":"4261 Northwest 63rd Street","name":""},
  {"lat":35.243347,"lon":-97.483782,"city":"Norman","state":"OK","address":"2010 NW 24th Avenue","name":""},
  {"lat":35.450159,"lon":-97.423128,"city":"Midwest City","state":"OK","address":"5635 SE 15th St","name":""},
  {"lat":34.6268,"lon":-98.495283,"city":"Lawton","state":"OK","address":"1732 Northwest 82nd Street","name":""},
  {"lat":36.39289,"lon":-97.932528,"city":"Enid","state":"OK","address":"4406 W Owen K Garriott Rd","name":""},
  {"lat":35.630231,"lon":-97.485624,"city":"Edmond","state":"OK","address":"2501 South Broadway","name":""},
  {"lat":34.18768,"lon":-97.149231,"city":"Ardmore","state":"OK","address":"1605 12th Avenue","name":""},
  {"lat":39.994431,"lon":-82.034879,"city":"Zanesville","state":"OH","address":"3925 Gorsky Drive","name":""},
  {"lat":39.947351,"lon":-83.831321,"city":"Springfield","state":"OH","address":"1690 N Bechtle Ave","name":""},
  {"lat":40.877985,"lon":-81.434966,"city":"North Canton","state":"OH","address":"6687 Strip Avenue Northwest","name":""},
  {"lat":41.029846,"lon":-80.630951,"city":"Boardman","state":"OH","address":"1280 Doral Drive","name":""},
  {"lat":36.057378,"lon":-80.314088,"city":"Winston-Salem","state":"NC","address":"3467 Burke Mill Rd","name":""},
  {"lat":34.247318,"lon":-77.875091,"city":"Wilmington","state":"NC","address":"5309 Gingerwood Dr","name":""},
  {"lat":35.518911,"lon":-78.280409,"city":"Selma","state":"NC","address":"501 Saint Mark Avenue","name":""},
  {"lat":35.094916,"lon":-77.100824,"city":"New Bern","state":"NC","address":"3555 MLK Blvd.","name":""},
  {"lat":35.580873,"lon":-80.854776,"city":"Mooresville","state":"NC","address":"426 Talbert Road","name":""},
  {"lat":35.125439,"lon":-80.700172,"city":"Matthews","state":"NC","address":"2314 Matthews Township Pkwy","name":""},
  {"lat":35.796984,"lon":-78.512776,"city":"Knightdale","state":"NC","address":"216 Hinton Oaks Blvd","name":""},
  {"lat":35.466523,"lon":-80.59494,"city":"Kannapolis","state":"NC","address":"2211 Elder Ln","name":""},
  {"lat":34.796701,"lon":-77.41525,"city":"Jacksonville","state":"NC","address":"237 Samaria Dr","name":""},
  {"lat":35.70357,"lon":-81.300069,"city":"Hickory","state":"NC","address":"2162 US Highway 70 Southeast","name":""},
  {"lat":35.569473,"lon":-77.40374,"city":"Greenville","state":"NC","address":"3428 S. Memorial Dr.","name":""},
  {"lat":36.054361,"lon":-79.909771,"city":"Greensboro","state":"NC","address":"4526 W Wendover Ave","name":""},
  {"lat":35.259426,"lon":-81.117639,"city":"Gastonia","state":"NC","address":"3580 E Franklin Blvd","name":""},
  {"lat":35.052701,"lon":-78.976598,"city":"Fayetteville","state":"NC","address":"2100 Skibo Rd","name":""},
  {"lat":35.373045,"lon":-80.730284,"city":"Concord","state":"NC","address":"8675 Concord Mills Blvd","name":""},
  {"lat":35.105675,"lon":-80.877252,"city":"Charlotte","state":"NC","address":"9557 South Boulevard","name":""},
  {"lat":36.074927,"lon":-79.49361,"city":"Burlington","state":"NC","address":"655 Huffman Mill Rd","name":""},
  {"lat":35.747649,"lon":-78.830481,"city":"Apex","state":"NC","address":"1151 Pine Plaza Dr","name":""},
  {"lat":38.800248,"lon":-90.613084,"city":"St. Peters","state":"MO","address":"5214 I-70 North Outer Rd","name":""},
  {"lat":37.131479,"lon":-93.300098,"city":"Springfield","state":"MO","address":"610 West El Camino Alto Drive","name":""},
  {"lat":37.946496,"lon":-91.795287,"city":"Rolla","state":"MO","address":"1575 West Side Drive","name":""},
  {"lat":36.790889,"lon":-90.443656,"city":"Poplar Bluff","state":"MO","address":"3095 Oak Grove Road","name":""},
  {"lat":38.591068,"lon":-90.505801,"city":"Manchester","state":"MO","address":"14260 Manchester Rd","name":""},
  {"lat":39.242067,"lon":-94.455811,"city":"Liberty","state":"MO","address":"269 S Stewart Rd","name":""},
  {"lat":39.260427,"lon":-94.65566,"city":"Kansas City","state":"MO","address":"9130 Northwest Skyview Avenue","name":""},
  {"lat":37.071296,"lon":-94.475751,"city":"Joplin","state":"MO","address":"1717 South Range Line Road","name":""},
  {"lat":38.579079,"lon":-92.222034,"city":"Jefferson City","state":"MO","address":"739 Stoneridge Parkway","name":""},
  {"lat":38.950112,"lon":-92.297611,"city":"Columbia","state":"MO","address":"2651 Trimble Road","name":""},
  {"lat":37.29795,"lon":-89.586082,"city":"Cape Girardeau","state":"MO","address":"270 Shirley Drive","name":""},
  {"lat":38.825632,"lon":-94.523285,"city":"Belton","state":"MO","address":"510 E Markey Pkwy","name":""},
  {"lat":34.317705,"lon":-88.705874,"city":"Tupelo","state":"MS","address":"848 Barnes Crossing Rd","name":""},
  {"lat":33.447594,"lon":-88.847266,"city":"Starkville","state":"MS","address":"160 Hollywood Blvd","name":""},
  {"lat":34.960656,"lon":-89.899736,"city":"Olive Branch","state":"MS","address":"5075 Goodman Rd","name":""},
  {"lat":32.363004,"lon":-88.670189,"city":"Meridian","state":"MS","address":"115 South Frontage Road","name":""},
  {"lat":32.465534,"lon":-90.124954,"city":"Madison","state":"MS","address":"1951 Main Street","name":""},
  {"lat":31.323499,"lon":-89.387461,"city":"Hattiesburg","state":"MS","address":"6173 US Hwy 98","name":""},
  {"lat":30.436573,"lon":-89.089584,"city":"Gulfport","state":"MS","address":"15130 Crossroads Parkway","name":""},
  {"lat":32.344038,"lon":-90.066411,"city":"Flowood","state":"MS","address":"115 Freedom Bend","name":""},
  {"lat":30.460716,"lon":-88.892712,"city":"D'Iberville","state":"MS","address":"12075 Lamey Bridge Rd","name":""},
  {"lat":34.311295,"lon":-89.914554,"city":"Batesville","state":"MS","address":"204 Covenant Drive","name":""},
  {"lat":39.633553,"lon":-77.762537,"city":"Hagerstown","state":"MD","address":"1580 Wesel Boulevard","name":""},
  {"lat":32.503826,"lon":-92.160584,"city":"West Monroe","state":"LA","address":"111 Constitution Drive","name":""},
  {"lat":29.813728,"lon":-90.816963,"city":"Thibodaux","state":"LA","address":"140 Glenwild Dr","name":""},
  {"lat":30.317171,"lon":-89.827247,"city":"Slidell","state":"LA","address":"61107 Airport Road","name":""},
  {"lat":32.400575,"lon":-93.746162,"city":"Shreveport","state":"LA","address":"210 E Bert Kouns Industrial Loop","name":""},
  {"lat":30.006926,"lon":-90.22518,"city":"Metairie","state":"LA","address":"8843 Veterans Memorial Blvd","name":""},
  {"lat":30.192298,"lon":-93.172541,"city":"Lake Charles","state":"LA","address":"2900 Derek Dr","name":""},
  {"lat":30.26203,"lon":-91.995493,"city":"Lafayette","state":"LA","address":"3001 Louisiana Avenue","name":""},
  {"lat":30.15947,"lon":-92.054697,"city":"Lafayette","state":"LA","address":"4232 Ambassador Caffery Parkway","name":""},
  {"lat":29.614502,"lon":-90.758172,"city":"Houma","state":"LA","address":"1777 Martin Luther King Boulevard","name":""},
  {"lat":29.952302,"lon":-90.18125,"city":"Harahan","state":"LA","address":"800 Clearview Parkway","name":""},
  {"lat":30.484006,"lon":-90.463872,"city":"Hammond","state":"LA","address":"600 CM Fagan Drive","name":""},
  {"lat":29.915929,"lon":-90.049764,"city":"Gretna","state":"LA","address":"91 Westbank Expressway","name":""},
  {"lat":30.465173,"lon":-90.926778,"city":"Denham Springs","state":"LA","address":"9997 Crossing Way","name":""},
  {"lat":30.446198,"lon":-90.127695,"city":"Covington","state":"LA","address":"7205 Pinnacle Parkway","name":""},
  {"lat":32.561151,"lon":-93.706314,"city":"Bossier City","state":"LA","address":"2801 Beene Boulevard","name":""},
  {"lat":30.456609,"lon":-91.100103,"city":"Baton Rouge","state":"LA","address":"8464 Airline Highway","name":""},
  {"lat":30.391051,"lon":-91.063828,"city":"Baton Rouge","state":"LA","address":"10808 Industriplex Boulevard","name":""},
  {"lat":31.268031,"lon":-92.453182,"city":"Alexandria","state":"LA","address":"3205 South MacArthur Drive","name":""},
  {"lat":37.075344,"lon":-88.68103,"city":"Paducah","state":"KY","address":"150 McBride Lane","name":""},
  {"lat":37.753838,"lon":-87.06833,"city":"Owensboro","state":"KY","address":"3051 Highland Pointe Dr","name":""},
  {"lat":38.139995,"lon":-85.664657,"city":"Louisville","state":"KY","address":"4901 Outer Loop Suite 144","name":""},
  {"lat":38.244879,"lon":-85.504966,"city":"Louisville","state":"KY","address":"13401 Shelbyville Road Suite 140","name":""},
  {"lat":37.992644,"lon":-84.520874,"city":"Lexington","state":"KY","address":"3220 Nicholasville Road Suite 175","name":""},
  {"lat":37.725404,"lon":-85.888113,"city":"Elizabethtown","state":"KY","address":"1507 Ring Road","name":""},
  {"lat":37.728366,"lon":-97.204802,"city":"Wichita","state":"KS","address":"2540 N Greenwich Rd","name":""},
  {"lat":37.73242,"lon":-97.46009,"city":"Wichita","state":"KS","address":"2710 N Maize Rd","name":""},
  {"lat":39.046074,"lon":-95.764227,"city":"Topeka","state":"KS","address":"1133 SW Wanamaker Road Suite 300","name":""},
  {"lat":38.950619,"lon":-94.721589,"city":"Overland Park","state":"KS","address":"9781 Quivira Road","name":""},
  {"lat":38.881352,"lon":-94.752829,"city":"Olathe","state":"KS","address":"14405 W 135th St","name":""},
  {"lat":39.18456,"lon":-96.553149,"city":"Manhattan","state":"KS","address":"401 E Poyntz Avenue","name":""},
  {"lat":39.413052,"lon":-87.412266,"city":"Terre Haute","state":"IN","address":"4444 S US Hwy 41","name":""},
  {"lat":41.712155,"lon":-86.183679,"city":"Mishawaka","state":"IN","address":"5652 Grape Road","name":""},
  {"lat":40.415544,"lon":-86.841749,"city":"Lafayette","state":"IN","address":"100 S Creasy Ln Suite 1400","name":""},
  {"lat":38.328263,"lon":-85.744201,"city":"Jeffersonville","state":"IN","address":"1600 Veterans Pkwy","name":""},
  {"lat":39.637851,"lon":-86.12379,"city":"Indianapolis","state":"IN","address":"8811 Hardegan St","name":""},
  {"lat":41.117119,"lon":-85.131802,"city":"Fort Wayne","state":"IN","address":"614 East Coliseum Boulevard","name":""},
  {"lat":37.984562,"lon":-87.470823,"city":"Evansville","state":"IN","address":"6700 East Columbia St","name":""},
  {"lat":40.003964,"lon":-86.124535,"city":"Carmel","state":"IN","address":"1960 East Greyhound Pass","name":""},
  {"lat":39.166082,"lon":-86.492214,"city":"Bloomington","state":"IN","address":"123 S Kingston Drive","name":""},
  {"lat":39.761267,"lon":-86.347217,"city":"Avon","state":"IN","address":"9905 East U.S. Hwy 36","name":""},
  {"lat":39.757787,"lon":-89.708534,"city":"Springfield","state":"IL","address":"3231 S. Veterans Pkwy","name":""},
  {"lat":40.780808,"lon":-89.677095,"city":"Peoria","state":"IL","address":"7611 North Grand Prairie Drive","name":""},
  {"lat":38.594729,"lon":-89.95646,"city":"O'Fallon","state":"IL","address":"1574 W Highway 50","name":""},
  {"lat":32.616573,"lon":-83.683913,"city":"Warner Robins","state":"GA","address":"2907 Watson Blvd","name":""},
  {"lat":30.831058,"lon":-83.318481,"city":"Valdosta","state":"GA","address":"455 Norman Dr","name":""},
  {"lat":33.88707,"lon":-84.01244,"city":"Snellville","state":"GA","address":"1585 Scenic Hwy","name":""},
  {"lat":34.265032,"lon":-85.188028,"city":"Rome","state":"GA","address":"232 Shorter Avenue","name":""},
  {"lat":33.400394,"lon":-84.743483,"city":"Newnan","state":"GA","address":"1096 Bullsboro Drive","name":""},
  {"lat":33.424687,"lon":-84.18876,"city":"McDonough","state":"GA","address":"198 South Point Boulevard","name":""},
  {"lat":32.815596,"lon":-83.673624,"city":"Macon","state":"GA","address":"1689 Eisenhower Parkway","name":""},
  {"lat":33.997467,"lon":-84.592538,"city":"Kennesaw","state":"GA","address":"1580 Crater Lake Dr","name":""},
  {"lat":33.894579,"lon":-84.757956,"city":"Hiram","state":"GA","address":"4215 Jimmy Lee Smith Pkwy","name":""},
  {"lat":34.304627,"lon":-83.857025,"city":"Gainesville","state":"GA","address":"1140 Dawsonville Hwy","name":""},
  {"lat":33.522609,"lon":-82.1224,"city":"Evans","state":"GA","address":"4210 Washington Road","name":""},
  {"lat":33.92708,"lon":-84.347053,"city":"Dunwoody","state":"GA","address":"130 Perimeter Center West","name":""},
  {"lat":33.729246,"lon":-84.764427,"city":"Douglasville","state":"GA","address":"7200 Concourse Parkway","name":""},
  {"lat":34.790136,"lon":-84.997079,"city":"Dalton","state":"GA","address":"865 Shugart Rd","name":""},
  {"lat":34.155683,"lon":-84.175246,"city":"Cumming","state":"GA","address":"320 Peachtree Pkwy","name":""},
  {"lat":33.650938,"lon":-84.005883,"city":"Conyers","state":"GA","address":"1448 Old Salem Rd.","name":""},
  {"lat":32.549183,"lon":-84.931984,"city":"Columbus","state":"GA","address":"6700 Whittlesey Blvd","name":""},
  {"lat":34.16623,"lon":-84.785204,"city":"Cartersville","state":"GA","address":"453 E. Main St","name":""},
  {"lat":34.082311,"lon":-83.991119,"city":"Buford","state":"GA","address":"3720 Buford Drive","name":""},
  {"lat":31.233671,"lon":-81.494289,"city":"Brunswick","state":"GA","address":"10400 Canal Crossing","name":""},
  {"lat":33.937,"lon":-83.453449,"city":"Athens","state":"GA","address":"3505 Atlanta Highway","name":""},
  {"lat":31.618017,"lon":-84.216657,"city":"Albany","state":"GA","address":"2601 Dawson Road F01","name":""},
  {"lat":30.624612,"lon":-81.540959,"city":"Yulee","state":"FL","address":"463937 East State Road 200 Suite 300","name":""},
  {"lat":28.039938,"lon":-80.661093,"city":"West Melbourne","state":"FL","address":"4285 Norfolk Pkwy","name":""},
  {"lat":30.46296,"lon":-84.224372,"city":"Tallahassee","state":"FL","address":"3122-9 Mahan Drive","name":""},
  {"lat":27.316732,"lon":-80.392859,"city":"Port St. Lucie","state":"FL","address":"1525 St Lucie W Blvd","name":""},
  {"lat":27.836199,"lon":-82.686817,"city":"Pinellas Park","state":"FL","address":"7230 US Hwy 19 N","name":""},
  {"lat":30.49948,"lon":-87.225177,"city":"Pensacola","state":"FL","address":"7171 N Davis Hwy","name":""},
  {"lat":30.191049,"lon":-85.673255,"city":"Panama City","state":"FL","address":"820 W. 23rd Street","name":""},
  {"lat":28.467675,"lon":-81.306825,"city":"Orlando","state":"FL","address":"6640 Eagle Watch Drive","name":""},
  {"lat":28.495596,"lon":-81.422639,"city":"Orlando","state":"FL","address":"3557 Gardens Ridge Way","name":""},
  {"lat":28.568264,"lon":-81.20384,"city":"Orlando","state":"FL","address":"11955 E Colonial Dr","name":""},
  {"lat":30.147971,"lon":-81.753774,"city":"Orange Park","state":"FL","address":"661 Blanding Blvd","name":""},
  {"lat":28.19381,"lon":-82.397074,"city":"Lutz","state":"FL","address":"25415 Sierra Center Blvd","name":""},
  {"lat":28.086981,"lon":-81.974422,"city":"Lakeland","state":"FL","address":"3530 US Highway 98 North","name":""},
  {"lat":28.753155,"lon":-81.355584,"city":"Lake Mary","state":"FL","address":"3641 Lake Emma Road","name":""},
  {"lat":28.341717,"lon":-81.408179,"city":"Kissimmee","state":"FL","address":"621 Centerview Boulevard","name":""},
  {"lat":30.192211,"lon":-81.550452,"city":"Jacksonville","state":"FL","address":"9041 Southside Blvd","name":""},
  {"lat":30.323658,"lon":-81.495222,"city":"Jacksonville","state":"FL","address":"11901 Atlantic Blvd","name":""},
  {"lat":33.60291,"lon":-86.641284,"city":"Trussville","state":"AL","address":"1612 Gadsden Highway","name":""},
  {"lat":32.454658,"lon":-86.406403,"city":"Prattville","state":"AL","address":"1557 Cotton Exchange","name":""},
  {"lat":32.364488,"lon":-86.14414,"city":"Montgomery","state":"AL","address":"8610 Eastchase Parkway","name":""},
  {"lat":30.688043,"lon":-88.218085,"city":"Mobile","state":"AL","address":"7460 Airport Blvd","name":""},
  {"lat":30.671369,"lon":-88.136487,"city":"Mobile","state":"AL","address":"3725 Airport Blvd","name":""},
  {"lat":34.75824,"lon":-86.730934,"city":"Madison","state":"AL","address":"7506 Highway 72 West","name":""},
  {"lat":34.706116,"lon":-86.590948,"city":"Huntsville","state":"AL","address":"2900 Memorial Parkway SW","name":""},
  {"lat":33.364794,"lon":-86.822658,"city":"Hoover","state":"AL","address":"2810 John Hawkins Parkway","name":""},
  {"lat":33.999851,"lon":-85.99631,"city":"Gadsden","state":"AL","address":"601 George Wallace Dr","name":""},
  {"lat":30.380546,"lon":-87.686447,"city":"Foley","state":"AL","address":"2410 S McKenzie St","name":""},
  {"lat":34.828954,"lon":-87.626072,"city":"Florence","state":"AL","address":"113 Cox Creek Parkway South","name":""},
  {"lat":31.261139,"lon":-85.436358,"city":"Dothan","state":"AL","address":"3950 Montgomery Hwy","name":""},
  {"lat":34.557282,"lon":-87.004061,"city":"Decatur","state":"AL","address":"1205 Wimberly Drive Southwest","name":""},
  {"lat":34.155992,"lon":-86.833121,"city":"Cullman","state":"AL","address":"1706 2nd Avenue Southwest","name":""},
  {"lat":33.42706,"lon":-86.709925,"city":"Birmingham","state":"AL","address":"4610 US Highway 280","name":""}]}