{"key":"amazon_locker","displayName":"Amazon Locker","category":"shopping","useLocationName":false,"locations":[
  {"lat":42.088931,"lon":-72.628264,"city":"Agawam","state":"MA","address":"17 Springfield St","name":""},
  {"lat":42.134445,"lon":-72.622335,"city":"West Springfield","state":"MA","address":"Staples, 1129 Riverdale St","name":""},
  {"lat":42.09404,"lon":-72.580895,"city":"Springfield","state":"MA","address":"575 MAIN ST","name":""},
  {"lat":42.11018,"lon":-72.610672,"city":"Springfield","state":"MA","address":"Pride Market, 77 West St","name":""},
  {"lat":42.102548,"lon":-72.556358,"city":"Springfield","state":"MA","address":"Richard B. Flynn Campus Union, 263 Alden St","name":""},
  {"lat":42.108653,"lon":-72.57455,"city":"Springfield","state":"MA","address":"555 State Street","name":""},
  {"lat":42.079786,"lon":-72.536746,"city":"East Longmeadow","state":"MA","address":"618 N MAIN ST, 618 N Main St","name":""},
  {"lat":42.126049,"lon":-72.583953,"city":"Springfield","state":"MA","address":"Cumberland Farms 202, 798 CAREW ST","name":""},
  {"lat":42.121252,"lon":-72.583492,"city":"Springfield","state":"MA","address":"655 Liberty St","name":""},
  {"lat":42.095816,"lon":-72.587077,"city":"Springfield","state":"MA","address":"1150 Hall of Fame Ave Ste 1","name":""},
  {"lat":42.092935,"lon":-72.557062,"city":"Springfield","state":"MA","address":"STOP n Save, 172 White St","name":""},
  {"lat":42.093471,"lon":-72.550194,"city":"Springfield","state":"MA","address":"383 Allen Street","name":""},
  {"lat":42.117236,"lon":-72.526039,"city":"Springfield","state":"MA","address":"1060 Wilbraham Rd","name":""},
  {"lat":42.116105,"lon":-72.499133,"city":"Springfield","state":"MA","address":"1830 Wilbraham Rd","name":""},
  {"lat":42.142028,"lon":-72.574322,"city":"Springfield","state":"MA","address":"1276 ST JAMES AVE","name":""},
  {"lat":42.11636,"lon":-72.497908,"city":"Springfield","state":"MA","address":"1201 PARKER ST","name":""},
  {"lat":42.287805,"lon":-72.407352,"city":"Belchertown","state":"MA","address":"125 NORTH MAIN ST.","name":""},
  {"lat":42.338846,"lon":-72.609028,"city":"Hadley","state":"MA","address":"Pride Store, 25 Russell St","name":""},
  {"lat":42.468531,"lon":-72.613399,"city":"Whately","state":"MA","address":"Circle K - #4707508, 1 SUNDERLAND RD","name":""},
  {"lat":42.337521,"lon":-72.636719,"city":"Northampton","state":"MA","address":"Pride MARKET, 375 King St","name":""},
  {"lat":42.196011,"lon":-72.621356,"city":"Holyoke","state":"MA","address":"Superfresh, 235 South St","name":""},
  {"lat":42.196341,"lon":-72.62119,"city":"Holyoke","state":"MA","address":"223 SOUTH SREET","name":""},
  {"lat":42.201979,"lon":-72.612794,"city":"Holyoke","state":"MA","address":"555 HIGH ST","name":""},
  {"lat":42.174872,"lon":-72.572366,"city":"Chicopee","state":"MA","address":"591 Memorial Dr, Suite B","name":""},
  {"lat":42.139323,"lon":-72.578603,"city":"Springfield","state":"MA","address":"1379 Liberty St","name":""},
  {"lat":42.205531,"lon":-72.597316,"city":"Holyoke","state":"MA","address":"FLAT MARKET, 36 Ely St","name":""},
  {"lat":42.211022,"lon":-72.628169,"city":"Holyoke","state":"MA","address":"1553 DWIGHT ST, 1553 Dwight St","name":""},
  {"lat":42.136916,"lon":-72.520621,"city":"Springfield","state":"MA","address":"CITGO - Parent Account-Citgo - Pitstop, 740 boston rd","name":""},
  {"lat":42.170679,"lon":-72.478605,"city":"Ludlow","state":"MA","address":"478 CTR ST, 478 Center St","name":""},
  {"lat":42.154398,"lon":-72.489672,"city":"Springfield","state":"MA","address":"Cumberland Farms 6717, 66 PARKER ST","name":""},
  {"lat":42.145022,"lon":-72.487746,"city":"Springfield","state":"MA","address":"Staples, 1690 Boston Post Rd E","name":""},
  {"lat":42.266639,"lon":-72.670601,"city":"Easthampton","state":"MA","address":"90 UNION ST","name":""},
  {"lat":42.335182,"lon":-72.669063,"city":"Livermore Falls","state":"ME","address":"Cumberland Farms 5579, 53 MAIN STREET","name":""},
  {"lat":42.093681,"lon":-72.500691,"city":"Springfield","state":"MA","address":"390 Cooley St","name":""},
  {"lat":42.125336,"lon":-72.75065,"city":"Westfield","state":"MA","address":"51 FRANKLIN STREET","name":""},
  {"lat":42.112944,"lon":-72.727134,"city":"Westfield","state":"MA","address":"301 East Main St","name":""},
  {"lat":42.128534,"lon":-72.622506,"city":"West Springfield","state":"MA","address":"935 Riverdale St","name":""},
  {"lat":42.255485,"lon":-72.573015,"city":"South Hadley","state":"MA","address":"Auxiliary Services Building, 50 College Street","name":""},
  {"lat":42.109277,"lon":-72.601027,"city":"Springfield","state":"MA","address":"Rent-A-Center - 1570, 2180 MAIN ST","name":""},
  {"lat":42.130871,"lon":-72.792398,"city":"Westfield","state":"MA","address":"Westfield State University - 577 Western Ave, 577 Western Ave","name":""},
  {"lat":42.587571,"lon":-72.626968,"city":"Greenfield","state":"MA","address":"Staples, 259 Mohawk Trail (Rte. 2)","name":""},
  {"lat":42.568627,"lon":-71.816105,"city":"Fitchburg","state":"MA","address":"551 ELECTRIC AVENUE","name":""},
  {"lat":42.57972,"lon":-71.795058,"city":"Fitchburg","state":"MA","address":"133 WATER STREET","name":""},
  {"lat":42.541405,"lon":-71.758308,"city":"Leominster","state":"MA","address":"STAPLES, 289 N Main St","name":""},
  {"lat":42.548869,"lon":-71.762778,"city":"Leominster","state":"MA","address":"DOLLAR TREE, 516 N Main St","name":""},
  {"lat":42.529178,"lon":-71.742305,"city":"Leominster","state":"MA","address":"JLL Property Management, 100 Commercial Rd","name":""},
  {"lat":42.524676,"lon":-71.753729,"city":"Leominster","state":"MA","address":"142 MECHANICS STREET","name":""},
  {"lat":42.501783,"lon":-71.745462,"city":"Leominster","state":"MA","address":"766 CENTRAL ST","name":""},
  {"lat":42.519426,"lon":-71.513242,"city":"Littleton","state":"MA","address":"Amazon Delivery Stations, 151-153 Taylor Street","name":""},
  {"lat":42.664326,"lon":-71.70124,"city":"Townsend","state":"MA","address":"220 MAIN STREET","name":""},
  {"lat":42.565545,"lon":-71.423674,"city":"Westford","state":"MA","address":"Dollar Tree, 1 Carlisle Rd","name":""},
  {"lat":42.483028,"lon":-71.413918,"city":"Acton","state":"MA","address":"Staples, 145 Great Rd Route 2a","name":""},
  {"lat":42.201215,"lon":-71.840723,"city":"Auburn","state":"MA","address":"Staples, 436 Southbridge St Ste 2","name":""},
  {"lat":42.23007,"lon":-71.848842,"city":"Worcester","state":"MA","address":"61 S Ludlow St","name":""},
  {"lat":42.211236,"lon":-71.794729,"city":"Worcester","state":"MA","address":"527 SW Cutoff","name":""},
  {"lat":42.24694,"lon":-71.809822,"city":"Worcester","state":"MA","address":"544 Southbridge St Ste 3","name":""},
  {"lat":42.235008,"lon":-71.79658,"city":"Worcester","state":"MA","address":"2 Blackstone River Rd","name":""},
  {"lat":42.160093,"lon":-71.883605,"city":"North Oxford","state":"MA","address":"OXFORD MARKET, 676 Main St","name":""},
  {"lat":42.254499,"lon":-71.81398,"city":"Worcester","state":"MA","address":"Family Dollar - 30345, 835 MAIN STREET","name":""},
  {"lat":42.2719,"lon":-71.792537,"city":"Worcester","state":"MA","address":"104 Belmont St, 104 Belmont St","name":""},
  {"lat":42.252684,"lon":-71.790115,"city":"Worcester","state":"MA","address":"Worcester Academy - 81Providence Street, 81Providence Street","name":""},
  {"lat":42.261126,"lon":-71.82056,"city":"Worcester","state":"MA","address":"321 Park Ave","name":""},
  {"lat":42.267012,"lon":-71.843344,"city":"Worcester","state":"MA","address":"Worcester State University, 486 Chandler Street, Learning Resource Center 1st Floor","name":""},
  {"lat":42.264348,"lon":-71.833551,"city":"Worcester","state":"MA","address":"121 June St","name":""},
  {"lat":42.25097,"lon":-71.768145,"city":"Worcester","state":"MA","address":"725 GRAFTON STREET","name":""},
  {"lat":42.250092,"lon":-71.826111,"city":"Worcester","state":"MA","address":"Clark University Blackstone Residence Hall, 85 Florence St","name":""},
  {"lat":42.251388,"lon":-71.82493,"city":"Worcester","state":"MA","address":"Clark University Dana Commons building, Dana Commons","name":""},
  {"lat":42.252732,"lon":-71.822222,"city":"Worcester","state":"MA","address":"Clark University Estabrook Hall, 144 Woodland St","name":""},
  {"lat":42.267311,"lon":-71.843832,"city":"Worcester","state":"MA","address":"Worcester State University, 486 Chandler Street, Dowden Residence Hall 1st Floor","name":""},
  {"lat":42.267002,"lon":-71.843316,"city":"Worcester","state":"MA","address":"Worcester State University, 486 Chandler Street, Wasylean Residence Hall","name":""},
  {"lat":42.294301,"lon":-71.828768,"city":"Worcester","state":"MA","address":"Assumption University - 500 Salisbury Street (new), 500 Salisbury Street","name":""},
  {"lat":42.018348,"lon":-71.498079,"city":"Bellingham","state":"MA","address":"Dollar Tree - 5505, 50 Pulaski Blvd","name":""},
  {"lat":42.006249,"lon":-71.506419,"city":"Woonsocket","state":"RI","address":"403 CLINTON ST","name":""},
  {"lat":42.015993,"lon":-71.498921,"city":"Woonsocket","state":"RI","address":"Family Dollar - 32614, 400 DIAMOND HILL ROAD","name":""},
  {"lat":42.006104,"lon":-71.506866,"city":"Woonsocket","state":"RI","address":"401 Clinton Street #3","name":""},
  {"lat":42.008213,"lon":-71.506309,"city":"Woonsocket","state":"RI","address":"Santander, 411 Social St","name":""},
  {"lat":42.116566,"lon":-71.46166,"city":"Bellingham","state":"MA","address":"Staples, 284 Hartford Ave","name":""},
  {"lat":41.984133,"lon":-71.515448,"city":"Woonsocket","state":"RI","address":"1400 Park Ave.","name":""},
  {"lat":42.088811,"lon":-71.424399,"city":"Franklin","state":"MA","address":"264 Franklin Village Drive","name":""},
  {"lat":42.124241,"lon":-72.058064,"city":"Sturbridge","state":"MA","address":"Staples, 120 Charlton Rd Ste 2","name":""},
  {"lat":42.414325,"lon":-71.683001,"city":"Clinton","state":"MA","address":"Apple Country Market, 159 Mechanic St","name":""},
  {"lat":42.381112,"lon":-71.569163,"city":"Hudson","state":"MA","address":"213 Washington St","name":""},
  {"lat":42.277807,"lon":-71.712343,"city":"Shrewsbury","state":"MA","address":"Staples, 571 Boston Tpke Ste 3","name":""},
  {"lat":42.294291,"lon":-71.718298,"city":"Shrewsbury","state":"MA","address":"38 Maple St","name":""},
  {"lat":42.318025,"lon":-71.796376,"city":"Worcester","state":"MA","address":"755 WEST BOYLSTON STREET","name":""},
  {"lat":42.339888,"lon":-71.592353,"city":"Marlborough","state":"MA","address":"Five Below - 8146, 225 BOSTON POST RD WEST","name":""},
  {"lat":42.344569,"lon":-71.545323,"city":"Marlborough","state":"MA","address":"DOLLAR TREE, 75 S BOLTON ST","name":""},
  {"lat":42.34899,"lon":-71.49967,"city":"Marlborough","state":"MA","address":"Staples, 771 Boston Post Rd E Ste 11","name":""},
  {"lat":42.297465,"lon":-71.484805,"city":"Framingham","state":"MA","address":"1701 WORCESTER RD","name":""},
  {"lat":42.260857,"lon":-71.464734,"city":"Ashland","state":"MA","address":"Santander, 12 Front St","name":""},
  {"lat":42.297563,"lon":-71.43931,"city":"Framingham","state":"MA","address":"Framingham State University, 100 State Street","name":""},
  {"lat":42.271545,"lon":-71.419075,"city":"Framingham","state":"MA","address":"Doms Variety Store, 269 Hollis St","name":""},
  {"lat":42.301798,"lon":-71.359108,"city":"Natick","state":"MA","address":"Staples, 881 Worcester St Ste 1","name":""},
  {"lat":42.303785,"lon":-71.379546,"city":"Natick","state":"MA","address":"321 A Speen St","name":""},
  {"lat":42.247573,"lon":-71.429651,"city":"Ashland","state":"MA","address":"196 Pond St","name":""},
  {"lat":42.302432,"lon":-71.335477,"city":"Natick","state":"MA","address":"230 Worcester St","name":""},
  {"lat":42.277115,"lon":-71.409289,"city":"Framingham","state":"MA","address":"24 Blandin Ave","name":""},
  {"lat":42.29433,"lon":-71.308928,"city":"Wellesley","state":"MA","address":"Wellesley College, 21 Wellesley College Road","name":""},
  {"lat":42.292029,"lon":-71.300209,"city":"Wellesley","state":"MA","address":"Wellesley College - Residence Hall, 106 Central Street","name":""},
  {"lat":42.30166,"lon":-71.288757,"city":"Wellesley","state":"MA","address":"Santander, 277 Linden St","name":""},
  {"lat":42.462614,"lon":-71.351965,"city":"Concord","state":"MA","address":"Concord Market, 71 Lowell Rd","name":""},
  {"lat":42.556228,"lon":-71.262668,"city":"Billerica","state":"MA","address":"DOLLAR TREE, 480 Boston Rd.","name":""},
  {"lat":42.402843,"lon":-71.235161,"city":"Waltham","state":"MA","address":"Staples, 800 Lexington St","name":""},
  {"lat":42.571482,"lon":-71.276884,"city":"Billerica","state":"MA","address":"314 BOSTON RD","name":""},
  {"lat":42.435501,"lon":-71.235075,"city":"Lexington","state":"MA","address":"Cumberland Farms 6735, 324 MARRETT RD","name":""},
  {"lat":42.468006,"lon":-71.179253,"city":"Woburn","state":"MA","address":"173 Cambridge Rd","name":""},
  {"lat":42.610769,"lon":-71.332833,"city":"Chelmsford","state":"MA","address":"STAPLES, 265 CHELMSFORD ST","name":""},
  {"lat":42.487276,"lon":-71.223963,"city":"Burlington","state":"MA","address":"Third Ave Burlington, 19 3rd Ave","name":""},
  {"lat":42.470102,"lon":-71.149126,"city":"Woburn","state":"MA","address":"111 Main St","name":""},
  {"lat":42.411411,"lon":-71.234631,"city":"Waltham","state":"MA","address":"Santander, 1045 Trapelo Rd","name":""},
  {"lat":42.106859,"lon":-71.394514,"city":"Franklin","state":"MA","address":"Lincoln Street Market, 455 LINCOLN ST","name":""},
  {"lat":42.294333,"lon":-71.235695,"city":"Needham","state":"MA","address":"845 Highland Ave","name":""},
  {"lat":42.305597,"lon":-71.220186,"city":"Needham","state":"MA","address":"Staples, 163 Highland Ave","name":""},
  {"lat":42.343082,"lon":-71.244994,"city":"Newton","state":"MA","address":"Lasell University, 80 Maple St.","name":""},
  {"lat":42.368616,"lon":-71.220014,"city":"Waltham","state":"MA","address":"Plato's Closet, 100 River St","name":""},
  {"lat":42.370343,"lon":-71.237127,"city":"Waltham","state":"MA","address":"Rent-A-Center - 1573, 343 MOODY ST","name":""},
  {"lat":42.49716,"lon":-71.124429,"city":"Woburn","state":"MA","address":"Staples, 335 Washington St","name":""},
  {"lat":42.490687,"lon":-71.100571,"city":"Stoneham","state":"MA","address":"163 Main St","name":""},
  {"lat":42.391236,"lon":-71.140065,"city":"Cambridge","state":"MA","address":"Staples, 186 Alewife Brook Pkwy Ste 216","name":""},
  {"lat":42.500768,"lon":-71.076814,"city":"Wakefield","state":"MA","address":"193 Albion St","name":""},
  {"lat":42.415173,"lon":-71.110861,"city":"Medford","state":"MA","address":"133 Main St","name":""},
  {"lat":42.416552,"lon":-71.159623,"city":"Arlington","state":"MA","address":"Whole Foods, 808 Massachusetts Ave","name":""},
  {"lat":42.522859,"lon":-71.077173,"city":"Wakefield","state":"MA","address":"Cumberland Farms 6734, 200 LOWELL ST","name":""},
  {"lat":42.562186,"lon":-71.141155,"city":"Wilmington","state":"MA","address":"Amazon Delivery Stations, 110 Fordham Rd","name":""},
  {"lat":42.479332,"lon":-71.020728,"city":"Saugus","state":"MA","address":"Staples, 444 Broadway Ste 1","name":""},
  {"lat":42.429291,"lon":-71.060989,"city":"Malden","state":"MA","address":"169 Salem St","name":""},
  {"lat":42.394287,"lon":-71.126224,"city":"Cambridge","state":"MA","address":"2245 Mass Ave","name":""},
  {"lat":42.398351,"lon":-71.108394,"city":"Somerville","state":"MA","address":"582 Broadway","name":""},
  {"lat":42.455772,"lon":-71.023288,"city":"Saugus","state":"MA","address":"1252 Broadway","name":""},
  {"lat":42.409079,"lon":-71.119212,"city":"Medford","state":"MA","address":"419 Boston AVE, 419 Boston Avenue","name":""},
  {"lat":42.503824,"lon":-71.070473,"city":"Wakefield","state":"MA","address":"376 Main Street","name":""},
  {"lat":42.677322,"lon":-71.132264,"city":"North Andover","state":"MA","address":"Staples, 73 Turnpike St","name":""},
  {"lat":42.689409,"lon":-71.158305,"city":"Lawrence","state":"MA","address":"Family DOllar, 322 S BROADWAY","name":""},
  {"lat":42.707499,"lon":-71.161178,"city":"Lawrence","state":"MA","address":"Santander, 296 Essex St","name":""},
  {"lat":42.707841,"lon":-71.165555,"city":"Lawrence","state":"MA","address":"100 Lowell St","name":""},
  {"lat":42.695141,"lon":-71.153555,"city":"Lawrence","state":"MA","address":"V & V Market Inc, 273 S Union St","name":""},
  {"lat":42.72358,"lon":-71.160714,"city":"Methuen","state":"MA","address":"40 Jackson Street","name":""},
  {"lat":42.719107,"lon":-71.196135,"city":"Methuen","state":"MA","address":"QUICK STOP, 155 Lowell St","name":""},
  {"lat":42.651666,"lon":-71.303385,"city":"Lowell","state":"MA","address":"494 BRIDGE ST","name":""},
  {"lat":42.72715,"lon":-71.20167,"city":"Methuen","state":"MA","address":"150 Pelham St","name":""},
  {"lat":42.729717,"lon":-71.210212,"city":"Methuen","state":"MA","address":"181 Pelham St","name":""},
  {"lat":42.736337,"lon":-71.196064,"city":"Methuen","state":"MA","address":"436 Broadway","name":""},
  {"lat":42.627344,"lon":-71.322939,"city":"Lowell","state":"MA","address":"463 Chelmsford St","name":""},
  {"lat":42.628514,"lon":-71.307608,"city":"Lowell","state":"MA","address":"970 Gorham St","name":""},
  {"lat":42.640707,"lon":-71.312129,"city":"Lowell","state":"MA","address":"Los hermanos market - 206 middlessex st, 206 middlessex st","name":""},
  {"lat":42.630073,"lon":-71.322223,"city":"Lowell","state":"MA","address":"FAMILY DOLLAR, 21 NOTTINGHAM ST","name":""},
  {"lat":42.706178,"lon":-71.201548,"city":"Methuen","state":"MA","address":"Santander, 200 Haverhill St","name":""},
  {"lat":42.730128,"lon":-71.136705,"city":"Methuen","state":"MA","address":"119 Merrimack St","name":""},
  {"lat":42.651214,"lon":-71.333036,"city":"Lowell","state":"MA","address":"63 Mammoth Rd","name":""},
  {"lat":42.643198,"lon":-71.334624,"city":"Lowell","state":"MA","address":"Umass Lowell O'Leary Library, 61 Wilder St","name":""},
  {"lat":42.644796,"lon":-71.334561,"city":"Lowell","state":"MA","address":"Joe's Kwik Marts, 558 Pawtucket St","name":""},
  {"lat":42.636076,"lon":-71.35145,"city":"Lowell","state":"MA","address":"1665 MIDDLESEX ST","name":""},
  {"lat":42.637515,"lon":-71.316563,"city":"Lowell","state":"MA","address":"55 CHELMSFORD ST","name":""},
  {"lat":42.664081,"lon":-71.3254,"city":"Dracut","state":"MA","address":"50 PLEASANT STREET","name":""},
  {"lat":42.678308,"lon":-71.337999,"city":"Dracut","state":"MA","address":"1643 Lakeview Ave","name":""},
  {"lat":42.653002,"lon":-71.319206,"city":"Lowell","state":"MA","address":"Umass Lowell East Campus Garage, 47 Pawtucket St","name":""},
  {"lat":42.717398,"lon":-71.319824,"city":"Pelham","state":"NH","address":"99 Bridge Street","name":""},
  {"lat":42.784515,"lon":-71.078088,"city":"Haverhill","state":"MA","address":"389 Main St Ste A","name":""},
  {"lat":42.826972,"lon":-71.107554,"city":"Plaistow","state":"NH","address":"Staples, 58 Plaistow Rd, Suite A15","name":""},
  {"lat":42.740508,"lon":-71.133177,"city":"Methuen","state":"MA","address":"280 Merrimack St","name":""},
  {"lat":42.80604,"lon":-71.24463,"city":"Salem","state":"NH","address":"362 N Broadway","name":""},
  {"lat":42.768085,"lon":-71.217311,"city":"Salem","state":"NH","address":"Staples, 167 S Broadway","name":""},
  {"lat":42.701811,"lon":-71.17302,"city":"Lawrence","state":"MA","address":"700 ESSEX ST","name":""},
  {"lat":42.570156,"lon":-71.112254,"city":"North Reading","state":"MA","address":"72 Main St","name":""},
  {"lat":42.709115,"lon":-71.441188,"city":"Nashua","state":"NH","address":"Staples, 252 Daniel Webster Hwy","name":""},
  {"lat":42.702356,"lon":-71.440268,"city":"Nashua","state":"NH","address":"Cumberland Farms 5423, 308 DANIEL WEBSTER HWY","name":""},
  {"lat":42.727956,"lon":-71.448314,"city":"Nashua","state":"NH","address":"Cumberland Farms 5436, 111 DANIEL WEBSTER HWY","name":""},
  {"lat":42.706842,"lon":-71.440485,"city":"Nashua","state":"NH","address":"Kimco - Webster Square - 110120, 268 DANIEL WEBSTER HWY","name":""},
  {"lat":42.547899,"lon":-70.982148,"city":"Peabody","state":"MA","address":"545 Lowell St","name":""},
  {"lat":42.561796,"lon":-70.977952,"city":"Danvers","state":"MA","address":"Cumberland Farms 6757, 76 NEWBURY ST","name":""},
  {"lat":42.558595,"lon":-70.982266,"city":"Danvers","state":"MA","address":"8 NEWBURY ST","name":""},
  {"lat":42.415077,"lon":-71.078748,"city":"Malden","state":"MA","address":"11 Highland Ave","name":""},
  {"lat":42.425074,"lon":-71.044699,"city":"Malden","state":"MA","address":"50 Broadway","name":""},
  {"lat":42.769293,"lon":-71.478558,"city":"Nashua","state":"NH","address":"Cumberland Farms 5433, 106 AMHERST ST","name":""},
  {"lat":42.428649,"lon":-71.013733,"city":"Revere","state":"MA","address":"339 Squire Rd Ste 22","name":""},
  {"lat":42.40224,"lon":-71.04327,"city":"Everett","state":"MA","address":"1707 Revere Beach Pkwy","name":""},
  {"lat":42.358867,"lon":-71.153375,"city":"Boston","state":"MA","address":"Staples, 1660 Soldiers Field Rd Ste 7","name":""},
  {"lat":42.383809,"lon":-71.110367,"city":"Somerville","state":"MA","address":"622 Somerville Ave","name":""},
  {"lat":42.382542,"lon":-71.080032,"city":"Boston","state":"MA","address":"Joe's Kwik Marts, 123 Cambridge St","name":""},
  {"lat":42.466235,"lon":-70.942051,"city":"Lynn","state":"MA","address":"200 UNION ST","name":""},
  {"lat":42.467752,"lon":-70.943023,"city":"Lynn","state":"MA","address":"15 Joyce St","name":""},
  {"lat":42.485509,"lon":-70.899388,"city":"Salem","state":"MA","address":"Staples, 17 Paradise Rd","name":""},
  {"lat":42.469013,"lon":-70.899626,"city":"Swampscott","state":"MA","address":"swampscott liquors - 646 humprey st unit d, 646 humprey st unit d","name":""},
  {"lat":42.500232,"lon":-70.926394,"city":"Salem","state":"MA","address":"323 Highland Ave","name":""},
  {"lat":42.506559,"lon":-70.896314,"city":"Salem","state":"MA","address":"200 CANAL ST, 200 CANAL ST","name":""},
  {"lat":42.509023,"lon":-70.896396,"city":"Salem","state":"MA","address":"138 CANAL STREET","name":""},
  {"lat":42.509496,"lon":-70.899537,"city":"Salem","state":"MA","address":"Amazon Delivery Stations, 20 Colonial Rd","name":""},
  {"lat":42.524125,"lon":-70.928566,"city":"Peabody","state":"MA","address":"D&R Market, 54 Foster St","name":""},
  {"lat":42.526015,"lon":-70.899744,"city":"Salem","state":"MA","address":"90 North St","name":""},
  {"lat":42.418469,"lon":-70.990782,"city":"Revere","state":"MA","address":"1120 N Shore Rd","name":""},
  {"lat":42.423844,"lon":-71.008779,"city":"Revere","state":"MA","address":"147 Squire Rd","name":""},
  {"lat":42.412837,"lon":-71.001751,"city":"Revere","state":"MA","address":"Amazon Delivery Stations, 135 American Legion Hwy","name":""},
  {"lat":42.405239,"lon":-71.015572,"city":"Revere","state":"MA","address":"127 Broadway","name":""},
  {"lat":42.396321,"lon":-71.008775,"city":"Revere","state":"MA","address":"Joe's Kwik Mart LLC, 41 Lee Burbank Hwy","name":""},
  {"lat":42.576294,"lon":-70.888811,"city":"Beverly","state":"MA","address":"Staples, 65 Dodge St Ste 2","name":""},
  {"lat":42.520305,"lon":-70.897305,"city":"Salem","state":"MA","address":"E Market, 28 NORMAN ST","name":""},
  {"lat":42.874616,"lon":-70.870572,"city":"Seabrook","state":"NH","address":"25 Lafayette Rd","name":""},
  {"lat":42.885157,"lon":-70.870075,"city":"Seabrook","state":"NH","address":"361 Lafayette Rd","name":""},
  {"lat":42.5579,"lon":-70.879124,"city":"Beverly","state":"MA","address":"377 CABOT ST","name":""},
  {"lat":42.576543,"lon":-70.891741,"city":"Beverly","state":"MA","address":"48 DODGE ST","name":""},
  {"lat":42.553232,"lon":-70.936317,"city":"Danvers","state":"MA","address":"Staples, 250 Independence Way","name":""},
  {"lat":42.552854,"lon":-70.936735,"city":"Danvers","state":"MA","address":"230 Independence Way","name":""},
  {"lat":42.946814,"lon":-70.832623,"city":"Hampton","state":"NH","address":"Hampton Mobil gas station, 685 Lafayette Rd","name":""},
  {"lat":42.081085,"lon":-71.383626,"city":"Franklin","state":"MA","address":"303B E Central St","name":""},
  {"lat":42.167652,"lon":-71.167049,"city":"Canton","state":"MA","address":"702 Neponset St","name":""},
  {"lat":42.131872,"lon":-71.10251,"city":"Stoughton","state":"MA","address":"525 WASHINGTON ST","name":""},
  {"lat":42.210478,"lon":-71.177064,"city":"Norwood","state":"MA","address":"Amazon Delivery Stations, 750 Everett St","name":""},
  {"lat":42.246388,"lon":-71.171469,"city":"Dedham","state":"MA","address":"Staples, 450 Providence Hwy","name":""},
  {"lat":42.249266,"lon":-71.1548,"city":"Dedham","state":"MA","address":"216 BUSSEY ST","name":""},
  {"lat":42.096135,"lon":-71.052835,"city":"Brockton","state":"MA","address":"200 Westgate Dr","name":""},
  {"lat":42.167992,"lon":-71.046354,"city":"Randolph","state":"MA","address":"Americas Food Basket, 300 N Main St","name":""},
  {"lat":42.10079,"lon":-71.056625,"city":"Brockton","state":"MA","address":"Cumberland Farms 6773, 710 Oak St","name":""},
  {"lat":42.255675,"lon":-71.032367,"city":"Quincy","state":"MA","address":"650 Adams St","name":""},
  {"lat":42.242962,"lon":-71.018593,"city":"Quincy","state":"MA","address":"75 Copeland St","name":""},
  {"lat":42.09954,"lon":-71.065397,"city":"Brockton","state":"MA","address":"25 OAK ST EXT","name":""},
  {"lat":42.207242,"lon":-71.023818,"city":"Braintree","state":"MA","address":"705 GRANITE ST","name":""},
  {"lat":42.110157,"lon":-71.019022,"city":"Brockton","state":"MA","address":"4 Hovendon Ave, 4 Hovendon Ave","name":""},
  {"lat":42.21607,"lon":-70.999239,"city":"Braintree","state":"MA","address":"Staples, 500 Grossman Dr","name":""},
  {"lat":42.290296,"lon":-71.089686,"city":"Dorchester Center","state":"MA","address":"995 BLUE HILL AVE","name":""},
  {"lat":42.154053,"lon":-71.245002,"city":"Walpole","state":"MA","address":"673 Main St","name":""},
  {"lat":42.128875,"lon":-71.038957,"city":"Avon","state":"MA","address":"A1 Market, 85 E Main St","name":""},
  {"lat":42.253433,"lon":-71.170522,"city":"Dedham","state":"MA","address":"302 Providence Hwy","name":""},
  {"lat":42.131872,"lon":-71.10251,"city":"Stoughton","state":"MA","address":"525 Washington St","name":""},
  {"lat":42.243912,"lon":-70.936414,"city":"Weymouth","state":"MA","address":"STAPLES, 729 Bridge St # 3A","name":""},
  {"lat":42.214995,"lon":-70.92291,"city":"East Weymouth","state":"MA","address":"1453 Commercial St","name":""},
  {"lat":42.242173,"lon":-70.944575,"city":"Weymouth","state":"MA","address":"11 SEA ST","name":""},
  {"lat":42.25395,"lon":-71.168745,"city":"Dedham","state":"MA","address":"Kimco - Dedham Mall - 125520, 300 Providence Hwy","name":""},
  {"lat":42.300786,"lon":-71.115159,"city":"Boston","state":"MA","address":"280 South Street, at VA Legion Post","name":""},
  {"lat":42.287058,"lon":-71.148982,"city":"Boston","state":"MA","address":"1710 Centre St","name":""},
  {"lat":42.320291,"lon":-71.111501,"city":"Boston","state":"MA","address":"451 Centre St","name":""},
  {"lat":42.321371,"lon":-71.110797,"city":"Boston","state":"MA","address":"Whole Foods, 413 Centre St","name":""},
  {"lat":42.314906,"lon":-71.099467,"city":"Boston","state":"MA","address":"El Barrio Convenience - 3119 Washington Street, 3119 Washington Street","name":""},
  {"lat":42.283929,"lon":-71.044888,"city":"Boston","state":"MA","address":"Staples, 757 Gallivan Blvd","name":""},
  {"lat":42.334144,"lon":-71.104304,"city":"Boston","state":"MA","address":"722 Huntington Ave","name":""},
  {"lat":42.283948,"lon":-71.048343,"city":"Boston","state":"MA","address":"710 Gallivan Blvd","name":""},
  {"lat":42.052516,"lon":-71.240872,"city":"Foxborough","state":"MA","address":"16A Commercial St.","name":""},
  {"lat":42.037367,"lon":-71.233512,"city":"Foxborough","state":"MA","address":"FIT FACTORY, 10 Foxboro Blvd","name":""},
  {"lat":42.024101,"lon":-71.232806,"city":"Mansfield","state":"MA","address":"Staples, 390 West St Ste 3","name":""},
  {"lat":42.011228,"lon":-71.304629,"city":"Plainville","state":"MA","address":"Santander, 62 Messenger St","name":""},
  {"lat":41.980393,"lon":-71.332759,"city":"North Attleboro","state":"MA","address":"PICK N' PAY, 54 S Washington St","name":""},
  {"lat":42.008287,"lon":-71.302585,"city":"North Attleboro","state":"MA","address":"591 Kelley Blvd","name":""},
  {"lat":41.980047,"lon":-71.328829,"city":"North Attleboro","state":"MA","address":"FIT FACTORY, 473 E Washington St","name":""},
  {"lat":42.201424,"lon":-70.955486,"city":"Weymouth","state":"MA","address":"CASTLE SELF STORAGE, 186 Main St","name":""},
  {"lat":42.23439,"lon":-70.978457,"city":"Braintree","state":"MA","address":"CASTLE SELF STORAGE, 464 Quincy Ave","name":""},
  {"lat":42.25014,"lon":-70.993674,"city":"Quincy","state":"MA","address":"230 Washington St","name":""},
  {"lat":42.118889,"lon":-70.880788,"city":"Hanover","state":"MA","address":"1371 HANOVER ST","name":""},
  {"lat":42.246717,"lon":-71.004856,"city":"Quincy","state":"MA","address":"100 Granite St","name":""},
  {"lat":42.22106,"lon":-70.969507,"city":"Braintree","state":"MA","address":"51 COMMERCIAL ST","name":""},
  {"lat":42.240881,"lon":-70.991983,"city":"Quincy","state":"MA","address":"215 QUINCY AVE","name":""},
  {"lat":42.218588,"lon":-71.038697,"city":"Braintree","state":"MA","address":"FIT FACTORY, 288 Wood Rd","name":""},
  {"lat":41.958763,"lon":-71.119853,"city":"Taunton","state":"MA","address":"2070 BAY ST","name":""},
  {"lat":41.955342,"lon":-71.132534,"city":"Taunton","state":"MA","address":"Amazon Delivery Stations, 800 John Quincy Adams Rd","name":""},
  {"lat":41.960795,"lon":-71.117714,"city":"Taunton","state":"MA","address":"2101 Bay St.","name":""},
  {"lat":41.947136,"lon":-71.277565,"city":"Attleboro","state":"MA","address":"111 Pleasant St","name":""},
  {"lat":42.105718,"lon":-70.665667,"city":"Marshfield","state":"MA","address":"ocean market & liquor - 915 ocean st, 915 ocean st","name":""},
  {"lat":42.178377,"lon":-71.219614,"city":"Norwood","state":"MA","address":"420 Walpole Street","name":""},
  {"lat":42.105586,"lon":-70.947111,"city":"Abington","state":"MA","address":"2 Brockton Ave","name":""},
  {"lat":42.106664,"lon":-70.944764,"city":"Abington","state":"MA","address":"Santander, 533 Washington St","name":""},
  {"lat":42.060622,"lon":-71.06545,"city":"Brockton","state":"MA","address":"Cumberland Farms 2349, 1205 BELMONT ST","name":""},
  {"lat":42.080465,"lon":-71.00875,"city":"Brockton","state":"MA","address":"EG America, 306 CRESCENT ST","name":""},
  {"lat":42.053518,"lon":-71.010993,"city":"Brockton","state":"MA","address":"1614 Main St","name":""},
  {"lat":41.939395,"lon":-71.348581,"city":"North Attleboro","state":"MA","address":"Five Below - 418, 1250 S WASHINGTON ST","name":""},
  {"lat":41.941949,"lon":-71.347112,"city":"North Attleboro","state":"MA","address":"1190 S Washington St","name":""},
  {"lat":42.354465,"lon":-71.055484,"city":"Boston","state":"MA","address":"100 High St, 100 High St","name":""},
  {"lat":42.359211,"lon":-71.057894,"city":"Boston","state":"MA","address":"Staples, 1 Washington Mall","name":""},
  {"lat":42.365533,"lon":-71.076239,"city":"Cambridge","state":"MA","address":"Lincoln Property Company, 55 Cambridge Pkwy","name":""},
  {"lat":42.32121,"lon":-71.05648,"city":"Boston","state":"MA","address":"874 Dorchester Ave","name":""},
  {"lat":42.342573,"lon":-71.097086,"city":"Boston","state":"MA","address":"117-121 Jersey St","name":""},
  {"lat":42.318924,"lon":-71.042334,"city":"Boston","state":"MA","address":"Harbor Point on the Bay, 27 Harbor Point Blvd","name":""},
  {"lat":42.313315,"lon":-71.057271,"city":"Boston","state":"MA","address":"1089 Dorchester Ave.","name":""},
  {"lat":42.38063,"lon":-71.070765,"city":"Boston","state":"MA","address":"Santander, 437 Rutherford Ave","name":""},
  {"lat":42.373773,"lon":-71.086138,"city":"Somerville","state":"MA","address":"14 McGrath Hwy","name":""},
  {"lat":42.37575,"lon":-71.103108,"city":"Somerville","state":"MA","address":"45 BEACON ST, 45 Beacon St","name":""},
  {"lat":42.3679,"lon":-71.10216,"city":"Cambridge","state":"MA","address":"Whole Foods, 115 Prospect St","name":""},
  {"lat":42.369331,"lon":-71.039741,"city":"Boston","state":"MA","address":"14 Maverick Sq","name":""},
  {"lat":42.372667,"lon":-71.099325,"city":"Cambridge","state":"MA","address":"Joe's Kwik Mart LLC, 287 Prospect St","name":""},
  {"lat":42.350496,"lon":-71.131351,"city":"Boston","state":"MA","address":"1227 Commonwealth Ave","name":""},
  {"lat":42.34649,"lon":-71.12853,"city":"Brookline","state":"MA","address":"454 Harvard St","name":""},
  {"lat":42.308586,"lon":-71.074363,"city":"Boston","state":"MA","address":"FAMILY DOLLAR, 273 Columbia Rd","name":""},
  {"lat":42.316114,"lon":-71.097861,"city":"Boston","state":"MA","address":"Rent-A-Center - 3946, 3050 WASHINGTON ST","name":""},
  {"lat":42.305699,"lon":-71.067331,"city":"Boston","state":"MA","address":"Elier barbershop inc - 227 Bowdoin st, 227 Bowdoin st","name":""},
  {"lat":42.315282,"lon":-71.06653,"city":"Boston","state":"MA","address":"Rent-A-Center - 2516, 531 COLUMBIA RD","name":""},
  {"lat":42.29649,"lon":-71.047872,"city":"Boston","state":"MA","address":"730 William T Morrissey Blvd","name":""},
  {"lat":42.288532,"lon":-71.046795,"city":"Boston","state":"MA","address":"320 Neponset Ave","name":""},
  {"lat":42.27455,"lon":-71.026898,"city":"Quincy","state":"MA","address":"363 Hancock St","name":""},
  {"lat":42.277715,"lon":-71.030154,"city":"Quincy","state":"MA","address":"238 Hancock St","name":""},
  {"lat":42.286684,"lon":-71.090328,"city":"Boston","state":"MA","address":"FAMILY HARDWARE, 1106 Blue Hill Ave","name":""},
  {"lat":42.299683,"lon":-71.027825,"city":"Quincy","state":"MA","address":"Safe Harbor Marina Bay, 333 Victory Rd","name":""},
  {"lat":42.367369,"lon":-71.023227,"city":"Boston","state":"MA","address":"1 Hotel Dr","name":""},
  {"lat":42.344418,"lon":-71.032104,"city":"Boston","state":"MA","address":"Jamestown L.P - Design Center, 1 Design Center Pl","name":""},
  {"lat":42.397425,"lon":-71.000951,"city":"Revere","state":"MA","address":"31 Furlong Dr","name":""},
  {"lat":42.404758,"lon":-71.024219,"city":"Chelsea","state":"MA","address":"1090 REVERE BEACH PKWY","name":""},
  {"lat":42.382077,"lon":-70.980768,"city":"Winthrop","state":"MA","address":"43 REVERE ST","name":""},
  {"lat":42.399668,"lon":-71.068311,"city":"Everett","state":"MA","address":"12 Mystic View Rd","name":""},
  {"lat":42.392826,"lon":-71.038664,"city":"Chelsea","state":"MA","address":"Rent-A-Center - 1544, 57 EVERETT AVE","name":""},
  {"lat":42.388636,"lon":-71.041135,"city":"Chelsea","state":"MA","address":"115 Broadway","name":""},
  {"lat":42.396279,"lon":-71.083697,"city":"Somerville","state":"MA","address":"Staples, 165 Middlesex Ave","name":""},
  {"lat":42.339645,"lon":-71.158757,"city":"Boston","state":"MA","address":"Boston College, 2000 Commonwealth Avenue","name":""},
  {"lat":42.317878,"lon":-71.157622,"city":"Newton","state":"MA","address":"Boston College - 400 Heath Street, 400 Heath Street","name":""},
  {"lat":42.358422,"lon":-71.126429,"city":"Boston","state":"MA","address":"Joe's Kwik Mart LLC, 219 Cambridge St","name":""},
  {"lat":42.350139,"lon":-71.165595,"city":"Boston","state":"MA","address":"584 Washington St","name":""},
  {"lat":42.338474,"lon":-71.168323,"city":"Newton","state":"MA","address":"Boston College, 90 Saint Thomas More Dr","name":""},
  {"lat":42.407221,"lon":-71.083724,"city":"Medford","state":"MA","address":"Fellsway, 630 Fellsway #4","name":""},
  {"lat":42.40245,"lon":-71.050372,"city":"Everett","state":"MA","address":"1894 Revere Beach Pkwy","name":""},
  {"lat":41.963803,"lon":-71.067085,"city":"Raynham","state":"MA","address":"7-Eleven - Company-44168, 1315 BROADWAY","name":""},
  {"lat":41.985421,"lon":-70.964288,"city":"Bridgewater","state":"MA","address":"Bridgewater State University - 351 Great Hill Drive, Weygand Hall 351 Great Hill Drive","name":""},
  {"lat":41.90474,"lon":-71.04518,"city":"Raynham","state":"MA","address":"Staples, 600 South St W Ste 4","name":""},
  {"lat":41.906971,"lon":-70.956147,"city":"Middleborough","state":"MA","address":"Amazon Delivery Stations, 30 Commerce Blvd","name":""},
  {"lat":41.903104,"lon":-71.100354,"city":"Taunton","state":"MA","address":"1 TREMONT STREET","name":""},
  {"lat":41.910797,"lon":-70.735839,"city":"Plymouth","state":"MA","address":"Richadale Foodshop, 265 S Meadow Rd","name":""},
  {"lat":41.91375,"lon":-70.803063,"city":"Carver","state":"MA","address":"Quickeez Beer & Wine, 60 N Main St","name":""},
  {"lat":41.956022,"lon":-70.679735,"city":"Plymouth","state":"MA","address":"105 Samoset St","name":""},
  {"lat":41.97421,"lon":-70.685213,"city":"Plymouth","state":"MA","address":"324 Court St","name":""},
  {"lat":41.950107,"lon":-70.713887,"city":"Plymouth","state":"MA","address":"Santander, 21 Commerce Way","name":""},
  {"lat":41.971911,"lon":-70.715126,"city":"Kingston","state":"MA","address":"FIT FACTORY, 101 Kingston Collection Way","name":""},
  {"lat":41.883573,"lon":-71.066763,"city":"Taunton","state":"MA","address":"CASTLE SELF STORAGE, 687 County St","name":""},
  {"lat":41.818252,"lon":-70.551742,"city":"Plymouth","state":"MA","address":"2302 State Rd","name":""},
  {"lat":42.341878,"lon":-71.194941,"city":"Newton","state":"MA","address":"Boston College, 885 Centre St","name":""},
  {"lat":41.741128,"lon":-70.623819,"city":"Buzzards Bay","state":"MA","address":"Massachusetts Maritime Academy Main, 101 Academy Drive","name":""},
  {"lat":41.553228,"lon":-70.602779,"city":"Falmouth","state":"MA","address":"24450, 743 MAIN ST","name":""},
  {"lat":41.662501,"lon":-70.285707,"city":"Hyannis","state":"MA","address":"Staples, 364 Barnstable Rd","name":""},
  {"lat":41.921311,"lon":-71.359463,"city":"Attleboro","state":"MA","address":"STAPLES, 287 Washington St Ste 6","name":""},
  {"lat":41.887448,"lon":-71.374987,"city":"Pawtucket","state":"RI","address":"502 BROADWAY","name":""},
  {"lat":41.904052,"lon":-71.410389,"city":"Lincoln","state":"RI","address":"Lil General 30, 259 Front St","name":""},
  {"lat":41.890986,"lon":-71.386918,"city":"Central Falls","state":"RI","address":"839 Broad St","name":""},
  {"lat":41.887568,"lon":-71.356168,"city":"Pawtucket","state":"RI","address":"700 Central Ave.","name":""},
  {"lat":41.857474,"lon":-71.399471,"city":"Pawtucket","state":"RI","address":"DOLLAR TREE, 603 Pawtucket Ave","name":""},
  {"lat":41.87921,"lon":-71.414537,"city":"Pawtucket","state":"RI","address":"607 SMITHFIELD AVE","name":""},
  {"lat":41.888705,"lon":-71.353586,"city":"Pawtucket","state":"RI","address":"1253 NEWPORT AVE","name":""},
  {"lat":41.857278,"lon":-71.352529,"city":"East Providence","state":"RI","address":"60 Newport Ave #1","name":""},
  {"lat":41.912129,"lon":-71.404174,"city":"Cumberland","state":"RI","address":"8 Mendon Road","name":""},
  {"lat":41.886181,"lon":-71.387368,"city":"Central Falls","state":"RI","address":"Cumberland Farms 1214, 478 BROAD ST","name":""},
  {"lat":41.870505,"lon":-71.418423,"city":"Pawtucket","state":"RI","address":"342 Power Rd","name":""},
  {"lat":41.639956,"lon":-70.886135,"city":"Fairhaven","state":"MA","address":"Staples, 17 Plaza Way # RT6","name":""},
  {"lat":41.657613,"lon":-70.830708,"city":"Mattapoisett","state":"MA","address":"Gulf EXPRESS, 60 Fairhaven Rd","name":""},
  {"lat":41.660898,"lon":-70.946788,"city":"New Bedford","state":"MA","address":"139 HATHAWAY RD","name":""},
  {"lat":41.614658,"lon":-70.919741,"city":"New Bedford","state":"MA","address":"1024 Cove Rd","name":""},
  {"lat":41.659827,"lon":-70.947718,"city":"New Bedford","state":"MA","address":"MA22, 969 Shawmut Ave","name":""},
  {"lat":41.611295,"lon":-70.916967,"city":"New Bedford","state":"MA","address":"160 WEST RODNEY FRENCH BLVD, U","name":""},
  {"lat":41.635892,"lon":-70.948812,"city":"New Bedford","state":"MA","address":"EG America, 810 ROCKDALE AVE","name":""},
  {"lat":41.658648,"lon":-70.947083,"city":"New Bedford","state":"MA","address":"Cumberland Farms 6745, 923 SHAWMUT AVE","name":""},
  {"lat":41.641664,"lon":-70.989986,"city":"Dartmouth","state":"MA","address":"Dartmouth Mall, 200 N Dartmouth Mall","name":""},
  {"lat":41.617238,"lon":-70.929892,"city":"New Bedford","state":"MA","address":"561 Orchard Street","name":""},
  {"lat":41.676352,"lon":-70.942242,"city":"New Bedford","state":"MA","address":"950 Kings Hwy","name":""},
  {"lat":41.762949,"lon":-71.095696,"city":"Freetown","state":"MA","address":"Neon, 33-36 Innovation Way","name":""},
  {"lat":41.756334,"lon":-71.119051,"city":"Fall River","state":"MA","address":"Cumberland Farms 2286, 4548 N MAIN ST","name":""},
  {"lat":41.671675,"lon":-71.160134,"city":"Fall River","state":"MA","address":"Staples, 416 William S Canning Blvd","name":""},
  {"lat":41.740967,"lon":-71.147675,"city":"Somerset","state":"MA","address":"516 COUNTY ST","name":""},
  {"lat":41.683776,"lon":-71.175719,"city":"Fall River","state":"MA","address":"South end liquors, 1755 S Main St","name":""},
  {"lat":41.691664,"lon":-71.140103,"city":"Fall River","state":"MA","address":"529 Quarry St.","name":""},
  {"lat":41.749158,"lon":-71.214151,"city":"Swansea","state":"MA","address":"Joe's Kwik Mart LLC, 800 Gar Hwy","name":""},
  {"lat":41.677208,"lon":-71.154702,"city":"Fall River","state":"MA","address":"Cumberland Farms 2227, 864 STAFFORD ROAD","name":""},
  {"lat":41.664919,"lon":-71.156561,"city":"Fall River","state":"MA","address":"1099 WILLIAM S CANNING BLVD","name":""},
  {"lat":41.626942,"lon":-71.146219,"city":"Tiverton","state":"RI","address":"Joe's Kwik Mart LLC, 1308 Stafford Rd","name":""},
  {"lat":41.681561,"lon":-71.164139,"city":"Fall River","state":"MA","address":"152 Orswell Street","name":""},
  {"lat":41.651367,"lon":-71.10664,"city":"Westport","state":"MA","address":"Star County Store, 526 SANFORD RD","name":""},
  {"lat":41.645141,"lon":-71.218983,"city":"Portsmouth","state":"RI","address":"Safe Harbor Sakonnet, 222 Narragansett Blvd","name":""},
  {"lat":41.617607,"lon":-71.246895,"city":"Portsmouth","state":"RI","address":"Neon, 3302 E Main Rd","name":""},
  {"lat":41.650984,"lon":-71.259514,"city":"Bristol","state":"RI","address":"Roger Williams University-Main Campus, 1 OLD FERRY RD","name":""},
  {"lat":41.64698,"lon":-71.259223,"city":"Bristol","state":"RI","address":"Roger Williams University, 1 Old Ferry Rd","name":""},
  {"lat":41.799597,"lon":-71.331375,"city":"Seekonk","state":"MA","address":"Neon Marketplace - 965 Fall River Ave, 965 FALL RIVER AVE","name":""},
  {"lat":41.798068,"lon":-71.336865,"city":"Seekonk","state":"MA","address":"Staples, 179 Highland Ave","name":""},
  {"lat":41.827809,"lon":-71.386161,"city":"Providence","state":"RI","address":"Whole Foods, 261 Waterman St","name":""},
  {"lat":41.774917,"lon":-71.357099,"city":"Riverside","state":"RI","address":"WILLETT FARM, 185 Willett Ave","name":""},
  {"lat":41.796967,"lon":-71.363076,"city":"Riverside","state":"RI","address":"2830 Pawtucket Ave","name":""},
  {"lat":41.836361,"lon":-71.408486,"city":"Providence","state":"RI","address":"Staples, 555 N Main St","name":""},
  {"lat":41.835304,"lon":-71.426422,"city":"Providence","state":"RI","address":"460 Smith St","name":""},
  {"lat":41.8282,"lon":-71.42733,"city":"Providence","state":"RI","address":"Neon, 288 KINSLEY AVE","name":""},
  {"lat":41.818409,"lon":-71.444432,"city":"Providence","state":"RI","address":"65 Manton Ave","name":""},
  {"lat":41.84343,"lon":-71.44631,"city":"Providence","state":"RI","address":"Santander, 1025 Smith St","name":""},
  {"lat":41.81537,"lon":-71.420062,"city":"Providence","state":"RI","address":"270 Broad St","name":""},
  {"lat":41.784368,"lon":-71.437813,"city":"Cranston","state":"RI","address":"535 Reservoir Ave","name":""},
  {"lat":41.826861,"lon":-71.438807,"city":"Providence","state":"RI","address":"332 Valley St","name":""},
  {"lat":41.804638,"lon":-71.419736,"city":"Providence","state":"RI","address":"Family Dollar - 32469, 711 BROAD STREET","name":""},
  {"lat":41.680411,"lon":-71.263196,"city":"Bristol","state":"RI","address":"Roger Williams University, 201 BAY VIEW AVE","name":""},
  {"lat":41.692105,"lon":-71.278245,"city":"Bristol","state":"RI","address":"10 Gooding Ave","name":""},
  {"lat":41.589177,"lon":-71.283635,"city":"Portsmouth","state":"RI","address":"Safe Harbor New England Boatworks, 1 Lagoon Rd","name":""},
  {"lat":41.682027,"lon":-71.563923,"city":"Coventry","state":"RI","address":"Cumberland Farms 1247, 785 TIOGUE AVE","name":""},
  {"lat":41.68163,"lon":-71.561511,"city":"Coventry","state":"RI","address":"760 Tiogue Ave.","name":""},
  {"lat":41.60893,"lon":-71.664261,"city":"West Greenwich","state":"RI","address":"Travel Centers of America, 849 Victory Hwy","name":""},
  {"lat":41.696041,"lon":-71.502803,"city":"West Warwick","state":"RI","address":"Cumberland Farms 1127, 295 LEGRIS AVE","name":""},
  {"lat":41.708021,"lon":-71.522655,"city":"West Warwick","state":"RI","address":"1125 Main Street.","name":""},
  {"lat":41.706152,"lon":-71.490839,"city":"Warwick","state":"RI","address":"Staples, 1276 Bald Hill Rd Unit 15","name":""},
  {"lat":41.685133,"lon":-71.450142,"city":"Warwick","state":"RI","address":"Safe Harbor Cowesett, 1 Masthead Dr","name":""},
  {"lat":41.698269,"lon":-71.46024,"city":"Warwick","state":"RI","address":"Cumberland Farms 1697, 3335 POST RD","name":""},
  {"lat":41.720914,"lon":-71.483952,"city":"Warwick","state":"RI","address":"Expressway Urban Market, 629 Bald Hill Rd","name":""},
  {"lat":41.709638,"lon":-71.449491,"city":"Warwick","state":"RI","address":"2736 Post Rd","name":""},
  {"lat":41.732918,"lon":-71.435607,"city":"Warwick","state":"RI","address":"Neon Marketplace - 1776 Post Road, 1776 POST RD","name":""},
  {"lat":41.733068,"lon":-71.478532,"city":"Cranston","state":"RI","address":"1400 Oaklawn Ave.","name":""},
  {"lat":41.728065,"lon":-71.476919,"city":"Warwick","state":"RI","address":"Cumberland Farms 1298, 87 WEST NATICK RD","name":""},
  {"lat":41.616816,"lon":-71.459094,"city":"North Kingstown","state":"RI","address":"6649 Post Rd.","name":""},
  {"lat":41.875859,"lon":-71.519794,"city":"Smithfield","state":"RI","address":"Staples, 371 Putnam Pike Ste 230","name":""},
  {"lat":41.913704,"lon":-71.517957,"city":"Smithfield","state":"RI","address":"Home2Suites by Hilton, 944 Douglas Pike","name":""},
  {"lat":41.855682,"lon":-71.446165,"city":"North Providence","state":"RI","address":"19 Smithfield Rd","name":""},
  {"lat":41.85557,"lon":-71.440664,"city":"Providence","state":"RI","address":"1039 BRANCH AVE","name":""},
  {"lat":41.811005,"lon":-71.45396,"city":"Providence","state":"RI","address":"150 POCASSET AVENUE","name":""},
  {"lat":41.782395,"lon":-71.473193,"city":"Cranston","state":"RI","address":"250 ATWOOD AVE","name":""},
  {"lat":41.820334,"lon":-71.468254,"city":"Providence","state":"RI","address":"377 Killingly St.","name":""},
  {"lat":41.823912,"lon":-71.435396,"city":"Providence","state":"RI","address":"548 Atwells Ave","name":""},
  {"lat":41.824138,"lon":-71.412054,"city":"Providence","state":"RI","address":"10 Dorrance St","name":""},
  {"lat":41.794228,"lon":-71.445671,"city":"Cranston","state":"RI","address":"296 Garfield Ave","name":""},
  {"lat":41.521653,"lon":-71.282458,"city":"Middleton","state":"RI","address":"533 E Main Rd, 533 E Main Rd","name":""},
  {"lat":41.52714,"lon":-71.297298,"city":"Middletown","state":"RI","address":"Staples, 870 W Main Rd","name":""},
  {"lat":41.78913,"lon":-71.498785,"city":"Cranston","state":"RI","address":"1776 Plainfield Pike","name":""},
  {"lat":41.8568,"lon":-71.400033,"city":"Pawtucket","state":"RI","address":"615 Pawtucket Ave","name":""},
  {"lat":41.429309,"lon":-71.485158,"city":"Narragansett","state":"RI","address":"91 Point Judith Rd.","name":""},
  {"lat":41.483564,"lon":-71.531279,"city":"Kingston","state":"RI","address":"University of Rhode Island, 140 Campus Ave","name":""},
  {"lat":41.485293,"lon":-71.531663,"city":"Kingston","state":"RI","address":"University of Rhode Island Butterfield Hall, 1 Butterfield Rd","name":""},
  {"lat":41.487256,"lon":-71.531487,"city":"Kingston","state":"RI","address":"The University of Rhode Island, 19 Butterfield Road","name":""},
  {"lat":41.489451,"lon":-71.534048,"city":"Kingston","state":"RI","address":"University of Rhode Island, 40 W ALUMNI AVE","name":""},
  {"lat":41.489725,"lon":-71.531653,"city":"Kingston","state":"RI","address":"University of Rhode Island Heathman Hall, 48 Butterfield Rd","name":""},
  {"lat":41.743683,"lon":-71.40768,"city":"Warwick","state":"RI","address":"1201 WARWICK AVE","name":""},
  {"lat":41.756102,"lon":-71.404847,"city":"Warwick","state":"RI","address":"DOLLAR TREE, 739 WARWICK AVE","name":""},
  {"lat":41.771298,"lon":-71.436668,"city":"Cranston","state":"RI","address":"Family Dollar - 32418, 570 PONTIAC AVE","name":""},
  {"lat":41.789776,"lon":-71.429921,"city":"Providence","state":"RI","address":"Gulf Express, 255 Reservoir Ave","name":""},
  {"lat":41.778827,"lon":-71.434466,"city":"Cranston","state":"RI","address":"819 Park Avenue","name":""},
  {"lat":41.357114,"lon":-71.804062,"city":"Westerly","state":"RI","address":"20 Post Road","name":""},
  {"lat":41.345217,"lon":-71.952665,"city":"Mystic","state":"CT","address":"48 Stonington Rd","name":""},
  {"lat":41.919672,"lon":-71.538786,"city":"Smithfield","state":"RI","address":"Bryant University, 1150 Douglas Pike","name":""},
  {"lat":41.836002,"lon":-71.420728,"city":"Providence","state":"RI","address":"112 DOUGLAS AVENUE","name":""},
  {"lat":41.854002,"lon":-71.428241,"city":"Providence","state":"RI","address":"Compass Self Storage, 711 Branch Ave","name":""},
  {"lat":41.788741,"lon":-71.404162,"city":"Providence","state":"RI","address":"PROVIDENCE PAWNBROKERS, 1405 Broad St","name":""},
  {"lat":41.794794,"lon":-71.411029,"city":"Providence","state":"RI","address":"Rent-A-Center - 2485, 1125 BROAD ST","name":""},
  {"lat":42.792556,"lon":-71.523319,"city":"Nashua","state":"NH","address":"496 Amherst St","name":""},
  {"lat":42.808723,"lon":-71.567203,"city":"Amherst","state":"NH","address":"Staples, 124 New Hampshire 101A","name":""},
  {"lat":42.79479,"lon":-71.52737,"city":"Nashua","state":"NH","address":"FITLAB FITNESS CLUB, 522 Amherst St","name":""},
  {"lat":42.861279,"lon":-71.348954,"city":"Londonderry","state":"NH","address":"Staples, 41 Nashua Rd","name":""},
  {"lat":43.03242,"lon":-71.071928,"city":"Epping","state":"NH","address":"Cumberland Farms 5444, 99 CALEF HWY","name":""},
  {"lat":43.03204,"lon":-71.07158,"city":"Epping","state":"NH","address":"4 Beehive Dr.","name":""},
  {"lat":43.027904,"lon":-71.166436,"city":"Raymond","state":"NH","address":"37 FREETOWN RD","name":""},
  {"lat":43.035865,"lon":-71.165941,"city":"Raymond","state":"NH","address":"15 Freetown Rd","name":""},
  {"lat":43.043406,"lon":-71.681125,"city":"Weare","state":"NH","address":"Weare Market & Deli, 421 S Strak Hwy","name":""},
  {"lat":43.014451,"lon":-71.563629,"city":"Goffstown","state":"NH","address":"STOR U SELF SELF STORAGE, 6 Tatro Rd","name":""},
  {"lat":42.958765,"lon":-71.477883,"city":"Bedford","state":"NH","address":"Staples, 85 S River Rd Ste 1","name":""},
  {"lat":42.989221,"lon":-71.49839,"city":"Manchester","state":"NH","address":"Cumberland Farms 5412, 772 MAST RD","name":""},
  {"lat":42.98315,"lon":-71.44881,"city":"Manchester","state":"NH","address":"325 LINCOLN ST","name":""},
  {"lat":42.975116,"lon":-71.476182,"city":"Manchester","state":"NH","address":"581 Second Street","name":""},
  {"lat":43.015304,"lon":-71.450529,"city":"Manchester","state":"NH","address":"545 HOOKSETT RD","name":""},
  {"lat":43.028651,"lon":-71.440513,"city":"Hooksett","state":"NH","address":"Circle K - #4707262, 6 BELL AVE","name":""},
  {"lat":42.783551,"lon":-71.504344,"city":"Nashua","state":"NH","address":"361 AMHERST STREET","name":""},
  {"lat":42.763922,"lon":-71.495822,"city":"Nashua","state":"NH","address":"51 GUSABEL AVE","name":""},
  {"lat":42.77159,"lon":-71.41,"city":"Hudson","state":"NH","address":"230 CENTRAL STREET","name":""},
  {"lat":42.728575,"lon":-71.44719,"city":"Nashua","state":"NH","address":"Global Flavors Inc., 112 Daniel Webster Hwy Ste 5","name":""},
  {"lat":42.953636,"lon":-71.440952,"city":"Manchester","state":"NH","address":"Staples, 1525 S Willow St Unit 17","name":""},
  {"lat":43.09175,"lon":-71.452852,"city":"Hooksett","state":"NH","address":"New world Gas - 10 campus drive, 10 campus drive","name":""},
  {"lat":43.039821,"lon":-71.454021,"city":"Manchester","state":"NH","address":"SOUTHERN NEW HAMPSHIRE UNIVERSITY, 2500 N River Rd","name":""},
  {"lat":43.048113,"lon":-71.435462,"city":"Hooksett","state":"NH","address":"1271 Hooksett Rd","name":""},
  {"lat":43.006887,"lon":-71.343495,"city":"Auburn","state":"NH","address":"55 Eaton Hill Road, 55 Eaton Hill Road","name":""},
  {"lat":43.456068,"lon":-71.563548,"city":"Tilton","state":"NH","address":"STAPLES, 75 Laconia Rd Ste 300","name":""},
  {"lat":43.52322,"lon":-71.473289,"city":"Laconia","state":"NH","address":"161 Court Street","name":""},
  {"lat":43.212615,"lon":-71.530807,"city":"Concord","state":"NH","address":"Staples, 76 Fort Eddy Rd","name":""},
  {"lat":43.229,"lon":-71.4844,"city":"Concord","state":"NH","address":"DOLLAR TREE, 313 Loudon Rd.","name":""},
  {"lat":43.042978,"lon":-70.818287,"city":"Greenland","state":"NH","address":"Travel Center of America, 108 Ocean Rd","name":""},
  {"lat":43.179126,"lon":-70.902032,"city":"Dover","state":"NH","address":"Circle K - #4707226, 165 KNOX MARSH RD","name":""},
  {"lat":43.133297,"lon":-70.919751,"city":"Durham","state":"NH","address":"Circle K - #4707241, 4A DOVER RD","name":""},
  {"lat":43.231377,"lon":-70.882962,"city":"Somersworth","state":"NH","address":"451 High St.","name":""},
  {"lat":43.194786,"lon":-71.152982,"city":"Northwood","state":"NH","address":"Circle K - #4707209, 185 1ST NH TPKE","name":""},
  {"lat":43.29785,"lon":-70.99292,"city":"Rochester","state":"NH","address":"Staples, 125 Washington St","name":""},
  {"lat":43.328982,"lon":-70.947948,"city":"Rochester","state":"NH","address":"Discount Borderline Beverage, 58 Highland St","name":""},
  {"lat":43.150536,"lon":-70.667688,"city":"York","state":"ME","address":"4707049, 454 US ROUTE 1","name":""},
  {"lat":43.457578,"lon":-70.387466,"city":"Biddeford","state":"ME","address":"The lockers are located at Danielle Ripich Commons (Central dining facility) behind the welcome desk on the first floor., Danielle Ripich Commons, 11 Hills Beach Road","name":""},
  {"lat":43.459103,"lon":-70.38552,"city":"Biddeford","state":"ME","address":"UNE2, 11 Hills Beach Road","name":""},
  {"lat":43.680283,"lon":-70.442592,"city":"Gorham","state":"ME","address":"16 Main St","name":""},
  {"lat":43.632963,"lon":-70.262825,"city":"South Portland","state":"ME","address":"Broadway Variety, 771 Broadway","name":""},
  {"lat":43.651416,"lon":-70.268622,"city":"Portland","state":"ME","address":"Cumberland Farms 5575, 49 PINE ST","name":""},
  {"lat":44.100769,"lon":-70.228317,"city":"Auburn","state":"ME","address":"Staples, 89 Union St","name":""},
  {"lat":44.89924,"lon":-68.667846,"city":"Orono","state":"ME","address":"University of Maine - 5778 Memorial Union, 5778 Memorial Union","name":""},
  {"lat":44.904769,"lon":-68.66299,"city":"Orono","state":"ME","address":"Company-University of Maine, 5734 HILLTOP CMNS","name":""},
  {"lat":44.667241,"lon":-70.147098,"city":"Farmington","state":"ME","address":"University of Maine Farmington, 111 South Street","name":""},
  {"lat":42.891102,"lon":-73.201318,"city":"Bennington","state":"VT","address":"TenneyBrook, 261 Benmont Ave","name":""},
  {"lat":44.452218,"lon":-73.113195,"city":"Williston","state":"VT","address":"Vermont State University - Williston, 201 Lawrence Place","name":""},
  {"lat":41.816837,"lon":-72.868621,"city":"Simsbury","state":"CT","address":"Staples, 15 Albany Turnpike","name":""},
  {"lat":41.899302,"lon":-72.787045,"city":"Simsbury","state":"CT","address":"Sunrise Convenience Store & Deli, 1225 Hopmeadow St","name":""},
  {"lat":41.78626,"lon":-72.749216,"city":"West Hartford","state":"CT","address":"Staples, 2550 Albany Ave","name":""},
  {"lat":41.723357,"lon":-72.7634,"city":"Farmington","state":"CT","address":"Westfarms, 500 Westfarms Mall","name":""},
  {"lat":41.783019,"lon":-72.730098,"city":"West Hartford","state":"CT","address":"McGovern Hall, 1678 Asylum Avenue","name":""},
  {"lat":41.760878,"lon":-72.746304,"city":"West Hartford","state":"CT","address":"Santander, 1010 Farmington Ave","name":""},
  {"lat":41.836859,"lon":-72.737511,"city":"Bloomfield","state":"CT","address":"Bloomfield Geisslers, 40 Tunxis Ave","name":""},
  {"lat":41.830169,"lon":-72.73491,"city":"Bloomfield","state":"CT","address":"Bloomfield shell - 47 Jerome ave, 47 Jerome ave","name":""},
  {"lat":41.796649,"lon":-72.714858,"city":"Hartford","state":"CT","address":"University of Hartford, 200 Bloomfield Avenue","name":""},
  {"lat":41.803748,"lon":-72.69553,"city":"Hartford","state":"CT","address":"615 Blue Hills Ave","name":""},
  {"lat":41.819915,"lon":-72.65491,"city":"Windsor","state":"CT","address":"512 WINDSOR AVE","name":""},
  {"lat":41.849637,"lon":-72.645665,"city":"Windsor","state":"CT","address":"Windsor Geisslers, 318 Broad St","name":""},
  {"lat":41.76108,"lon":-72.706214,"city":"Hartford","state":"CT","address":"Sam's Food Stores, 106 Sisson Avenue","name":""},
  {"lat":41.787297,"lon":-72.655742,"city":"Hartford","state":"CT","address":"Pride Travel Center, 10 Jennings Rd","name":""},
  {"lat":41.768033,"lon":-72.693964,"city":"Hartford","state":"CT","address":"190 Farmington Ave","name":""},
  {"lat":41.746483,"lon":-72.692781,"city":"Hartford","state":"CT","address":"Trinity College, 300 Summit st","name":""},
  {"lat":41.741784,"lon":-72.717689,"city":"West Hartford","state":"CT","address":"Cumberland Farms 4762, 471 NEW PARK AVE","name":""},
  {"lat":41.740446,"lon":-72.695945,"city":"Hartford","state":"CT","address":"Alpha 1, 394 New Britain Ave","name":""},
  {"lat":41.758095,"lon":-72.683829,"city":"Hartford","state":"CT","address":"426 PARK ST","name":""},
  {"lat":41.732048,"lon":-72.713417,"city":"Hartford","state":"CT","address":"Sam's Food Stores, 888 New Britain Avenue","name":""},
  {"lat":41.76424,"lon":-72.729789,"city":"West Hartford","state":"CT","address":"AAA, 815 Farmington Ave","name":""},
  {"lat":41.6897,"lon":-72.927621,"city":"Bristol","state":"CT","address":"Amazon Locker Team - Inbound Lead, 485 Farmington Ave","name":""},
  {"lat":41.691836,"lon":-72.923076,"city":"Bristol","state":"CT","address":"Dollar Tree - 1786, 623 Farmington Avenue","name":""},
  {"lat":41.614417,"lon":-72.89857,"city":"Southington","state":"CT","address":"Southington Sunoco, 957 West St","name":""},
  {"lat":41.660411,"lon":-72.86619,"city":"Plainville","state":"CT","address":"J Mart, 263 East St","name":""},
  {"lat":41.672554,"lon":-72.836517,"city":"Plainville","state":"CT","address":"All Over Media, 380 New Britain Ave","name":""},
  {"lat":41.634744,"lon":-72.875268,"city":"Southington","state":"CT","address":"Staples, 672 Queen St","name":""},
  {"lat":41.677972,"lon":-72.843743,"city":"Plainville","state":"CT","address":"Gulf Gas Station / PLAINVILE MART / TRUMBULL MART, 181 NEW BRITAIN AVE","name":""},
  {"lat":41.640424,"lon":-72.871539,"city":"Southington","state":"CT","address":"847 Queen Street","name":""},
  {"lat":41.670701,"lon":-72.78302,"city":"New Britain","state":"CT","address":"85 MYRTLE ST","name":""},
  {"lat":41.868795,"lon":-72.464354,"city":"Rockville","state":"CT","address":"180 UNION STREET","name":""},
  {"lat":41.828302,"lon":-72.497852,"city":"Vernon","state":"CT","address":"Staples, 35 Talcottville Rd Ste 10","name":""},
  {"lat":41.859762,"lon":-72.352942,"city":"Tolland","state":"CT","address":"American Creamery, 206 Merrow Rd","name":""},
  {"lat":41.828141,"lon":-72.498792,"city":"Vernon","state":"CT","address":"35 Talcottville Road","name":""},
  {"lat":41.695742,"lon":-72.790663,"city":"New Britain","state":"CT","address":"685 FARMINGTON AVE","name":""},
  {"lat":41.6824,"lon":-72.777078,"city":"New Britain","state":"CT","address":"289 ALLEN ST.","name":""},
  {"lat":41.665126,"lon":-72.780673,"city":"New Britain","state":"CT","address":"Alpha 1, 47 Main St","name":""},
  {"lat":41.667091,"lon":-72.775355,"city":"New Britain","state":"CT","address":"150 Columbus Blvd.","name":""},
  {"lat":41.658402,"lon":-72.764631,"city":"New Britain","state":"CT","address":"Cumberland Farms 4660, 194 EAST ST","name":""},
  {"lat":41.669222,"lon":-72.760926,"city":"New Britain","state":"CT","address":"Sophies Market - 124 Jubilee St, 124 Jubilee St","name":""},
  {"lat":41.702836,"lon":-72.703926,"city":"Wethersfield","state":"CT","address":"1881 BERLINE TPKE","name":""},
  {"lat":41.781231,"lon":-72.535439,"city":"Manchester","state":"CT","address":"All Over Media, 270 Middle Tpke W","name":""},
  {"lat":41.780042,"lon":-72.612122,"city":"East Hartford","state":"CT","address":"East Hartford Police Department - 31 School Street, 31 School Street","name":""},
  {"lat":41.778718,"lon":-72.612332,"city":"East Hartford","state":"CT","address":"627 BURNSIDE AVE.","name":""},
  {"lat":41.77946,"lon":-72.538664,"city":"Manchester","state":"CT","address":"348 MIDDLE TPKE W","name":""},
  {"lat":41.779668,"lon":-72.610342,"city":"East Hartford","state":"CT","address":"10 School Street","name":""},
  {"lat":41.806456,"lon":-72.558278,"city":"Manchester","state":"CT","address":"AAA, 1500 Pleasant Valley Rd Ste G","name":""},
  {"lat":41.542266,"lon":-72.800531,"city":"Meriden","state":"CT","address":"Alpha 1, 160 Colony St","name":""},
  {"lat":41.5261,"lon":-72.7584,"city":"Meriden","state":"CT","address":"1324 EAST MAIN STREET","name":""},
  {"lat":41.606742,"lon":-72.678235,"city":"Cromwell","state":"CT","address":"51- 35 Shunpike Road","name":""},
  {"lat":41.554815,"lon":-72.682157,"city":"Middletown","state":"CT","address":"STAPLES, 900 Washington St","name":""},
  {"lat":41.602011,"lon":-72.674089,"city":"Cromwell","state":"CT","address":"AAA, 34 Shunpike Rd","name":""},
  {"lat":41.552327,"lon":-72.811445,"city":"Meriden","state":"CT","address":"495 Chamberlain Highway","name":""},
  {"lat":41.737458,"lon":-72.659163,"city":"Hartford","state":"CT","address":"Sam's Food Stores, 110 Brainard Road","name":""},
  {"lat":41.704173,"lon":-72.739288,"city":"Newington","state":"CT","address":"Prime Storage - Newington, 350 Alumni Rd","name":""},
  {"lat":41.562899,"lon":-72.918113,"city":"Marion","state":"CT","address":"GO HAPPY MART + KITCHEN, 2110 Meriden Waterbury Tpke","name":""},
  {"lat":41.564587,"lon":-72.909993,"city":"Milldale","state":"CT","address":"1875 Meriden-Waterbury Turnpike","name":""},
  {"lat":41.563849,"lon":-72.652199,"city":"Middletown","state":"CT","address":"Its Only Natural Market, 575 Main St","name":""},
  {"lat":41.560751,"lon":-72.657257,"city":"Middletown","state":"CT","address":"Wesleyan University, 230 Washington St","name":""},
  {"lat":41.554237,"lon":-72.659678,"city":"Middletown","state":"CT","address":"Wesleyan University, 35 Foss Hill","name":""},
  {"lat":41.552928,"lon":-72.657316,"city":"Middletown","state":"CT","address":"Wesleyan University, 265 Church St","name":""},
  {"lat":41.552974,"lon":-72.654457,"city":"Middletown","state":"CT","address":"Wesleyan University, 25 Lawn Ave","name":""},
  {"lat":41.555593,"lon":-72.6526,"city":"Middletown","state":"CT","address":"Wesleyan University, 110 Church St","name":""},
  {"lat":41.995339,"lon":-72.576196,"city":"Enfield","state":"CT","address":"136 Elm Street.","name":""},
  {"lat":41.93003,"lon":-72.616704,"city":"East Windsor","state":"CT","address":"East Windsor Geisslers Supermarket, 100 Bridge St","name":""},
  {"lat":41.816518,"lon":-73.09388,"city":"Torrington","state":"CT","address":"Cumberland Farms 4763, 1237 E MAIN ST","name":""},
  {"lat":41.815056,"lon":-73.092658,"city":"Torrington","state":"CT","address":"1270 E Main St","name":""},
  {"lat":41.740374,"lon":-72.710076,"city":"Hartford","state":"CT","address":"495 Flat Bush Ave","name":""},
  {"lat":41.721803,"lon":-72.218349,"city":"Willimantic","state":"CT","address":"Eastern Connecticut State University Student Center - 83 Windham Street, 5 Charter Oak Road","name":""},
  {"lat":41.783966,"lon":-71.957736,"city":"Brooklyn","state":"CT","address":"107 HARTFORD RD, 107 Hartford Rd","name":""},
  {"lat":41.841378,"lon":-71.884939,"city":"Dayville","state":"CT","address":"STAPLES, 2079 KILLINGLY CMNS","name":""},
  {"lat":41.381596,"lon":-72.107287,"city":"New London","state":"CT","address":"Connecticut College - Crozier-Williams, 270 Mohegan Avenue","name":""},
  {"lat":41.586097,"lon":-72.047143,"city":"Norwich","state":"CT","address":"32524, 152 TAFTVILLE OCCUM RD","name":""},
  {"lat":41.291607,"lon":-72.387255,"city":"Old Saybrook","state":"CT","address":"907 Boston Post Rd.","name":""},
  {"lat":41.266033,"lon":-73.130346,"city":"Shelton","state":"CT","address":"STAPLES, 3 Armstrong Rd","name":""},
  {"lat":41.336901,"lon":-72.9824,"city":"New Haven","state":"CT","address":"126 Amity Road","name":""},
  {"lat":41.27375,"lon":-72.99376,"city":"Orange","state":"CT","address":"Cumberland Farms 4749, 151 BOSTON POST RD","name":""},
  {"lat":41.288786,"lon":-72.958609,"city":"West Haven","state":"CT","address":"1089 CAMPBELL AVE","name":""},
  {"lat":41.242916,"lon":-73.101563,"city":"Stratford","state":"CT","address":"at OmniEngine-Ryders Partners, LLC","name":""},
  {"lat":41.23563,"lon":-73.036295,"city":"Milford","state":"CT","address":"Connecticut Post Mall, 1201 Boston Post Rd","name":""},
  {"lat":41.238753,"lon":-73.030992,"city":"Milford","state":"CT","address":"Staples, 1371 Boston Post Road","name":""},
  {"lat":41.422581,"lon":-73.105943,"city":"Oxford","state":"CT","address":"170 Main St","name":""},
  {"lat":41.275192,"lon":-72.988132,"city":"Orange","state":"CT","address":"96 Boston Post Road","name":""},
  {"lat":41.228182,"lon":-73.048419,"city":"Milford","state":"CT","address":"185 Cherry St","name":""},
  {"lat":41.33655,"lon":-72.941841,"city":"New Haven","state":"CT","address":"Southern Connecticut State University - Adanti Student Center, 345 Fitch Street","name":""},
  {"lat":41.258472,"lon":-72.989399,"city":"West Haven","state":"CT","address":"Yale University, 800 West Campus Drive","name":""},
  {"lat":41.273221,"lon":-72.831765,"city":"Branford","state":"CT","address":"Five Below - 8079, 1025-91 West Main St.","name":""},
  {"lat":41.276917,"lon":-72.839093,"city":"Branford","state":"CT","address":"869 W Main St","name":""},
  {"lat":41.29699,"lon":-72.759482,"city":"Branford","state":"CT","address":"3 East Industrial Road","name":""},
  {"lat":41.321421,"lon":-72.870264,"city":"New Haven","state":"CT","address":"472 Foxon Blvd","name":""},
  {"lat":41.309919,"lon":-72.928725,"city":"New Haven","state":"CT","address":"Yale University - 206 Elm Street, 206 Elm St Lower Level","name":""},
  {"lat":41.54285,"lon":-72.97463,"city":"Waterbury","state":"CT","address":"Winzz Gas and Goods, 3484 E Main St","name":""},
  {"lat":41.559162,"lon":-73.012928,"city":"Waterbury","state":"CT","address":"625 WOLCOTT ST","name":""},
  {"lat":41.501404,"lon":-72.811572,"city":"Wallingford","state":"CT","address":"1175 N Colony Rd.","name":""},
  {"lat":41.509643,"lon":-72.806576,"city":"Meriden","state":"CT","address":"533 S BROAD ST","name":""},
  {"lat":41.558495,"lon":-73.01048,"city":"Waterbury","state":"CT","address":"650 Wolcott Street","name":""},
  {"lat":41.569427,"lon":-72.626361,"city":"Portland","state":"CT","address":"352 MARLBOROUGH ST","name":""},
  {"lat":41.57188,"lon":-72.598512,"city":"Portland","state":"CT","address":"1096 PORTLAND COBALT RD, 1096 PORTLAND COBALT RD","name":""},
  {"lat":41.547167,"lon":-72.637478,"city":"Middletown","state":"CT","address":"416 East Main St","name":""},
  {"lat":41.497378,"lon":-72.714992,"city":"Middlefield","state":"CT","address":"Lyman Orchards Apple Barrel Farm Market - 32 Reeds Gap Road, 32 Reeds Gap Road","name":""},
  {"lat":41.411863,"lon":-72.760845,"city":"Northford","state":"CT","address":"CITGO, 1872 MIDDLETOWN AV","name":""},
  {"lat":41.496598,"lon":-72.557815,"city":"Higganum","state":"CT","address":"Higganum Village Market, 311 Saybrook Road","name":""},
  {"lat":41.448246,"lon":-72.475493,"city":"Haddam","state":"CT","address":"Haddam Mart, 1598 saybrook rd","name":""},
  {"lat":41.209718,"lon":-73.13022,"city":"Stratford","state":"CT","address":"3621 Main St","name":""},
  {"lat":41.199314,"lon":-73.13365,"city":"Stratford","state":"CT","address":"1100 BARNUM AVE","name":""},
  {"lat":41.193561,"lon":-73.153621,"city":"Stratford","state":"CT","address":"Family Dollar - 22561, 310 BOSTON AVE","name":""},
  {"lat":41.171465,"lon":-73.128219,"city":"Stratford","state":"CT","address":"60 ACCESS RD","name":""},
  {"lat":41.16354,"lon":-73.156825,"city":"Stratford","state":"CT","address":"Amazon Delivery Stations, 600 Long Beach Blvd","name":""},
  {"lat":41.199494,"lon":-73.127743,"city":"Stratford","state":"CT","address":"800 BARNUM AVENUE CUTOFF","name":""},
  {"lat":41.259197,"lon":-72.946657,"city":"West Haven","state":"CT","address":"Family Dollar - 23268, 238 CAPT THOMAS BLVD","name":""},
  {"lat":41.214549,"lon":-73.175413,"city":"Bridgeport","state":"CT","address":"345 Huntington Tkpe.","name":""},
  {"lat":41.191408,"lon":-73.135086,"city":"Stratford","state":"CT","address":"Cumberland Farms 4736, 1290 W BROAD ST","name":""},
  {"lat":41.209423,"lon":-73.179112,"city":"Bridgeport","state":"CT","address":"Cumberland Farms 4731, 2525 E Main St","name":""},
  {"lat":41.229829,"lon":-73.227582,"city":"Trumbull","state":"CT","address":"Westfield, 5065 Main St","name":""},
  {"lat":41.416595,"lon":-73.398198,"city":"Bethel","state":"CT","address":"17 STONY HILL RD","name":""},
  {"lat":41.412811,"lon":-73.378482,"city":"Bethel","state":"CT","address":"83B Stony Hill Rd.","name":""},
  {"lat":41.415913,"lon":-73.407891,"city":"Danbury","state":"CT","address":"Mobil Mart, 112 NEWTOWN RD","name":""},
  {"lat":41.411377,"lon":-73.406276,"city":"Danbury","state":"CT","address":"Amazon Delivery Stations, 8 Old Sherman Tpke","name":""},
  {"lat":41.405624,"lon":-73.416666,"city":"Danbury","state":"CT","address":"STAPLES, 67 Newtown Rd","name":""},
  {"lat":41.394147,"lon":-73.451733,"city":"Danbury","state":"CT","address":"Family Dollar - 26535, 199 MAIN ST STE 201","name":""},
  {"lat":41.401854,"lon":-73.425235,"city":"Danbury","state":"CT","address":"Sam's Food Stores, 32 Newtown Road","name":""},
  {"lat":41.404894,"lon":-73.419434,"city":"Danbury","state":"CT","address":"61 Newtown Rd","name":""},
  {"lat":41.37535,"lon":-72.915629,"city":"Hamden","state":"CT","address":"Food Mart, 2370 Dixwell Ave","name":""},
  {"lat":41.372876,"lon":-72.91902,"city":"Hamden","state":"CT","address":"2300 Dixwell Ave","name":""},
  {"lat":41.348753,"lon":-72.913718,"city":"Hamden","state":"CT","address":"1312 WHITNEY AVE, 1312 WHITNEY AVE","name":""},
  {"lat":41.494405,"lon":-73.078854,"city":"Naugatuck","state":"CT","address":"DOLLAR TREE, 727 Rubber Avenue","name":""},
  {"lat":41.560893,"lon":-73.039017,"city":"Waterbury","state":"CT","address":"91 COOKE STREET","name":""},
  {"lat":41.554518,"lon":-73.040828,"city":"Waterbury","state":"CT","address":"One Touch Repair, 99 Bank St","name":""},
  {"lat":41.207801,"lon":-73.191216,"city":"Bridgeport","state":"CT","address":"Bogopa - Food Bazaar, 500 Sylvan Ave","name":""},
  {"lat":41.163828,"lon":-73.235227,"city":"Fairfield","state":"CT","address":"Staples, 1201 Kings Hwy Ste 2","name":""},
  {"lat":41.159692,"lon":-73.257651,"city":"Fairfield","state":"CT","address":"JOHN A. BARONE CAMPUS CENTER, 1073 N Benson Rd","name":""},
  {"lat":41.58081,"lon":-73.033756,"city":"Waterbury","state":"CT","address":"Fuel point -, 245 CHASE AVE","name":""},
  {"lat":41.585104,"lon":-73.049373,"city":"Waterbury","state":"CT","address":"Cumberland Farms 4765, 1359 THOMASTON AVE","name":""},
  {"lat":41.582438,"lon":-73.073317,"city":"Waterbury","state":"CT","address":"Cumberland Farms 4773, 1481 WATERTOWN AVE","name":""},
  {"lat":41.555292,"lon":-73.091735,"city":"Middlebury","state":"CT","address":"Cumberland Farms 4784, 1680 STRAITS TPKE","name":""},
  {"lat":41.556687,"lon":-73.418366,"city":"New Milford","state":"CT","address":"Staples, 122 Danbury Rd","name":""},
  {"lat":41.550817,"lon":-73.41983,"city":"New Milford","state":"CT","address":"170 Danbury Rd.","name":""},
  {"lat":41.538367,"lon":-73.421497,"city":"New Milford","state":"CT","address":"291 Danbury Rd","name":""},
  {"lat":41.746019,"lon":-73.198226,"city":"Litchfield","state":"CT","address":"199 West St","name":""},
  {"lat":41.799731,"lon":-73.120103,"city":"Torrington","state":"CT","address":"Staples, 15 S Main St","name":""},
  {"lat":41.794355,"lon":-73.12071,"city":"Torrington","state":"CT","address":"All Over Media, 294 S Main St","name":""},
  {"lat":41.389131,"lon":-73.496947,"city":"Danbury","state":"CT","address":"29 Mill Plain Rd","name":""},
  {"lat":41.437894,"lon":-73.498096,"city":"Danbury","state":"CT","address":"All Star Citgo, 133 Padanaram Rd","name":""},
  {"lat":41.393054,"lon":-73.520588,"city":"Danbury","state":"CT","address":"Danbury Green, 115 MILL PLAIN RD","name":""},
  {"lat":41.042753,"lon":-73.575969,"city":"Riverside","state":"CT","address":"Staples, 1297 E Putnam Ave","name":""},
  {"lat":41.045729,"lon":-73.571731,"city":"Old Greenwich","state":"CT","address":"Patriots Store LLC, 1429 E PUTNAM AVE","name":""},
  {"lat":41.051684,"lon":-73.551049,"city":"Stamford","state":"CT","address":"Family Laundromat, 10 Fairfield Ave","name":""},
  {"lat":41.068137,"lon":-73.546018,"city":"Stamford","state":"CT","address":"STAPLES, 2299 Summer St","name":""},
  {"lat":41.05581,"lon":-73.527974,"city":"Stamford","state":"CT","address":"808 E Main St","name":""},
  {"lat":41.053928,"lon":-73.537019,"city":"Stamford","state":"CT","address":"Stamford Town Center, 100 Greyrock Pl","name":""},
  {"lat":40.991714,"lon":-73.674222,"city":"Port Chester","state":"NY","address":"Staples, 515 Boston Post Rd","name":""},
  {"lat":41.079479,"lon":-73.533541,"city":"Stamford","state":"CT","address":"Chase Bank, 559 Newfield Ave","name":""},
  {"lat":41.102529,"lon":-73.438292,"city":"Norwalk","state":"CT","address":"330 CONNECTICUT AVE","name":""},
  {"lat":41.099029,"lon":-73.444926,"city":"Norwalk","state":"CT","address":"500 CONNECTICUT AVE","name":""},
  {"lat":41.12619,"lon":-73.388709,"city":"Norwalk","state":"CT","address":"Staples, 420 Westport Ave # 440","name":""},
  {"lat":41.11156,"lon":-73.41652,"city":"Norwalk","state":"CT","address":"Chase Bank, 515 West Ave Ste M","name":""},
  {"lat":40.596154,"lon":-74.267362,"city":"Rahway","state":"NJ","address":"1171 Woodbridge Rd","name":""},
  {"lat":40.606893,"lon":-74.260663,"city":"Rahway","state":"NJ","address":"1999 US Highway 1","name":""},
  {"lat":40.560683,"lon":-74.29755,"city":"Woodbridge","state":"NJ","address":"465 GREEN ST","name":""},
  {"lat":40.582007,"lon":-74.293911,"city":"Colonia","state":"NJ","address":"1265 ST GEORGE AV","name":""},
  {"lat":40.586022,"lon":-74.29144,"city":"Avenel","state":"NJ","address":"DOLLAR TREE, 1392 Saint Georges Ave.","name":""},
  {"lat":40.595857,"lon":-74.291448,"city":"Rahway","state":"NJ","address":"WAWA, 280 Saint Georges Ave","name":""},
  {"lat":40.554565,"lon":-74.283257,"city":"Woodbridge","state":"NJ","address":"401 Amboy Ave","name":""},
  {"lat":40.609362,"lon":-74.251666,"city":"Linden","state":"NJ","address":"Amazon Delivery Stations, 1800 Lower Rd","name":""},
  {"lat":40.588101,"lon":-74.228089,"city":"Carteret","state":"NJ","address":"777 ROOSEVELT AVE","name":""},
  {"lat":40.618436,"lon":-74.247995,"city":"Linden","state":"NJ","address":"Staples, 653 W Edgar Rd","name":""},
  {"lat":40.626217,"lon":-74.272296,"city":"Linden","state":"NJ","address":"1151-A W SAINT GEORGES AVE","name":""},
  {"lat":40.54585,"lon":-74.291955,"city":"Woodbridge","state":"NJ","address":"1021 US Highway 9 S","name":""},
  {"lat":40.625898,"lon":-74.243411,"city":"Linden","state":"NJ","address":"15 W Edgar Rd","name":""},
  {"lat":40.628816,"lon":-74.271722,"city":"Linden","state":"NJ","address":"998 W Saint Georges Ave","name":""},
  {"lat":40.622223,"lon":-74.302666,"city":"Clark","state":"NJ","address":"186 Westfield Ave","name":""},
  {"lat":40.538194,"lon":-74.286715,"city":"Perth Amboy","state":"NJ","address":"Santander, 571 Florida Grove Rd","name":""},
  {"lat":40.638423,"lon":-74.263838,"city":"Roselle","state":"NJ","address":"67 E St Georges Ave","name":""},
  {"lat":40.530799,"lon":-74.28001,"city":"Perth Amboy","state":"NJ","address":"853 Convery Blvd","name":""},
  {"lat":40.666995,"lon":-74.115864,"city":"Bayonne","state":"NJ","address":"Family Dollar - 24859, 577 BROADWAY","name":""},
  {"lat":40.673608,"lon":-74.110282,"city":"Bayonne","state":"NJ","address":"765 Broadway","name":""},
  {"lat":40.67517,"lon":-74.108388,"city":"Bayonne","state":"NJ","address":"822 Broadway #828","name":""},
  {"lat":40.659792,"lon":-74.109665,"city":"Bayonne","state":"NJ","address":"175 E. 22nd St.","name":""},
  {"lat":40.68384,"lon":-74.099988,"city":"Bayonne","state":"NJ","address":"20 E 53rd St # 38","name":""},
  {"lat":40.652609,"lon":-74.139547,"city":"Bayonne","state":"NJ","address":"Amazon Delivery Stations, 99 Avenue A","name":""},
  {"lat":40.653407,"lon":-74.136895,"city":"Bayonne","state":"NJ","address":"153 Avenue A","name":""},
  {"lat":40.693663,"lon":-74.103388,"city":"Bayonne","state":"NJ","address":"1347 KENNEDY BLVD","name":""},
  {"lat":40.720327,"lon":-74.095668,"city":"Jersey City","state":"NJ","address":"Staples, 701 State Rt 440 Ste 16","name":""},
  {"lat":40.720656,"lon":-74.095533,"city":"Jersey City","state":"NJ","address":"Hudson Mall, 701 State Rt 440","name":""},
  {"lat":40.710907,"lon":-74.076968,"city":"Jersey City","state":"NJ","address":"Family Dollar - 29287, 360 MARTIN LUTHER KING JR. DR.","name":""},
  {"lat":40.632419,"lon":-74.164586,"city":"Staten Island","state":"NY","address":"MARINERS HARBOR - 179 BRABANT STREET, 179 BRABANT STREET","name":""},
  {"lat":40.632422,"lon":-74.164073,"city":"Staten Island","state":"NY","address":"MARINERS HARBOR - 173 BRABANT STREET, 173 BRABANT STREET","name":""},
  {"lat":40.630576,"lon":-74.162976,"city":"Staten Island","state":"NY","address":"MARINERS HARBOR - 183 CONTINENTAL PLACE, 183 CONTINENTAL PLACE","name":""},
  {"lat":40.632169,"lon":-74.162678,"city":"Staten Island","state":"NY","address":"MARINERS HARBOR - 139 BRABANT STREET, 139 BRABANT STREET","name":""},
  {"lat":40.631548,"lon":-74.163923,"city":"Staten Island","state":"NY","address":"MARINERS HARBOR - 150 BRABANT STREET, 150 BRABANT STREET","name":""},
  {"lat":40.63068,"lon":-74.162145,"city":"Staten Island","state":"NY","address":"MARINERS HARBOR - 161 CONTINENTAL PLACE, 161 CONTINENTAL PLACE","name":""},
  {"lat":40.630686,"lon":-74.162746,"city":"Staten Island","state":"NY","address":"MARINERS HARBOR - 177 CONTINENTAL PLACE, 177 CONTINENTAL PLACE","name":""},
  {"lat":40.631789,"lon":-74.164315,"city":"Staten Island","state":"NY","address":"MARINERS HARBOR - 168 BRABANT STREET, 168 BRABANT STREET","name":""},
  {"lat":40.805377,"lon":-74.192611,"city":"Bloomfield","state":"NJ","address":"357 Broad St","name":""},
  {"lat":40.81137,"lon":-74.165013,"city":"Nutley","state":"NJ","address":"DOLLAR TREE, 100 Franklin Ave","name":""},
  {"lat":40.79654,"lon":-74.149363,"city":"Belleville","state":"NJ","address":"Santander, 463 Washington Ave","name":""},
  {"lat":40.778944,"lon":-74.18698,"city":"Bloomfield","state":"NJ","address":"Staples, 135 Bloomfield Ave Ste 2","name":""},
  {"lat":40.769253,"lon":-74.182192,"city":"Newark","state":"NJ","address":"Guardy's Pharmacy, 403-409 Bloomfield Ave","name":""},
  {"lat":40.795685,"lon":-74.195708,"city":"Bloomfield","state":"NJ","address":"Bloomfield College, 225 LIBERTY ST","name":""},
  {"lat":40.841501,"lon":-74.159635,"city":"Clifton","state":"NJ","address":"1053 BLOOMFIELD AVE","name":""},
  {"lat":40.83619,"lon":-74.224715,"city":"Cedar Grove","state":"NJ","address":"Staples, 23 Pompton Ave","name":""},
  {"lat":40.779315,"lon":-74.18431,"city":"Belleville","state":"NJ","address":"SuperFresh, 115 Belmont Ave","name":""},
  {"lat":40.788562,"lon":-74.173952,"city":"Belleville","state":"NJ","address":"Wawa, 11 Franklin Ave","name":""},
  {"lat":40.841856,"lon":-74.100922,"city":"Carlstadt","state":"NJ","address":"Flavor Mart & More, 326 Garden St","name":""},
  {"lat":40.769927,"lon":-74.185472,"city":"Newark","state":"NJ","address":"NEWARK POLICE - 7TH PRECINCT, 159 North 10th Street","name":""},
  {"lat":40.828734,"lon":-74.142363,"city":"Clifton","state":"NJ","address":"34 MAIN AVE","name":""},
  {"lat":40.767164,"lon":-74.239063,"city":"Orange","state":"NJ","address":"Always Clean Laundromat, 416 Central Ave","name":""},
  {"lat":40.826646,"lon":-74.13904,"city":"Clifton","state":"NJ","address":"Staples, 136 Kingsland Rd","name":""},
  {"lat":40.771808,"lon":-74.229314,"city":"Orange","state":"NJ","address":"276 Main St","name":""},
  {"lat":40.765525,"lon":-74.1657,"city":"Newark","state":"NJ","address":"NEWARK POLICE DIVISION-NEWARK POLICE - 2ND PRECINCT, 1 Lincoln Avenue","name":""},
  {"lat":40.887813,"lon":-74.274133,"city":"Fairfield","state":"NJ","address":"WAWA, 28 LITTLE FALLS RD","name":""},
  {"lat":40.864351,"lon":-74.372336,"city":"Parsippany","state":"NJ","address":"Staples, 760 US-46","name":""},
  {"lat":40.897314,"lon":-74.23842,"city":"Totowa","state":"NJ","address":"Staples, 545 US Highway 46","name":""},
  {"lat":40.878819,"lon":-74.222074,"city":"Little Falls","state":"NJ","address":"69 E Main St","name":""},
  {"lat":40.914926,"lon":-74.267716,"city":"Wayne","state":"NJ","address":"172 Mountainview Blvd","name":""},
  {"lat":40.887152,"lon":-74.252799,"city":"Wayne","state":"NJ","address":"77 Willowbrook Blvd","name":""},
  {"lat":40.873998,"lon":-74.199505,"city":"Montclair","state":"NJ","address":"Montclair State University - Verse, 1 Normal Ave","name":""},
  {"lat":40.86859,"lon":-74.199413,"city":"Little Falls","state":"NJ","address":"Montclair State University, 99 Clove Rd","name":""},
  {"lat":40.867157,"lon":-74.20024,"city":"Little Falls","state":"NJ","address":"Montclair State University, 65 Clove Rd","name":""},
  {"lat":40.891266,"lon":-74.187811,"city":"Woodland Park","state":"NJ","address":"356 Rifle Camp Rd","name":""},
  {"lat":40.857871,"lon":-74.198193,"city":"Montclair","state":"NJ","address":"Montclair State University - Soulmate, 1 Normal Ave","name":""},
  {"lat":40.863508,"lon":-74.194665,"city":"Montclair","state":"NJ","address":"Montclair State University - Pigtail, 1 Normal Ave","name":""},
  {"lat":40.916099,"lon":-74.173473,"city":"Paterson","state":"NJ","address":"262 Main St","name":""},
  {"lat":40.809848,"lon":-74.260243,"city":"West Orange","state":"NJ","address":"LUKOIL, 654 Eagle Rock Ave","name":""},
  {"lat":40.885701,"lon":-74.177872,"city":"Clifton","state":"NJ","address":"381 Valley Rd","name":""},
  {"lat":40.94494,"lon":-74.203377,"city":"Wayne","state":"NJ","address":"442 Pompton Rd","name":""},
  {"lat":40.865888,"lon":-74.158526,"city":"Clifton","state":"NJ","address":"849 Clifton Ave","name":""},
  {"lat":40.786789,"lon":-74.313898,"city":"Livingston","state":"NJ","address":"280 S Livingston Ave","name":""},
  {"lat":40.904201,"lon":-74.408806,"city":"Boonton","state":"NJ","address":"Santander, 405 Main St","name":""},
  {"lat":40.9082,"lon":-74.3964,"city":"Boonton","state":"NJ","address":"556 MYRTLE AVE","name":""},
  {"lat":40.988653,"lon":-74.328424,"city":"Riverdale","state":"NJ","address":"Staples, 106 State Rt 23","name":""},
  {"lat":40.998188,"lon":-74.354894,"city":"Butler","state":"NJ","address":"1435 NJ-23","name":""},
  {"lat":40.903595,"lon":-74.548427,"city":"Rockaway","state":"NJ","address":"343 MOUNT HOPE AVE","name":""},
  {"lat":40.820857,"lon":-74.326441,"city":"Roseland","state":"NJ","address":"LUKOIL, 525 Eagle Rock Ave","name":""},
  {"lat":40.797857,"lon":-74.346476,"city":"Livingston","state":"NJ","address":"Staples, 506 W Mount Pleasant Ave","name":""},
  {"lat":40.57912,"lon":-74.214567,"city":"Carteret","state":"NJ","address":"Amazon Delivery Stations, 377 Roosevelt Ave","name":""},
  {"lat":40.633895,"lon":-74.258021,"city":"Linden","state":"NJ","address":"528 N Wood Ave","name":""},
  {"lat":40.632506,"lon":-74.238692,"city":"Linden","state":"NJ","address":"701 E Edgar Rd","name":""},
  {"lat":40.872974,"lon":-74.178209,"city":"Clifton","state":"NJ","address":"1006 ROUTE 46","name":""},
  {"lat":40.841332,"lon":-74.208272,"city":"Montclair","state":"NJ","address":"Chase Bank, 600 Valley Rd","name":""},
  {"lat":40.811571,"lon":-73.981962,"city":"Edgewater","state":"NJ","address":"Kimco, 543 RIVER RD","name":""},
  {"lat":40.797703,"lon":-74.010078,"city":"North Bergen","state":"NJ","address":"7201 Bergenline Ave","name":""},
  {"lat":40.848271,"lon":-73.997152,"city":"Palisades Park","state":"NJ","address":"Santander, 300 Broad Ave","name":""},
  {"lat":40.808511,"lon":-74.019157,"city":"North Bergen","state":"NJ","address":"8101 Tonnelle Ave Ste 10","name":""},
  {"lat":40.788362,"lon":-74.007153,"city":"West New York","state":"NJ","address":"6215 Park Ave","name":""},
  {"lat":40.856694,"lon":-73.981737,"city":"Fort Lee","state":"NJ","address":"1639 US Highway 46","name":""},
  {"lat":40.788985,"lon":-74.016041,"city":"West New York","state":"NJ","address":"6004 Bergenline Ave","name":""},
  {"lat":40.785176,"lon":-74.013025,"city":"West New York","state":"NJ","address":"Bogopa - Food Bazaar, 5701 Broadway","name":""},
  {"lat":40.798919,"lon":-73.963266,"city":"New York City","state":"NY","address":"PAY-O-MATIC, 926 Columbus Ave","name":""},
  {"lat":40.784304,"lon":-74.02246,"city":"West New York","state":"NJ","address":"5100 Kennedy Blvd W","name":""},
  {"lat":40.858034,"lon":-74.024456,"city":"Ridgefield Park","state":"NJ","address":"231 Main St","name":""},
  {"lat":40.768979,"lon":-74.020842,"city":"Weehawken","state":"NJ","address":"612 Boulevard E","name":""},
  {"lat":40.862866,"lon":-74.036565,"city":"Hackensack","state":"NJ","address":"Wawa, 505 S River St","name":""},
  {"lat":40.761712,"lon":-74.02266,"city":"Weehawken","state":"NJ","address":"Whole Foods, 1400 Waterfront Terrace","name":""},
  {"lat":40.877785,"lon":-74.156645,"city":"Clifton","state":"NJ","address":"505 Piaget Ave","name":""},
  {"lat":40.880755,"lon":-74.134634,"city":"Clifton","state":"NJ","address":"SHIP PLUS MORE, 594 Lexington Ave","name":""},
  {"lat":40.877865,"lon":-74.137047,"city":"Clifton","state":"NJ","address":"90 Lakeview Ave","name":""},
  {"lat":40.883438,"lon":-74.137943,"city":"Clifton","state":"NJ","address":"LAKEVIEW PHARMACY, 244 Lakeview Ave","name":""},
  {"lat":40.878363,"lon":-74.124589,"city":"Clifton","state":"NJ","address":"MILLENNIUM EXPRESS, 104 Ackerman Ave","name":""},
  {"lat":40.875914,"lon":-74.120881,"city":"Passaic","state":"NJ","address":"Forman Mills, 2434 Barbour Ave","name":""},
  {"lat":40.861173,"lon":-74.124954,"city":"Passaic","state":"NJ","address":"215 Washington Pl","name":""},
  {"lat":40.881195,"lon":-74.11901,"city":"Garfield","state":"NJ","address":"Wawa, 7 Jewell St","name":""},
  {"lat":40.87752,"lon":-74.12234,"city":"Clifton","state":"NJ","address":"Ideal Marketplace, 85 Ackerman Ave","name":""},
  {"lat":40.874012,"lon":-74.120292,"city":"Passaic","state":"NJ","address":"90 Dayton Ave","name":""},
  {"lat":40.856418,"lon":-74.145486,"city":"Clifton","state":"NJ","address":"547 VAN HOUTEN AVE","name":""},
  {"lat":40.845969,"lon":-74.12816,"city":"Passaic","state":"NJ","address":"195 Main Ave","name":""},
  {"lat":40.830061,"lon":-74.136883,"city":"Clifton","state":"NJ","address":"Five Below - 309, 364 NJ-3 West","name":""},
  {"lat":40.659562,"lon":-74.282194,"city":"Roselle Park","state":"NJ","address":"573 W Westfield Ave","name":""},
  {"lat":40.662264,"lon":-74.258265,"city":"Roselle Park","state":"NJ","address":"158 E Westfield Ave","name":""},
  {"lat":40.691231,"lon":-74.298368,"city":"Union","state":"NJ","address":"2485 US HIGHWAY 22 W","name":""},
  {"lat":40.685292,"lon":-74.317257,"city":"Springfield","state":"NJ","address":"Staples, 155 US Highway 22","name":""},
  {"lat":40.664714,"lon":-74.231942,"city":"Elizabeth","state":"NJ","address":"Food Bazaar, 211 Elmora Ave","name":""},
  {"lat":40.651379,"lon":-74.237803,"city":"Linden","state":"NJ","address":"1832 E Saint Georges Ave","name":""},
  {"lat":40.685443,"lon":-74.239348,"city":"Union","state":"NJ","address":"1174 Morris Ave","name":""},
  {"lat":40.615447,"lon":-74.418121,"city":"Plainfield","state":"NJ","address":"RAPPS PHARMACY, 611 Park Ave","name":""},
  {"lat":40.662435,"lon":-74.249409,"city":"Roselle","state":"NJ","address":"555 E 1st Ave","name":""},
  {"lat":40.752922,"lon":-74.209441,"city":"East Orange","state":"NJ","address":"93 Hawthorne Ave","name":""},
  {"lat":40.760375,"lon":-74.223509,"city":"East Orange","state":"NJ","address":"EXTRA Supermarket, 563 Central Ave","name":""},
  {"lat":40.75617,"lon":-74.216217,"city":"East Orange","state":"NJ","address":"352 CENTRAL AVE","name":""},
  {"lat":40.742576,"lon":-74.246672,"city":"South Orange","state":"NJ","address":"Seton Hall - Mooney Hall, 400 South Orange Avenue","name":""},
  {"lat":40.753476,"lon":-74.191171,"city":"Newark","state":"NJ","address":"El Rincon Super Market, 494 Orange St","name":""},
  {"lat":40.746041,"lon":-74.225501,"city":"East Orange","state":"NJ","address":"907 S Orange Ave, Suite C","name":""},
  {"lat":40.751733,"lon":-74.177829,"city":"Newark","state":"NJ","address":"139 7th Ave","name":""},
  {"lat":40.730932,"lon":-74.161359,"city":"Newark","state":"NJ","address":"Amazong Deals - 93 Ferry St, 93 Ferry St","name":""},
  {"lat":40.770592,"lon":-74.244337,"city":"West Orange","state":"NJ","address":"516 Valley Rd","name":""},
  {"lat":40.767807,"lon":-74.242361,"city":"Orange","state":"NJ","address":"Bravo SUPERMARKET, 321 Scotland Rd","name":""},
  {"lat":40.736777,"lon":-74.207129,"city":"Newark","state":"NJ","address":"Newark Police - 4th Precinct, 247 16th Avenue","name":""},
  {"lat":40.758692,"lon":-74.22018,"city":"East Orange","state":"NJ","address":"Samy international, 466 Central Ave Ste 3","name":""},
  {"lat":40.741315,"lon":-74.178313,"city":"Newark","state":"NJ","address":"New Jersey Institute of Technology, 120 SUMMIT ST","name":""},
  {"lat":40.731203,"lon":-74.244748,"city":"Maplewood","state":"NJ","address":"752 Irvington Ave","name":""},
  {"lat":40.743113,"lon":-73.980265,"city":"New York City","state":"NY","address":"Murray Hill Froyo LLC, 428 3rd Ave","name":""},
  {"lat":40.820442,"lon":-73.954475,"city":"New York City","state":"NY","address":"PAY-O-MATIC, 3352 Broadway","name":""},
  {"lat":40.846326,"lon":-73.923143,"city":"The Bronx","state":"NY","address":"SEDGWICK - 164 West 174th St, 164 West 174th St","name":""},
  {"lat":40.846498,"lon":-73.922702,"city":"The Bronx","state":"NY","address":"SEDGWICK - 156 West 174th St, 156 West 174th St","name":""},
  {"lat":40.782515,"lon":-74.02096,"city":"West New York","state":"NJ","address":"4912 Bergenline Ave","name":""},
  {"lat":40.650337,"lon":-74.395393,"city":"Scotch Plains","state":"NJ","address":"1928 WESTFIELD AVE, 1928 Westfield Ave","name":""},
  {"lat":40.654349,"lon":-74.402316,"city":"Scotch Plains","state":"NJ","address":"LUKOIL 57284 - 1900 Route 22 E, 1900 Route 22 E","name":""},
  {"lat":40.627125,"lon":-74.405395,"city":"Plainfield","state":"NJ","address":"911 SOUTH AVENUE","name":""},
  {"lat":40.649003,"lon":-74.410064,"city":"Watchung","state":"NJ","address":"1701 Route 22 W","name":""},
  {"lat":40.640148,"lon":-74.420344,"city":"Watchung","state":"NJ","address":"Staples, 1515 US Highway 22 Ste 30","name":""},
  {"lat":40.621285,"lon":-74.421251,"city":"Plainfield","state":"NJ","address":"235 E Front Street","name":""},
  {"lat":40.629573,"lon":-74.433094,"city":"North Plainfield","state":"NJ","address":"564 Route 22","name":""},
  {"lat":40.624417,"lon":-74.44419,"city":"North Plainfield","state":"NJ","address":"WAWA, 22 Wilson Ave","name":""},
  {"lat":40.586146,"lon":-74.418515,"city":"South Plainfield","state":"NJ","address":"2351 PLAINFIELD AVE","name":""},
  {"lat":40.554345,"lon":-74.431847,"city":"South Plainfield","state":"NJ","address":"Staples, 7000 Hadley Rd","name":""},
  {"lat":40.59327,"lon":-74.460281,"city":"Dunellen","state":"NJ","address":"215 NORTH AVE","name":""},
  {"lat":40.590111,"lon":-74.466483,"city":"Dunellen","state":"NJ","address":"426 North Ave","name":""},
  {"lat":40.845723,"lon":-73.922738,"city":"The Bronx","state":"NY","address":"SEDGWICK - 1535 University Ave, 1535 University Ave","name":""},
  {"lat":40.846793,"lon":-73.921533,"city":"The Bronx","state":"NY","address":"SEDGWICK - 140 West 174th St, 140 West 174th St","name":""},
  {"lat":40.846949,"lon":-73.922129,"city":"The Bronx","state":"NY","address":"SEDGWICK - 150 West 174th St, 150 West 174th St","name":""},
  {"lat":40.860201,"lon":-73.922436,"city":"New York City","state":"NY","address":"DYCKMAN - 3732 10th Ave, 3732 10th Ave","name":""},
  {"lat":40.876791,"lon":-74.085124,"city":"Lodi","state":"NJ","address":"15 Washington St Ste 3","name":""},
  {"lat":40.879009,"lon":-74.084009,"city":"Lodi","state":"NJ","address":"170 Main St","name":""},
  {"lat":40.866912,"lon":-74.103332,"city":"Garfield","state":"NJ","address":"Chase Bank, 136 Passaic St","name":""},
  {"lat":40.878953,"lon":-74.078556,"city":"Lodi","state":"NJ","address":"116 Route 46 E","name":""},
  {"lat":40.866682,"lon":-74.101103,"city":"Garfield","state":"NJ","address":"Five Below - 8014, 174 PASSAIC STREET","name":""},
  {"lat":40.88621,"lon":-74.069887,"city":"Lodi","state":"NJ","address":"Amazon Delivery Stations, 200 Gregg St","name":""},
  {"lat":40.891492,"lon":-74.072815,"city":"Lodi","state":"NJ","address":"Wawa, 150 Essex St","name":""},
  {"lat":40.750637,"lon":-74.16215,"city":"East Newark","state":"NJ","address":"Amazon Locker Team - Inbound Lead, 44 Central Avenue","name":""},
  {"lat":40.759004,"lon":-74.151644,"city":"Kearny","state":"NJ","address":"QucikChek, 238 Kearny Ave","name":""},
  {"lat":40.727869,"lon":-74.161212,"city":"Newark","state":"NJ","address":"SEABRAS, 260 Lafayette St","name":""},
  {"lat":40.730746,"lon":-74.149365,"city":"Newark","state":"NJ","address":"NEWARK POLICE - 3RD PRECINCT, 649 Market Street","name":""},
  {"lat":40.727994,"lon":-74.151485,"city":"Newark","state":"NJ","address":"Brothers Wireless, 277 Ferry St Ste 2","name":""},
  {"lat":40.740457,"lon":-74.170596,"city":"Newark","state":"NJ","address":"Hahne Building, 609 Broad St","name":""},
  {"lat":40.725354,"lon":-74.182749,"city":"Newark","state":"NJ","address":"131 Clinton Ave","name":""},
  {"lat":40.731139,"lon":-74.173135,"city":"Newark","state":"NJ","address":"NEWARK POLICE - 9TH PRECINCT, 22 Franklin Street","name":""},
  {"lat":40.768124,"lon":-74.125794,"city":"Kearny","state":"NJ","address":"Amazon Delivery Stations, 670 Belleville Tpke","name":""},
  {"lat":40.743372,"lon":-74.027435,"city":"Hoboken","state":"NJ","address":"Stevens Institute of Technology, 600-602 River Street, Rear Driveway at Gateway, Gianforte Family Hall","name":""},
  {"lat":40.73217,"lon":-74.037766,"city":"Jersey City","state":"NJ","address":"125 18TH ST","name":""},
  {"lat":40.730446,"lon":-74.034971,"city":"Jersey City","state":"NJ","address":"Staples, 613 Washington Blvd","name":""},
  {"lat":40.731803,"lon":-74.038991,"city":"Jersey City","state":"NJ","address":"590 Luis Munoz Marin Blvd","name":""},
  {"lat":40.756596,"lon":-74.039624,"city":"Union City","state":"NJ","address":"Union City Police Department, New Jersey, 617 BERGENLINE AVE","name":""},
  {"lat":40.730574,"lon":-74.064351,"city":"Jersey City","state":"NJ","address":"33 Journal Square","name":""},
  {"lat":40.758149,"lon":-73.99159,"city":"New York City","state":"NY","address":"345 W 42nd St","name":""},
  {"lat":40.716946,"lon":-74.055287,"city":"Jersey City","state":"NJ","address":"465 Grand St","name":""},
  {"lat":40.79473,"lon":-74.128326,"city":"North Arlington","state":"NJ","address":"448 RIDGE RD","name":""},
  {"lat":40.812801,"lon":-74.123268,"city":"Lyndhurst","state":"NJ","address":"421 VALLEY BROOK AVE","name":""},
  {"lat":40.781756,"lon":-74.15442,"city":"Belleville","state":"NJ","address":"13 WASHINGTON AVE","name":""},
  {"lat":40.820404,"lon":-74.100385,"city":"Rutherford","state":"NJ","address":"LUKOIL 57266 - 149 Route 17 N, 149 Route 17 N","name":""},
  {"lat":40.677503,"lon":-74.210605,"city":"Elizabeth","state":"NJ","address":"Forman Mills, 647 Newark Ave","name":""},
  {"lat":40.789725,"lon":-74.051092,"city":"Secaucus","state":"NJ","address":"400 State Rt 3","name":""},
  {"lat":40.705923,"lon":-74.261204,"city":"Union","state":"NJ","address":"Santander, 1462 Stuyvesant Ave","name":""},
  {"lat":40.697361,"lon":-74.267635,"city":"Union","state":"NJ","address":"NEEMARTS - 1055 Stuyvesant ave, 1055 Stuyvesant ave","name":""},
  {"lat":40.702781,"lon":-74.262899,"city":"Union","state":"NJ","address":"1361 Stuyvesant Ave","name":""},
  {"lat":40.700966,"lon":-74.230191,"city":"Hillside","state":"NJ","address":"1386 Liberty Ave","name":""},
  {"lat":40.720635,"lon":-74.288597,"city":"Vauxhall","state":"NJ","address":"Staples, 2933 Vauxhall Rd Ste 7","name":""},
  {"lat":40.808366,"lon":-74.37147,"city":"East Hanover","state":"NJ","address":"240 STATE ROUTE 10","name":""},
  {"lat":40.780881,"lon":-74.438261,"city":"Morristown","state":"NJ","address":"Saint Elizabeth University Location 1, 2 Convent Rd","name":""},
  {"lat":40.960634,"lon":-74.245674,"city":"Wayne","state":"NJ","address":"Dollar Tree - 7486, 1235 Hamburg Turnpike","name":""},
  {"lat":41.027325,"lon":-74.296592,"city":"Haskell","state":"NJ","address":"1130 RINGWOOD AVE","name":""},
  {"lat":40.935625,"lon":-74.184292,"city":"Haledon","state":"NJ","address":"Belmont Pharmacy, 364 Belmont Ave","name":""},
  {"lat":40.645508,"lon":-74.229393,"city":"Linden","state":"NJ","address":"DOLLAR TREE, 300 S PARK AVE","name":""},
  {"lat":40.647707,"lon":-74.225236,"city":"Linden","state":"NJ","address":"2309 E Edgar Rd","name":""},
  {"lat":40.650951,"lon":-74.215919,"city":"Elizabeth","state":"NJ","address":"550 S Broad St","name":""},
  {"lat":40.65181,"lon":-74.22345,"city":"Elizabeth","state":"NJ","address":"954 S Elmora Ave","name":""},
  {"lat":40.643473,"lon":-74.259237,"city":"Roselle","state":"NJ","address":"1275 Chestnut St","name":""},
  {"lat":40.659289,"lon":-74.215733,"city":"Elizabeth","state":"NJ","address":"LUKOIL, 211 S Broad St","name":""},
  {"lat":40.716404,"lon":-74.362719,"city":"Summit","state":"NJ","address":"317 Morris Ave","name":""},
  {"lat":40.73505,"lon":-74.268122,"city":"Maplewood","state":"NJ","address":"490 VALLEY ST","name":""},
  {"lat":40.750512,"lon":-74.399068,"city":"Madison","state":"NJ","address":"Staples, 300 Main St Ste 65","name":""},
  {"lat":40.744703,"lon":-74.259247,"city":"South Orange","state":"NJ","address":"60 Valley St","name":""},
  {"lat":40.722543,"lon":-74.252077,"city":"Maplewood","state":"NJ","address":"Wawa, 1511 SPRINGFIELD AVE","name":""},
  {"lat":40.73514,"lon":-74.249867,"city":"Newark","state":"NJ","address":"NEWARK POLICE DIVISION, 491 Irvington Avenue","name":""},