{"key":"aquarium","displayName":"Aquariums","category":"entertainment","useLocationName":true,"locations":[
  {"lat":60.1048,"lon":-149.4427,"city":"Seward","state":"AK","address":"","name":"Alaska SeaLife Center"},
  {"lat":33.5515,"lon":-111.8762,"city":"Scottsdale","state":"AZ","address":"","name":"OdySea Aquarium"},
  {"lat":33.7625,"lon":-118.1965,"city":"Long Beach","state":"CA","address":"","name":"Aquarium of the Pacific"},
  {"lat":32.8664,"lon":-117.2512,"city":"La Jolla","state":"CA","address":"","name":"Birch Aquarium"},
  {"lat":36.6183,"lon":-121.9018,"city":"Monterey","state":"CA","address":"","name":"Monterey Bay Aquarium"},
  {"lat":32.7649,"lon":-117.2265,"city":"San Diego","state":"CA","address":"","name":"SeaWorld San Diego"},
  {"lat":37.7699,"lon":-122.4661,"city":"San Francisco","state":"CA","address":"","name":"Steinhart Aquarium"},
  {"lat":39.7558,"lon":-105.0125,"city":"Denver","state":"CO","address":"","name":"Downtown Denver Aquarium"},
  {"lat":41.0959,"lon":-73.4202,"city":"Norwalk","state":"CT","address":"","name":"Maritime Aquarium"},
  {"lat":41.377,"lon":-71.9576,"city":"Mystic","state":"CT","address":"","name":"Mystic Aquarium"},
  {"lat":27.943,"lon":-82.4445,"city":"Tampa","state":"FL","address":"","name":"Florida Aquarium"},
  {"lat":27.3365,"lon":-82.5775,"city":"Sarasota","state":"FL","address":"","name":"Mote Marine Aquarium"},
  {"lat":28.4117,"lon":-81.4618,"city":"Orlando","state":"FL","address":"","name":"SeaWorld Orlando"},
  {"lat":33.7634,"lon":-84.3951,"city":"Atlanta","state":"GA","address":"","name":"Georgia Aquarium"},
  {"lat":41.8676,"lon":-87.614,"city":"Chicago","state":"IL","address":"","name":"Shedd Aquarium"},
  {"lat":42.4939,"lon":-90.6645,"city":"Dubuque","state":"IA","address":"","name":"National Mississippi River Museum"},
  {"lat":39.0954,"lon":-84.4974,"city":"Newport","state":"KY","address":"","name":"Newport Aquarium"},
  {"lat":29.9505,"lon":-90.0635,"city":"New Orleans","state":"LA","address":"","name":"Audubon Aquarium"},
  {"lat":39.2856,"lon":-76.6083,"city":"Baltimore","state":"MD","address":"","name":"National Aquarium"},
  {"lat":42.3591,"lon":-71.0498,"city":"Boston","state":"MA","address":"","name":"New England Aquarium"},
  {"lat":37.212,"lon":-93.2912,"city":"Springfield","state":"MO","address":"","name":"Wonders of Wildlife"},
  {"lat":36.0906,"lon":-115.1764,"city":"Las Vegas","state":"NV","address":"","name":"Shark Reef Aquarium"},
  {"lat":39.9446,"lon":-75.1316,"city":"Camden","state":"NJ","address":"","name":"Adventure Aquarium"},
  {"lat":40.0917,"lon":-74.0496,"city":"Point Pleasant Beach","state":"NJ","address":"","name":"Jenkinson's Aquarium"},
  {"lat":43.094,"lon":-79.0594,"city":"Niagara Falls","state":"NY","address":"","name":"Aquarium of Niagara"},
  {"lat":40.574,"lon":-73.9759,"city":"Brooklyn","state":"NY","address":"","name":"New York Aquarium"},
  {"lat":33.9633,"lon":-77.9288,"city":"Kure Beach","state":"NC","address":"","name":"NC Aquarium at Fort Fisher"},
  {"lat":34.6939,"lon":-76.822,"city":"Pine Knoll Shores","state":"NC","address":"","name":"NC Aquarium at Pine Knoll Shores"},
  {"lat":35.9085,"lon":-75.6715,"city":"Manteo","state":"NC","address":"","name":"NC Aquarium on Roanoke Island"},
  {"lat":44.6176,"lon":-124.0472,"city":"Newport","state":"OR","address":"","name":"Oregon Coast Aquarium"},
  {"lat":33.7618,"lon":-78.7949,"city":"Myrtle Beach","state":"SC","address":"","name":"Ripley's Aquarium Myrtle Beach"},
  {"lat":32.7906,"lon":-79.9254,"city":"Charleston","state":"SC","address":"","name":"South Carolina Aquarium"},
  {"lat":35.7128,"lon":-83.5107,"city":"Gatlinburg","state":"TN","address":"","name":"Ripley's Aquarium of the Smokies"},
  {"lat":35.0558,"lon":-85.3111,"city":"Chattanooga","state":"TN","address":"","name":"Tennessee Aquarium"},
  {"lat":32.7837,"lon":-96.7969,"city":"Dallas","state":"TX","address":"","name":"Dallas World Aquarium"},
  {"lat":29.7648,"lon":-95.3661,"city":"Houston","state":"TX","address":"","name":"Downtown Houston Aquarium"},
  {"lat":29.262,"lon":-94.8454,"city":"Galveston","state":"TX","address":"","name":"Moody Gardens"},
  {"lat":29.4563,"lon":-98.6998,"city":"San Antonio","state":"TX","address":"","name":"SeaWorld San Antonio"},
  {"lat":27.8126,"lon":-97.3905,"city":"Corpus Christi","state":"TX","address":"","name":"Texas State Aquarium"},
  {"lat":40.5231,"lon":-111.8931,"city":"Draper","state":"UT","address":"","name":"Loveland Living Planet Aquarium"},
  {"lat":36.8201,"lon":-76.0046,"city":"Virginia Beach","state":"VA","address":"","name":"Virginia Aquarium"},
  {"lat":47.6074,"lon":-122.3431,"city":"Seattle","state":"WA","address":"","name":"Seattle Aquarium"}]}