{"key":"banana_republic","displayName":"Banana Republic","category":"shopping","useLocationName":false,"locations":[
  {"lat":43.09775,"lon":-78.978697,"city":"Niagara Falls","state":"NY","address":"1840 Military Road","name":""},
  {"lat":43.028694,"lon":-77.442722,"city":"Victor","state":"NY","address":"135 Eastview Mall","name":""},
  {"lat":42.954963,"lon":-76.923048,"city":"Waterloo","state":"NY","address":"655 Route 318, Ste 102","name":""},
  {"lat":41.138521,"lon":-80.156901,"city":"Grove City","state":"PA","address":"1911 Leesburg Grove City Rd, Ste 100","name":""},
  {"lat":41.301724,"lon":-81.343128,"city":"Aurora","state":"OH","address":"549 S. Chillicothe Road","name":""},
  {"lat":41.457584,"lon":-81.951527,"city":"Westlake","state":"OH","address":"200 Market Street","name":""},
  {"lat":42.68335,"lon":-83.192913,"city":"Rochester Hills","state":"MI","address":"244 N Adams Road, D244","name":""},
  {"lat":42.563017,"lon":-83.185384,"city":"Troy","state":"MI","address":"2800 West Big Beaver Road, Suite R260","name":""},
  {"lat":42.70266,"lon":-83.301705,"city":"Auburn Hills","state":"MI","address":"4630 Baldwin Rd, Ste 116","name":""},
  {"lat":40.544569,"lon":-80.008751,"city":"Pittsburgh","state":"PA","address":"1000 Ross Park Mall Drive, Space J456","name":""},
  {"lat":41.23851,"lon":-75.841503,"city":"Wilkes-Barre","state":"PA","address":"437 Arena Hub Plz","name":""},
  {"lat":42.489933,"lon":-83.475901,"city":"Novi","state":"MI","address":"27964 Novi Road, Space #E219","name":""},
  {"lat":40.216409,"lon":-80.211624,"city":"Washington","state":"PA","address":"2200 Tanger Blvd, Ste 630","name":""},
  {"lat":42.621995,"lon":-83.996882,"city":"Howell","state":"MI","address":"1475 Burkhart Rd, Ste F150","name":""},
  {"lat":43.365463,"lon":-73.701352,"city":"Lake George","state":"NY","address":"1439 State Route 9","name":""},
  {"lat":41.048853,"lon":-75.313324,"city":"Tannersville","state":"PA","address":"1000 Premium Outlets Drive, Ste H-04","name":""},
  {"lat":42.689321,"lon":-73.848406,"city":"Albany","state":"NY","address":"1 Crossgates Mall Rd, Space A-211","name":""},
  {"lat":40.294213,"lon":-76.646641,"city":"Hershey","state":"PA","address":"83 Outlet Square","name":""},
  {"lat":44.478714,"lon":-73.212395,"city":"Burlington","state":"VT","address":"56 Church Street","name":""},
  {"lat":40.559166,"lon":-75.410946,"city":"Center Valley","state":"PA","address":"2960 Center Valley Parkway, Suite 722","name":""},
  {"lat":40.023527,"lon":-76.220889,"city":"Lancaster","state":"PA","address":"1100 Stanley K Tanger Blvd, Ste 1100","name":""},
  {"lat":41.317568,"lon":-74.127574,"city":"Central Valley","state":"NY","address":"454 Dune Rd","name":""},
  {"lat":40.236616,"lon":-75.57058,"city":"Pottstown","state":"PA","address":"18 Lightcap Road, Ste 327","name":""},
  {"lat":40.780005,"lon":-74.698143,"city":"Chester","state":"NJ","address":"270 US-206","name":""},
  {"lat":40.86618,"lon":-74.506319,"city":"Denville","state":"NJ","address":"3056 State Route 10, Ste Q","name":""},
  {"lat":42.294293,"lon":-73.234283,"city":"Lee","state":"MA","address":"640 Premium Outlets Blvd","name":""},
  {"lat":40.023668,"lon":-75.628128,"city":"Exton","state":"PA","address":"275 Main St","name":""},
  {"lat":40.890082,"lon":-74.258862,"city":"Wayne","state":"NJ","address":"1605 Willowbrook Mall, Ste 1605","name":""},
  {"lat":41.040778,"lon":-74.075587,"city":"Woodcliff Lake","state":"NJ","address":"407 Chestnut Ridge Rd, Ste 7","name":""},
  {"lat":40.259908,"lon":-82.924197,"city":"Sunbury","state":"OH","address":"400 S. Wilson Road, Suite 680","name":""},
  {"lat":40.231666,"lon":-75.135612,"city":"Warrington","state":"PA","address":"1541 Main Street, Building 3, Suite 301","name":""},
  {"lat":40.08698,"lon":-75.386488,"city":"King of Prussia","state":"PA","address":"438 Mall Blvd","name":""},
  {"lat":40.918166,"lon":-74.076276,"city":"Paramus","state":"NJ","address":"1 Garden State Plaza, Space L1-2","name":""},
  {"lat":40.915301,"lon":-74.059415,"city":"Paramus","state":"NJ","address":"655 Bergen Town Center, Ste 33","name":""},
  {"lat":40.651678,"lon":-74.346604,"city":"Westfield","state":"NJ","address":"137 Central Ave","name":""},
  {"lat":40.906313,"lon":-74.030537,"city":"Hackensack","state":"NJ","address":"1 Riverside Square, Space 253","name":""},
  {"lat":41.380052,"lon":-73.481733,"city":"Danbury","state":"CT","address":"7 Backus Ave, Suite G-110","name":""},
  {"lat":40.963426,"lon":-73.855807,"city":"Yonkers","state":"NY","address":"128 Market Street","name":""},
  {"lat":40.460912,"lon":-74.458514,"city":"North Brunswick","state":"NJ","address":"511 SHOPPES BLVD","name":""},
  {"lat":40.547919,"lon":-74.337454,"city":"Edison","state":"NJ","address":"519 Menlo Park, 519","name":""},
  {"lat":40.315032,"lon":-74.661085,"city":"Princeton","state":"NJ","address":"3535 US Highway 1, Ste 124","name":""},
  {"lat":40.667017,"lon":-74.171697,"city":"Elizabeth","state":"NJ","address":"1000 Kapkowski Road, Ste 1024","name":""},
  {"lat":39.228187,"lon":-77.28577,"city":"Clarksburg","state":"MD","address":"22705 CLARKSBURG ROAD, SUITE 700","name":""},
  {"lat":40.806311,"lon":-73.988627,"city":"Edgewater","state":"NJ","address":"225 River Rd, Space A-4","name":""},
  {"lat":40.970844,"lon":-73.8047,"city":"Scarsdale","state":"NY","address":"700 Whiteplains Road, Ste 729","name":""},
  {"lat":40.810117,"lon":-73.950264,"city":"New York City","state":"NY","address":"261 125TH STREET","name":""},
  {"lat":39.952259,"lon":-75.172368,"city":"Philadelphia","state":"PA","address":"1911 Chestnut Street","name":""},
  {"lat":40.758828,"lon":-73.977267,"city":"New York City","state":"NY","address":"626 5TH AVE","name":""},
  {"lat":40.749411,"lon":-73.985776,"city":"New York City","state":"NY","address":"17 W. 34th Street","name":""},
  {"lat":40.752157,"lon":-73.976081,"city":"New York City","state":"NY","address":"107 E. 42ND STREET","name":""},
  {"lat":40.73822,"lon":-73.991595,"city":"New York City","state":"NY","address":"105 5th Ave","name":""},
  {"lat":40.723555,"lon":-73.998046,"city":"New York City","state":"NY","address":"552 & 556 Broadway","name":""},
  {"lat":40.710065,"lon":-74.011976,"city":"New York City","state":"NY","address":"101 Liberty St, #1420","name":""},
  {"lat":40.645753,"lon":-74.077702,"city":"Staten Island","state":"NY","address":"55 Richmond Terrace, Ste 312","name":""},
  {"lat":39.10681,"lon":-77.538337,"city":"Leesburg","state":"VA","address":"241 Fort Evans Road NE, Ste 441","name":""},
  {"lat":40.761303,"lon":-73.917451,"city":"Astoria","state":"NY","address":"31-02 Steinway St","name":""},
  {"lat":40.691164,"lon":-73.98597,"city":"Brooklyn","state":"NY","address":"485 Fulton Street","name":""},
  {"lat":40.748967,"lon":-73.883915,"city":"Jackson Heights","state":"NY","address":"37-15 82ND STREET","name":""},
  {"lat":40.622162,"lon":-74.027912,"city":"Brooklyn","state":"NY","address":"422 86TH STREET","name":""},
  {"lat":39.215591,"lon":-76.861178,"city":"Columbia","state":"MD","address":"10300 Little Patuxent Pkwy, Ste 2030","name":""},
  {"lat":39.94086,"lon":-75.025702,"city":"Cherry Hill","state":"NJ","address":"2000 Route 38, Ste 1265","name":""},
  {"lat":40.719687,"lon":-73.844254,"city":"Forest Hills","state":"NY","address":"71-18 Austin St","name":""},
  {"lat":42.809666,"lon":-85.671203,"city":"Byron Center","state":"MI","address":"350 84th STREET, SUITE 680","name":""},
  {"lat":39.15631,"lon":-76.7263,"city":"Hanover","state":"MD","address":"7000 Arundel Mills Circle, Space #448","name":""},
  {"lat":39.784829,"lon":-75.052863,"city":"Blackwood","state":"NJ","address":"100 Premium Outlets Drive, Ste 890","name":""},
  {"lat":40.161698,"lon":-74.417352,"city":"Jackson","state":"NJ","address":"537 Monmouth Road, Ste 108","name":""},
  {"lat":41.722281,"lon":-72.764119,"city":"Farmington","state":"CT","address":"554 Westfarms Mall, Space B219","name":""},
  {"lat":40.738198,"lon":-73.614358,"city":"Garden City","state":"NY","address":"630 Old Country Rd, Ste 2047","name":""},
  {"lat":40.742829,"lon":-73.604825,"city":"Garden City","state":"NY","address":"1060B Old Country Road","name":""},
  {"lat":40.333108,"lon":-74.061177,"city":"Shrewsbury","state":"NJ","address":"559 NJ- 35","name":""},
  {"lat":38.96215,"lon":-77.086749,"city":"Chevy Chase","state":"MD","address":"5430 WISCONSIN AVE, SPACE #2230","name":""},
  {"lat":40.781844,"lon":-73.501478,"city":"Plainview","state":"NY","address":"419 South Oyster Bay Road","name":""},
  {"lat":38.917609,"lon":-77.221067,"city":"Tysons","state":"VA","address":"7937 Tysons Corner Center","name":""},
  {"lat":41.24749,"lon":-73.025595,"city":"Milford","state":"CT","address":"1650 Boston Post Road","name":""},
  {"lat":40.624568,"lon":-73.638604,"city":"Oceanside","state":"NY","address":"3515 Long Beach Road, Space 26","name":""},
  {"lat":40.224305,"lon":-74.094212,"city":"Tinton Falls","state":"NJ","address":"One Premium Outlets Blvd","name":""},
  {"lat":38.863276,"lon":-77.060584,"city":"Arlington","state":"VA","address":"1100 South Hayes Street, Space F9 A","name":""},
  {"lat":40.138027,"lon":-74.061682,"city":"Sea Girt","state":"NJ","address":"2150 Highway 35, Spaces E14-16","name":""},
  {"lat":40.765093,"lon":-73.30321,"city":"Deer Park","state":"NY","address":"665 The Arches Circle","name":""},
  {"lat":38.794849,"lon":-77.001457,"city":"National Harbor","state":"MD","address":"6800 Oxon Hill Rd, Ste 200","name":""},
  {"lat":38.983907,"lon":-76.159489,"city":"Queenstown","state":"MD","address":"403 Outlet Center Drive","name":""},
  {"lat":38.643362,"lon":-77.296183,"city":"Woodbridge","state":"VA","address":"2700 Potomac Mills Cir, Ste #961","name":""},
  {"lat":43.458095,"lon":-71.563633,"city":"Tilton","state":"NH","address":"120 Laconia Rd, Ste 102","name":""},
  {"lat":41.29149,"lon":-72.532872,"city":"Clinton","state":"CT","address":"20A Killingworth Turnpike, Ste 525","name":""},
  {"lat":42.825773,"lon":-71.500944,"city":"Merrimack","state":"NH","address":"80 Premium Outlets Blvd, Ste 499","name":""},
  {"lat":39.358688,"lon":-74.43576,"city":"Atlantic City","state":"NJ","address":"2000 Atlantic Avenue, Ste 800","name":""},
  {"lat":44.02396,"lon":-71.11415,"city":"Conway","state":"NH","address":"17 Settlers Grn, Ste B54","name":""},
  {"lat":41.476151,"lon":-71.961439,"city":"Mashantucket","state":"CT","address":"455 TROLLEY LINE BLVD., SUITE 220","name":""},
  {"lat":42.300804,"lon":-71.384139,"city":"Natick","state":"MA","address":"1245 Worcester Street, Ste1082","name":""},
  {"lat":38.051251,"lon":-78.501644,"city":"Charlottesville","state":"VA","address":"1044 Emmet St N","name":""},
  {"lat":42.482425,"lon":-71.214896,"city":"Burlington","state":"MA","address":"75 Middlesex Turpike, Suite 2052","name":""},
  {"lat":42.040153,"lon":-71.353239,"city":"Wrentham","state":"MA","address":"1 Premium Outlet Blvd, Ste 550","name":""},
  {"lat":38.718637,"lon":-75.112532,"city":"Rehoboth Beach","state":"DE","address":"36445 Seaside Outlet Drive, Ste 1800","name":""},
  {"lat":41.762653,"lon":-71.457714,"city":"Cranston","state":"RI","address":"72 Hillside Road","name":""},
  {"lat":39.434012,"lon":-84.338751,"city":"Monroe","state":"OH","address":"601 Premium Outlet Drive","name":""},
  {"lat":42.231933,"lon":-71.178985,"city":"Dedham","state":"MA","address":"532 LEGACY PLACE","name":""},
  {"lat":42.517253,"lon":-71.035755,"city":"Lynnfield","state":"MA","address":"1515 Market Street","name":""},
  {"lat":42.39494,"lon":-71.079067,"city":"Somerville","state":"MA","address":"559 ASSEMBLY ROW","name":""},
  {"lat":42.347334,"lon":-71.078874,"city":"Boston","state":"MA","address":"100 Huntington Avenue, Space F1","name":""},
  {"lat":43.113823,"lon":-70.731816,"city":"Kittery","state":"ME","address":"325 US Route 1, Ste 1","name":""},
  {"lat":41.715405,"lon":-86.90499,"city":"Michigan City","state":"IN","address":"601 Wabash Street","name":""},
  {"lat":39.146962,"lon":-84.446249,"city":"Cincinnati","state":"OH","address":"2667 Edmondson Road, Space A11","name":""},
  {"lat":43.632981,"lon":-70.333325,"city":"South Portland","state":"ME","address":"364 MAINE MALL ROAD","name":""},
  {"lat":37.656141,"lon":-77.619383,"city":"Richmond","state":"VA","address":"11800 West Broad St, Space 1220","name":""},
  {"lat":43.856309,"lon":-70.105216,"city":"Freeport","state":"ME","address":"39 Main Street","name":""},
  {"lat":39.914172,"lon":-86.108624,"city":"Indianapolis","state":"IN","address":"8701 Keystone At The Crossing, Space 47-50","name":""},
  {"lat":43.063835,"lon":-88.044561,"city":"Wauwatosa","state":"WI","address":"2500 North Mayfair Road, Space #020","name":""},
  {"lat":41.931952,"lon":-87.644951,"city":"Chicago","state":"IL","address":"2720 N Clark Street","name":""},
  {"lat":41.883473,"lon":-87.628211,"city":"Chicago","state":"IL","address":"108 N State Street, Ste #140","name":""},
  {"lat":42.061569,"lon":-87.747884,"city":"Skokie","state":"IL","address":"4999 Old Orchard #L14, Space F088","name":""},
  {"lat":42.516485,"lon":-87.948569,"city":"Pleasant Prairie","state":"WI","address":"11211 120th Avenue, Spaces 42 & 43","name":""},
  {"lat":41.973726,"lon":-87.865443,"city":"Rosemont","state":"IL","address":"5220 Rose Street, Space #2037","name":""},
  {"lat":37.319931,"lon":-76.736473,"city":"Williamsburg","state":"VA","address":"5707-6 Richmond Road","name":""},
  {"lat":44.267992,"lon":-88.470992,"city":"Appleton","state":"WI","address":"4301 W Wisconsin Avenue","name":""},
  {"lat":42.160267,"lon":-88.054611,"city":"Deer Park","state":"IL","address":"20530 N Rand Rd, Ste 210","name":""},
  {"lat":41.849563,"lon":-87.953568,"city":"Oak Brook","state":"IL","address":"49 Oakbrook Center","name":""},
  {"lat":39.308813,"lon":-85.96189,"city":"Edinburgh","state":"IN","address":"11721 N Executive Dr, Ste B90","name":""},
  {"lat":41.800334,"lon":-88.273932,"city":"Aurora","state":"IL","address":"1650 Premium Outlets Blvd, Ste 1169","name":""},
  {"lat":41.891776,"lon":-88.343866,"city":"Geneva","state":"IL","address":"226 Commons Drive, 2050","name":""},
  {"lat":43.092652,"lon":-88.763174,"city":"Johnson Creek","state":"WI","address":"622 Linmar Lane, Ste D-60","name":""},
  {"lat":36.882108,"lon":-76.199441,"city":"Norfolk","state":"VA","address":"1600 PREMIUM OUTLETS BLVD, SUITE 850","name":""},
  {"lat":38.206234,"lon":-85.352038,"city":"Simpsonville","state":"KY","address":"1155 BUCK CREEK ROAD, SUITE 818","name":""},
  {"lat":38.308425,"lon":-85.579235,"city":"Louisville","state":"KY","address":"4226 Summit Plaza Dr, Suite B6","name":""},
  {"lat":36.074765,"lon":-79.266397,"city":"Mebane","state":"NC","address":"4000 Arrowhead Blvd, Ste 600","name":""},
  {"lat":35.905217,"lon":-78.943939,"city":"Durham","state":"NC","address":"6910 Fayetteville Road, Ste 1340","name":""},
  {"lat":35.841817,"lon":-78.680265,"city":"Raleigh","state":"NC","address":"4325 Glenwood Ave, Ste 240","name":""},
  {"lat":35.370069,"lon":-80.72393,"city":"Concord","state":"NC","address":"8111 Concord Mills Blvd, Ste 308","name":""},
  {"lat":35.529796,"lon":-82.603995,"city":"Asheville","state":"NC","address":"800 Brevard Road, Ste 133","name":""},
  {"lat":35.168753,"lon":-80.970788,"city":"Charlotte","state":"NC","address":"5410 NEW FASHION WAY, SUITE 270","name":""},
  {"lat":35.035318,"lon":-80.806893,"city":"Charlotte","state":"NC","address":"9812 Rea Road, Suite D","name":""},
  {"lat":34.84993,"lon":-82.333582,"city":"Greenville","state":"SC","address":"700 HAYWOOD RD, Space No. 1044","name":""},
  {"lat":36.203507,"lon":-86.694799,"city":"Nashville","state":"TN","address":"240 Opry Mills Dr, Ste 648","name":""},
  {"lat":34.242685,"lon":-77.830608,"city":"Wilmington","state":"NC","address":"6841 Main Street","name":""},
  {"lat":36.033234,"lon":-86.644917,"city":"Antioch","state":"TN","address":"4060 Cane Ridge Parkway, Building 4, Ste 416","name":""},
  {"lat":38.635057,"lon":-90.348406,"city":"Richmond Heights","state":"MO","address":"1456 Saint Louis Galleria","name":""},
  {"lat":38.600935,"lon":-90.446873,"city":"St. Louis","state":"MO","address":"32 West County Center, Spc 1090","name":""},
  {"lat":33.785012,"lon":-78.776334,"city":"Myrtle Beach","state":"SC","address":"10847 Kings Rd Hwy 17, Ste 120","name":""},
  {"lat":33.750844,"lon":-78.958013,"city":"Myrtle Beach","state":"SC","address":"4635 Factory Stores Blvd","name":""},
  {"lat":38.677804,"lon":-90.662255,"city":"Chesterfield","state":"MO","address":"18521 Outlet Blvd, Suite 121","name":""},
  {"lat":44.823013,"lon":-93.211596,"city":"Eagan","state":"MN","address":"3925 Eagan Outlets Parkway, Building 400, Space 900","name":""},
  {"lat":34.250856,"lon":-83.473581,"city":"Commerce","state":"GA","address":"800 Steven B Tanger Blvd, Ste 1005","name":""},
  {"lat":34.357809,"lon":-84.047866,"city":"Dawsonville","state":"GA","address":"800 Highway 400 South, Ste 973","name":""},
  {"lat":44.881477,"lon":-93.32407,"city":"Edina","state":"MN","address":"1060 Southdale Ctr","name":""},
  {"lat":44.937587,"lon":-93.385035,"city":"Saint Louis Park","state":"MN","address":"8330 Hwy 7","name":""},
  {"lat":33.916412,"lon":-83.455336,"city":"Athens","state":"GA","address":"1791 Oconee Connector, Ste 630","name":""},
  {"lat":34.070797,"lon":-84.276066,"city":"Alpharetta","state":"GA","address":"6110 Avalon Blvd","name":""},
  {"lat":34.120278,"lon":-84.526534,"city":"Woodstock","state":"GA","address":"915 RIDGEWALK PKY","name":""},
  {"lat":33.98158,"lon":-84.216428,"city":"Norcross","state":"GA","address":"5145 Peachtree Parkway, Base #450","name":""},
  {"lat":33.989069,"lon":-84.422765,"city":"Marietta","state":"GA","address":"4475 Roswell Road, Suite 920","name":""},
  {"lat":33.846335,"lon":-84.363578,"city":"Atlanta","state":"GA","address":"3393 Peachtree Rd NE, Space 3001","name":""},
  {"lat":32.87412,"lon":-80.018173,"city":"North Charleston","state":"SC","address":"4840 Tanger Outlet Blvd, Unit 701","name":""},
  {"lat":33.348267,"lon":-84.122469,"city":"Locust Grove","state":"GA","address":"1000 Tanger Drive, Ste 415","name":""},
  {"lat":32.2397,"lon":-80.819237,"city":"Bluffton","state":"SC","address":"1414 Fording Island Road, Ste G100","name":""},
  {"lat":32.134695,"lon":-81.243217,"city":"Pooler","state":"GA","address":"200 TANGER OUTLET BLVD, SUITE 517","name":""},
  {"lat":33.548799,"lon":-86.596172,"city":"Leeds","state":"AL","address":"6200 Grand River Blvd, Ste 238","name":""},
  {"lat":32.079308,"lon":-81.093975,"city":"Savannah","state":"GA","address":"121 W Broughton St","name":""},
  {"lat":34.936234,"lon":-89.991605,"city":"Southaven","state":"MS","address":"5205 Airways Blvd, Suite #1090","name":""},
  {"lat":39.042588,"lon":-94.593172,"city":"Kansas City","state":"MO","address":"450 W. 47th Street","name":""},
  {"lat":38.914561,"lon":-94.641862,"city":"Leawood","state":"KS","address":"4852 W 119th Street","name":""},
  {"lat":39.12608,"lon":-94.825044,"city":"Kansas City","state":"KS","address":"1813 Village West Park","name":""},
  {"lat":41.260299,"lon":-96.183579,"city":"Omaha","state":"NE","address":"17151 Davenport St, Ste M115","name":""},
  {"lat":41.098663,"lon":-96.250853,"city":"Gretna","state":"NE","address":"21355 Nebraska Crossing Drive, Ste F117","name":""},
  {"lat":36.644353,"lon":-93.263954,"city":"Branson","state":"MO","address":"300 Tanger Blvd, Ste 117","name":""},
  {"lat":30.257382,"lon":-81.524994,"city":"Jacksonville","state":"FL","address":"4711 River City Drive, Suite 131","name":""},
  {"lat":36.305804,"lon":-94.175771,"city":"Rogers","state":"AR","address":"2203 S. Promenade Blvd, Suite #2190","name":""},
  {"lat":34.661079,"lon":-92.408172,"city":"Little Rock","state":"AR","address":"11201 Bass Pro Parkway #G, #E-W115","name":""},
  {"lat":29.921993,"lon":-81.415507,"city":"Saint Augustine","state":"FL","address":"2700 State Road 16, Ste 507","name":""},
  {"lat":30.378425,"lon":-86.348619,"city":"Destin","state":"FL","address":"10406 Emerald Coast Pkwy W, Spaces 70, 71, & 72","name":""},
  {"lat":29.213434,"lon":-81.09837,"city":"Daytona Beach","state":"FL","address":"BANANA REPUBLIC OUTLET, 1473 CORNERSTONE BLVD, SUITE 750","name":""},
  {"lat":36.1314,"lon":-95.965236,"city":"Tulsa","state":"OK","address":"1866 Utica Square","name":""},
  {"lat":30.375237,"lon":-87.682475,"city":"Foley","state":"AL","address":"2601 S McKenzie Street, Spaces S-6, S-7, S-8","name":""},
  {"lat":36.014744,"lon":-95.961856,"city":"Jenks","state":"OK","address":"801 East 103rd Street South, Suite 1120","name":""},
  {"lat":28.554513,"lon":-81.200218,"city":"Orlando","state":"FL","address":"407 N. Alfaya Trail","name":""},
  {"lat":28.485466,"lon":-81.432003,"city":"Orlando","state":"FL","address":"4200 Conroy Road, F147","name":""},
  {"lat":28.473545,"lon":-81.452103,"city":"Orlando","state":"FL","address":"4957 International Drive, Ste ID.15","name":""},
  {"lat":28.387102,"lon":-81.49216,"city":"Orlando","state":"FL","address":"8200 Vineland Ave, Ste 400","name":""},
  {"lat":30.42753,"lon":-89.097087,"city":"Gulfport","state":"MS","address":"10850 Factory Shop Blvd, Space 820, 830","name":""},
  {"lat":28.190278,"lon":-82.391222,"city":"Tampa","state":"FL","address":"2364 GRAND CYPRESS DRIVE, SUITE 255","name":""},
  {"lat":30.389792,"lon":-90.083795,"city":"Mandeville","state":"LA","address":"3414 Highway 190, Ste 603","name":""},
  {"lat":29.952008,"lon":-90.065276,"city":"New Orleans","state":"LA","address":"333 Canal Street, Ste 102","name":""},
  {"lat":29.962162,"lon":-90.187781,"city":"Harahan","state":"LA","address":"1200 South Clearview Parkway, Ste 1312","name":""},
  {"lat":30.432565,"lon":-91.114684,"city":"Baton Rouge","state":"LA","address":"2373 TOWNE CENTER BLVD","name":""},
  {"lat":27.532869,"lon":-82.507886,"city":"Bradenton","state":"FL","address":"5657 Factory Shops Blvd, Ste 460","name":""},
  {"lat":35.462821,"lon":-97.649361,"city":"Oklahoma City","state":"OK","address":"7630 West Reno Ave, Ste 260","name":""},
  {"lat":30.212067,"lon":-90.953205,"city":"Gonzales","state":"LA","address":"2300 South Tanger Blvd, Ste 111","name":""},
  {"lat":26.848132,"lon":-80.08431,"city":"Palm Beach Gardens","state":"FL","address":"3101 PGA Blvd, Space Q217","name":""},
  {"lat":26.725705,"lon":-80.087103,"city":"West Palm Beach","state":"FL","address":"1755 PALM BEACH LAKES BLVD, #W117","name":""},
  {"lat":33.132641,"lon":-96.661166,"city":"Allen","state":"TX","address":"820 West Stacy Road, Ste 116","name":""},
  {"lat":26.43618,"lon":-81.774686,"city":"Cape Coral","state":"FL","address":"10801 CORKSCREW RD, 400","name":""},
  {"lat":32.929035,"lon":-96.818122,"city":"Dallas","state":"TX","address":"13350 Dallas Parkway, Suite 2010","name":""},
  {"lat":32.868189,"lon":-96.773508,"city":"Dallas","state":"TX","address":"8687 NORTH CENTRAL EXPRESSWAY","name":""},
  {"lat":33.072774,"lon":-97.086067,"city":"Highland Village","state":"TX","address":"4141 Waller Creek, Ste 150","name":""},
  {"lat":26.149196,"lon":-80.324785,"city":"Sunrise","state":"FL","address":"12801 West Sunrise Blvd., SPACE 453","name":""},
  {"lat":26.137244,"lon":-80.111947,"city":"Fort Lauderdale","state":"FL","address":"2584 East Sunrise Blvd, Space J18","name":""},
  {"lat":32.966185,"lon":-97.042633,"city":"Grapevine","state":"TX","address":"3000 Grapevine Mills Parkway","name":""},
  {"lat":33.021404,"lon":-97.282231,"city":"Fort Worth","state":"TX","address":"15821 North Freeway, Suite 300","name":""},
  {"lat":26.004216,"lon":-80.337225,"city":"Pembroke Pines","state":"FL","address":"14561 SW 5th Street","name":""},
  {"lat":25.957297,"lon":-80.145069,"city":"Aventura","state":"FL","address":"19501 Biscayne Blvd","name":""},
  {"lat":32.673891,"lon":-97.134617,"city":"Grand Prairie","state":"TX","address":"2950 West Interstate 20","name":""},
  {"lat":25.787978,"lon":-80.38024,"city":"Miami","state":"FL","address":"11401 NW 12TH ST.","name":""},
  {"lat":25.731423,"lon":-80.260127,"city":"Coral Gables","state":"FL","address":"350 San Lorenzo Ave","name":""},
  {"lat":25.690536,"lon":-80.312503,"city":"Miami","state":"FL","address":"7535 N Kendall Drive, Ste 1670A","name":""},
  {"lat":30.164519,"lon":-95.453829,"city":"The Woodlands","state":"TX","address":"1201 LAKE WOODLANDS DR., 3000","name":""},
  {"lat":29.996689,"lon":-95.757337,"city":"Cypress","state":"TX","address":"29300 Hempstead Road, Ste 125","name":""},
  {"lat":29.716316,"lon":-95.416291,"city":"Houston","state":"TX","address":"2400 University Blvd, Ste 110","name":""},
  {"lat":29.780634,"lon":-95.538022,"city":"Houston","state":"TX","address":"303 Memorial City Way, Ste 750","name":""},
  {"lat":29.425591,"lon":-95.056033,"city":"Texas City","state":"TX","address":"5885 Gulf Freeway, Ste 801","name":""},
  {"lat":29.776048,"lon":-95.80843,"city":"Katy","state":"TX","address":"5000 Katy Mills Circle, Ste 258","name":""},
  {"lat":24.555989,"lon":-81.802686,"city":"Key West","state":"FL","address":"501 Duval St","name":""},
  {"lat":29.590453,"lon":-95.624932,"city":"Sugar Land","state":"TX","address":"16535 Southwest Fwy, Ste 720","name":""},
  {"lat":39.989199,"lon":-104.98283,"city":"Thornton","state":"CO","address":"13801 Grant Street, Suite 280","name":""},
  {"lat":39.716903,"lon":-104.956682,"city":"Denver","state":"CO","address":"3000 E 1st Ave, Ste 2215","name":""},
  {"lat":39.415645,"lon":-104.873244,"city":"Castle Rock","state":"CO","address":"5050 Factory Shop Blvd","name":""},
  {"lat":39.582808,"lon":-105.025445,"city":"Littleton","state":"CO","address":"7301 S Santa Fe Drive, Unit 430","name":""},
  {"lat":39.730932,"lon":-105.161597,"city":"Lakewood","state":"CO","address":"14500 W. Colfax Avenue, Space 219","name":""},
  {"lat":30.566999,"lon":-97.690339,"city":"Round Rock","state":"TX","address":"4401 North Interstate Highway 35, Ste 599","name":""},
  {"lat":30.257362,"lon":-97.807225,"city":"Austin","state":"TX","address":"2901 S Capital Of Texas Hwy, Space B4","name":""},
  {"lat":30.309769,"lon":-97.943185,"city":"Bee Cave","state":"TX","address":"12821 Hill Country Blvd, Suite C2-120","name":""},
  {"lat":39.62868,"lon":-106.073111,"city":"Silverthorne","state":"CO","address":"227 Blue River Parkway, #G","name":""},
  {"lat":29.829518,"lon":-97.979568,"city":"San Marcos","state":"TX","address":"3939 IH-35 South, Ste 900","name":""},
  {"lat":29.736586,"lon":-98.071218,"city":"San Marcos","state":"TX","address":"4015 S Interstate Hwy 35, Ste 335","name":""},
  {"lat":29.499292,"lon":-98.480888,"city":"San Antonio","state":"TX","address":"7322 Jones Maltsberger Road, Ste 164","name":""},
  {"lat":29.59354,"lon":-98.614504,"city":"San Antonio","state":"TX","address":"15900 La Cantera Parkway, Space #2205","name":""},
  {"lat":35.104071,"lon":-106.566855,"city":"Albuquerque","state":"NM","address":"2240 Q Street NE, Suite 10A","name":""},
  {"lat":27.501827,"lon":-99.511535,"city":"Laredo","state":"TX","address":"1500 WATER STREET, SUITE B595","name":""},
  {"lat":26.158858,"lon":-97.95432,"city":"Mercedes","state":"TX","address":"5001 E Expressway 93, Ste 507","name":""},
  {"lat":26.185378,"lon":-98.236356,"city":"McAllen","state":"TX","address":"2200 South 10th Street, Ste M10","name":""},
  {"lat":40.728395,"lon":-111.551345,"city":"Park City","state":"UT","address":"6699 Landmark Dr, Space K-100","name":""},
  {"lat":40.768357,"lon":-111.891745,"city":"Salt Lake City","state":"UT","address":"50 South Main Street, Suite 263","name":""},
  {"lat":40.436093,"lon":-111.884839,"city":"Lehi","state":"UT","address":"3700 North Cabelas Blvd, Ste 155","name":""},
  {"lat":31.912142,"lon":-106.585438,"city":"Canutillo","state":"TX","address":"7051 S Desert Blvd, Ste B201","name":""},
  {"lat":43.608604,"lon":-116.278252,"city":"Boise","state":"ID","address":"350 N Milwaukee Street, Ste 1139","name":""},
  {"lat":32.220226,"lon":-110.865503,"city":"Tucson","state":"AZ","address":"5870 East Broadway Blvd, Space 224","name":""},
  {"lat":33.50258,"lon":-111.929659,"city":"Scottsdale","state":"AZ","address":"7014 East Camelback Road, Ste 2280","name":""},
  {"lat":32.375578,"lon":-111.101551,"city":"Tucson","state":"AZ","address":"6401 W Marana Center Blvd, Ste 927","name":""},
  {"lat":33.507642,"lon":-112.03689,"city":"Phoenix","state":"AZ","address":"2103 East Camelback Road, Suite A-18-A","name":""},
  {"lat":33.287716,"lon":-111.973485,"city":"Chandler","state":"AZ","address":"4976 Premium Outlets Way, Ste 518","name":""},
  {"lat":33.533964,"lon":-112.265715,"city":"Glendale","state":"AZ","address":"6800 N 95 Ave, Ste 290","name":""},
  {"lat":36.164951,"lon":-115.156371,"city":"Las Vegas","state":"NV","address":"605 Grand Central Parkway, Ste 1280","name":""},
  {"lat":36.127524,"lon":-115.1715,"city":"Las Vegas","state":"NV","address":"3200 Las Vegas Blvd South, Suite 1495","name":""},
  {"lat":36.122016,"lon":-115.16965,"city":"Las Vegas","state":"NV","address":"3377 Las Vegas Blvd S, Ste 2090","name":""},
  {"lat":36.054977,"lon":-115.169106,"city":"Las Vegas","state":"NV","address":"7400 Las Vegas Blvd South","name":""},
  {"lat":36.151067,"lon":-115.333672,"city":"Las Vegas","state":"NV","address":"1875 Festival Plaza Drive, Ste #120","name":""},
  {"lat":47.491937,"lon":-121.795005,"city":"North Bend","state":"WA","address":"421 S Fork Avenue SW","name":""},
  {"lat":48.09356,"lon":-122.187776,"city":"Tulalip","state":"WA","address":"10600 Quilceda Boulevard, Ste 234","name":""},
  {"lat":47.616476,"lon":-122.203548,"city":"Bellevue","state":"WA","address":"208 Bellevue Sq","name":""},
  {"lat":47.662157,"lon":-122.30023,"city":"Seattle","state":"WA","address":"4613 26TH Ave NE","name":""},
  {"lat":47.296105,"lon":-122.245732,"city":"Auburn","state":"WA","address":"1101 Outlet Collection Way, Ste 1134","name":""},
  {"lat":44.044759,"lon":-121.315552,"city":"Bend","state":"OR","address":"545 SW Powerhouse Dr, 901","name":""},
  {"lat":45.574785,"lon":-122.559229,"city":"Portland","state":"OR","address":"9959 NE Cascades Parkway","name":""},
  {"lat":33.928938,"lon":-116.811812,"city":"Cabazon","state":"CA","address":"48400 Seminole Drive, Ste C-330","name":""},
  {"lat":45.39664,"lon":-122.752606,"city":"Tigard","state":"OR","address":"7345 SW Bridgeport Road","name":""},
  {"lat":45.535899,"lon":-122.878861,"city":"Hillsboro","state":"OR","address":"2070 NE Allie Avenue, #420","name":""},
  {"lat":45.156141,"lon":-122.878519,"city":"Woodburn","state":"OR","address":"1001 N Arney Rd, Ste 100","name":""},
  {"lat":34.07563,"lon":-117.205233,"city":"Redlands","state":"CA","address":"27461 SAN BERNARDINO AVE., SUITE 140","name":""},
  {"lat":34.072921,"lon":-117.552749,"city":"Ontario","state":"CA","address":"1 Mills Circle, Space XM","name":""},
  {"lat":34.001399,"lon":-117.729915,"city":"Chino Hills","state":"CA","address":"13855 CITY CENTER DRIVE","name":""},
  {"lat":32.982276,"lon":-117.078811,"city":"San Diego","state":"CA","address":"11910 Carmel Mountain Road, Ste 214","name":""},
  {"lat":36.230545,"lon":-119.336295,"city":"Tulare","state":"CA","address":"1743 Retherford Street","name":""},
  {"lat":33.12734,"lon":-117.320968,"city":"Carlsbad","state":"CA","address":"5610 Paseo Del Norte, Ste 103","name":""},
  {"lat":36.810979,"lon":-119.806654,"city":"Fresno","state":"CA","address":"742 West Shaw Avenue","name":""},
  {"lat":33.439014,"lon":-117.627391,"city":"San Clemente","state":"CA","address":"101 W Avenida Vista Hermosa, Suite 180","name":""},
  {"lat":33.782667,"lon":-117.892928,"city":"Orange","state":"CA","address":"20 City Boulevard W, Ste 601","name":""},
  {"lat":32.768224,"lon":-117.166835,"city":"San Diego","state":"CA","address":"7007 Friars Rd, Ste 860","name":""},
  {"lat":34.14551,"lon":-118.153657,"city":"Pasadena","state":"CA","address":"150 W Colorado Blvd, Spaces 144, 148-154","name":""},
  {"lat":32.543825,"lon":-117.040042,"city":"San Ysidro","state":"CA","address":"4345 Camino De La Plaza, BLDG-M Space 302","name":""},
  {"lat":33.570014,"lon":-117.833023,"city":"Newport Coast","state":"CA","address":"7912 East Coast Hwy","name":""},
  {"lat":34.006339,"lon":-118.152954,"city":"Commerce","state":"CA","address":"100 Citadel Drive, Ste 410","name":""},
  {"lat":34.145411,"lon":-118.258409,"city":"Glendale","state":"CA","address":"1118 Glendale Galleria, Ste 1069","name":""},
  {"lat":33.86312,"lon":-118.093032,"city":"Cerritos","state":"CA","address":"221 Los Cerritos Mall, Ste 221","name":""},
  {"lat":34.07352,"lon":-118.359522,"city":"Los Angeles","state":"CA","address":"189 The Grove Drive, Space J10","name":""},
  {"lat":38.644088,"lon":-121.187707,"city":"Folsom","state":"CA","address":"13000 Folsom Blvd","name":""},
  {"lat":34.075331,"lon":-118.377493,"city":"Los Angeles","state":"CA","address":"8500 Beverly Blvd, Ste 765","name":""},
  {"lat":34.157141,"lon":-118.437303,"city":"Sherman Oaks","state":"CA","address":"14006 Riverside Dr, Ste 208","name":""},
  {"lat":34.059003,"lon":-118.418866,"city":"Los Angeles","state":"CA","address":"10250 Santa Monica Blvd, Spaces H57, H67","name":""},
  {"lat":33.830554,"lon":-118.349569,"city":"Torrance","state":"CA","address":"3525 W Carson St, Ste 452","name":""},
  {"lat":38.601563,"lon":-121.427459,"city":"Sacramento","state":"CA","address":"1689 Arden Way, Ste 1130","name":""},
  {"lat":37.780735,"lon":-121.22928,"city":"Manteca","state":"CA","address":"910 Lifestyle Street","name":""},
  {"lat":34.216465,"lon":-119.058767,"city":"Camarillo","state":"CA","address":"800 Ventura Boulevard, Ste 600","name":""},
  {"lat":38.365749,"lon":-121.957379,"city":"Vacaville","state":"CA","address":"131 Nut Tree Rd, Ste E","name":""},
  {"lat":34.419287,"lon":-119.69939,"city":"Santa Barbara","state":"CA","address":"735 State St","name":""},
  {"lat":37.699225,"lon":-121.845382,"city":"Livermore","state":"CA","address":"2990 Livermore Outlets Drive, Ste 2990","name":""},
  {"lat":37.97105,"lon":-122.057782,"city":"Concord","state":"CA","address":"2025 Diamond Blvd, Ste F-115","name":""},
  {"lat":37.025616,"lon":-121.563669,"city":"Gilroy","state":"CA","address":"681 Leavesley Rd, Ste C190","name":""},
  {"lat":38.295871,"lon":-122.304088,"city":"Napa","state":"CA","address":"809 Factory Stores Drive","name":""},
  {"lat":37.417894,"lon":-121.896911,"city":"Milpitas","state":"CA","address":"492 Great Mall Drive","name":""},
  {"lat":35.281167,"lon":-120.661043,"city":"San Luis Obispo","state":"CA","address":"990 Higuera St","name":""},
  {"lat":37.70998,"lon":-122.164449,"city":"San Leandro","state":"CA","address":"1295 Marina Blvd","name":""},
  {"lat":37.325566,"lon":-121.945,"city":"Santa Clara","state":"CA","address":"2855 Stevens Creek Blvd, Suite 1141","name":""},
  {"lat":37.837168,"lon":-122.295328,"city":"Emeryville","state":"CA","address":"5791 Christie Ave","name":""},
  {"lat":37.442967,"lon":-122.171622,"city":"Palo Alto","state":"CA","address":"172 Stanford Shopping Ctr, 172","name":""},
  {"lat":38.089392,"lon":-122.552267,"city":"Novato","state":"CA","address":"208 Vintage Way","name":""},
  {"lat":38.256944,"lon":-122.649897,"city":"Petaluma","state":"CA","address":"2200 Petaluma Blvd N","name":""},
  {"lat":37.790694,"lon":-122.391019,"city":"San Francisco","state":"CA","address":"2 Folsom Street","name":""},
  {"lat":37.787912,"lon":-122.405969,"city":"San Francisco","state":"CA","address":"152 Geary Street","name":""},
  {"lat":37.928617,"lon":-122.514594,"city":"Corte Madera","state":"CA","address":"1516 REDWOOD HIGHWAY, #C033","name":""},
  {"lat":37.537036,"lon":-122.298881,"city":"San Mateo","state":"CA","address":"60 31st Ave, 125","name":""},
  {"lat":36.584935,"lon":-121.895224,"city":"Monterey","state":"CA","address":"1410 Del Monte Center, Store 1270","name":""},
  {"lat":20.687145,"lon":-156.440635,"city":"Wailea","state":"HI","address":"3750 Wailea Alanui Drive, Building 4, Space A-47","name":""},
  {"lat":21.277664,"lon":-157.826804,"city":"Honolulu","state":"HI","address":"2330 Kalakaua Avenue, Space No. 266","name":""},
  {"lat":21.400749,"lon":-158.001703,"city":"Waipahu","state":"HI","address":"94-815A Lumiaina","name":""}]}