{"key":"baskin_robbins","displayName":"Baskin-Robbins","category":"sweets","useLocationName":false,"locations":[
  {"lat":38.032065,"lon":-78.455667,"city":"Charlottesville","state":"VA","address":"160 Riverbend Drive","name":""},
  {"lat":36.865564,"lon":-119.758325,"city":"Fresno","state":"CA","address":"8959 North Cedar Avenue","name":""},
  {"lat":29.925582,"lon":-95.721802,"city":"Cypress","state":"TX","address":"20330 Tuckerton Road","name":""},
  {"lat":29.693307,"lon":-95.872358,"city":"Fulshear","state":"TX","address":"28830 FM 1093","name":""},
  {"lat":33.391727,"lon":-111.599125,"city":"Mesa","state":"AZ","address":"1252 South Signal Butte Road","name":""},
  {"lat":31.33337,"lon":-94.720657,"city":"Lufkin","state":"TX","address":"216 South Timberland Drive","name":""},
  {"lat":45.442781,"lon":-93.585974,"city":"Zimmerman","state":"MN","address":"12530 Fremont Avenue","name":""},
  {"lat":41.150735,"lon":-111.937339,"city":"South Ogden","state":"UT","address":"1695 Skyline Drive","name":""},
  {"lat":19.64437,"lon":-155.988536,"city":"Kailua-Kona","state":"HI","address":"75-971 Henry Street Space 201","name":""},
  {"lat":45.624822,"lon":-122.591038,"city":"Vancouver","state":"WA","address":"7910 East Mill Plain Boulevard","name":""},
  {"lat":34.04174,"lon":-118.45941,"city":"Los Angeles","state":"CA","address":"11870 Santa Monica Boulevard","name":""},
  {"lat":41.940267,"lon":-88.15127,"city":"Carol Stream","state":"IL","address":"880 West Army Trail Road","name":""},
  {"lat":45.206713,"lon":-93.402047,"city":"Anoka","state":"MN","address":"600 Green Haven Parkway","name":""},
  {"lat":43.668193,"lon":-116.281029,"city":"Garden City","state":"ID","address":"7281 West State Street","name":""},
  {"lat":36.312185,"lon":-119.783271,"city":"Lemoore","state":"CA","address":"155 West Hanford Armona Road, Suite J","name":""},
  {"lat":34.163303,"lon":-79.758235,"city":"Florence","state":"SC","address":"1528 East Siesta Dr","name":""},
  {"lat":34.243855,"lon":-118.422886,"city":"Arleta","state":"CA","address":"13310 Osborne St","name":""},
  {"lat":33.522435,"lon":-101.956498,"city":"Lubbock","state":"TX","address":"7723 Milwaukee Ave","name":""},
  {"lat":42.740048,"lon":-84.675548,"city":"Lansing","state":"MI","address":"619 North Marketplace Boulevard","name":""},
  {"lat":26.198216,"lon":-98.287418,"city":"Mission","state":"TX","address":"201 South Shary Road, Suite 250","name":""},
  {"lat":30.012488,"lon":-95.598967,"city":"Tomball","state":"TX","address":"11523 Spring Cypress Road","name":""},
  {"lat":31.628821,"lon":-97.24307,"city":"Waco","state":"TX","address":"10324-G China Spring Road","name":""},
  {"lat":38.94313,"lon":-95.255563,"city":"Lawrence","state":"KS","address":"1626 West 23rd Street","name":""},
  {"lat":41.718089,"lon":-91.608676,"city":"Coralville","state":"IA","address":"3240 Redhawk Street","name":""},
  {"lat":33.879286,"lon":-117.581616,"city":"Corona","state":"CA","address":"341 South Lincoln Avenue","name":""},
  {"lat":35.745864,"lon":-119.245938,"city":"Delano","state":"CA","address":"710 Woollomes Avenue","name":""},
  {"lat":34.935863,"lon":-89.936831,"city":"Southaven","state":"MS","address":"5209 Getwell Rd N","name":""},
  {"lat":40.525534,"lon":-111.886808,"city":"Draper","state":"UT","address":"138 East 12300 South","name":""},
  {"lat":33.408936,"lon":-86.806182,"city":"Hoover","state":"AL","address":"1539 Montgomery Highway","name":""},
  {"lat":31.120039,"lon":-97.877618,"city":"Copperas Cove","state":"TX","address":"2406 E Business 190","name":""},
  {"lat":29.553001,"lon":-98.405422,"city":"San Antonio","state":"TX","address":"12311 Nacogdoches Road","name":""},
  {"lat":30.318476,"lon":-90.976984,"city":"Prairieville","state":"LA","address":"17066 Airline Highway","name":""},
  {"lat":38.732713,"lon":-89.909315,"city":"Troy","state":"IL","address":"809 Edwardsville Road","name":""},
  {"lat":44.828253,"lon":-91.545359,"city":"Eau Claire","state":"WI","address":"2836 North Clairemont Avenue","name":""},
  {"lat":29.429406,"lon":-98.405067,"city":"San Antonio","state":"TX","address":"150 South Ww White Road","name":""},
  {"lat":47.120684,"lon":-88.578735,"city":"Houghton","state":"MI","address":"501 Memorial Drive","name":""},
  {"lat":33.974556,"lon":-88.468041,"city":"Amory","state":"MS","address":"1221 U.S. 278","name":""},
  {"lat":34.603929,"lon":-83.520357,"city":"Clarkesville","state":"GA","address":"487 Washington Street","name":""},
  {"lat":41.743531,"lon":-93.601099,"city":"Ankeny","state":"IA","address":"1510 N Ankeny Blvd","name":""},
  {"lat":46.723645,"lon":-92.071565,"city":"Superior","state":"WI","address":"110 East 2nd Street","name":""},
  {"lat":40.958552,"lon":-90.382901,"city":"Galesburg","state":"IL","address":"955 North Henderson Street","name":""},
  {"lat":34.684696,"lon":-79.203288,"city":"Pembroke","state":"NC","address":"807 West 3rd Street","name":""},
  {"lat":41.719682,"lon":-87.74676,"city":"Oak Lawn","state":"IL","address":"9500 S 50th Ct","name":""},
  {"lat":28.415816,"lon":-81.303388,"city":"Orlando","state":"FL","address":"10505 Jeff Fuqua Boulevard","name":""},
  {"lat":35.094188,"lon":-114.597522,"city":"Bullhead City","state":"AZ","address":"2520 Arizona 95","name":""},
  {"lat":33.469985,"lon":-84.445043,"city":"Fayetteville","state":"GA","address":"985 Glynn St North, Bldg 200","name":""},
  {"lat":39.704632,"lon":-75.107831,"city":"Glassboro","state":"NJ","address":"55 Delsea Drive","name":""},
  {"lat":30.235442,"lon":-93.250061,"city":"Westlake","state":"LA","address":"100 Westlake Avenue","name":""},
  {"lat":37.943938,"lon":-91.882313,"city":"Newburg","state":"MO","address":"90 Truman St","name":""},
  {"lat":43.625999,"lon":-89.787147,"city":"Wisconsin Dells","state":"WI","address":"2415 Wisconsin Dells Parkway","name":""},
  {"lat":34.2099,"lon":-118.844948,"city":"Thousand Oaks","state":"CA","address":"1772P East Avenida De Los Arboles","name":""},
  {"lat":32.395185,"lon":-93.728977,"city":"Shreveport","state":"LA","address":"9462 Ellerbe Road","name":""},
  {"lat":40.028251,"lon":-83.015168,"city":"Columbus","state":"OH","address":"3245 North High Street","name":""},
  {"lat":29.663649,"lon":-95.099326,"city":"La Porte","state":"TX","address":"8920 Spencer Highway","name":""},
  {"lat":30.578646,"lon":-98.27315,"city":"Marble Falls","state":"TX","address":"901 FM 1431 Ste 100","name":""},
  {"lat":41.974612,"lon":-87.890742,"city":"Chicago","state":"IL","address":"O'Hare Airport, Terminal 5 Arrivals","name":""},
  {"lat":43.994683,"lon":-88.575936,"city":"Oshkosh","state":"WI","address":"1590 W South Park Avenue","name":""},
  {"lat":39.097184,"lon":-96.803813,"city":"Fort Riley","state":"KS","address":"5917 Ashby Ave","name":""},
  {"lat":40.786677,"lon":-73.941968,"city":"New York City","state":"NY","address":"1976 1st Avenue","name":""},
  {"lat":34.60111,"lon":-92.548488,"city":"Benton","state":"AR","address":"19820 Interstate 30","name":""},
  {"lat":33.225726,"lon":-96.984078,"city":"Cross Roads","state":"TX","address":"11680 US 380","name":""},
  {"lat":39.953937,"lon":-83.10237,"city":"Columbus","state":"OH","address":"3788 W Broad St","name":""},
  {"lat":40.795947,"lon":-73.970419,"city":"New York City","state":"NY","address":"2600 Broadway","name":""},
  {"lat":36.979868,"lon":-86.446682,"city":"Bowling Green","state":"KY","address":"1542 U.S. 31 West Bypass","name":""},
  {"lat":43.456448,"lon":-88.817548,"city":"Beaver Dam","state":"WI","address":"828 Park Ave.","name":""},
  {"lat":41.848674,"lon":-87.687121,"city":"Chicago","state":"IL","address":"2448 W 24th St","name":""},
  {"lat":39.172969,"lon":-77.203885,"city":"Gaithersburg","state":"MD","address":"19316 Montgomery Village Avenue","name":""},
  {"lat":28.187092,"lon":-82.684972,"city":"New Port Richey","state":"FL","address":"7815 Mitchell Boulevard","name":""},
  {"lat":37.184855,"lon":-93.261951,"city":"Springfield","state":"MO","address":"1614 S Glenstone Ave","name":""},
  {"lat":41.528736,"lon":-87.703998,"city":"Flossmoor","state":"IL","address":"3608 Vollmer Rd","name":""},
  {"lat":40.208288,"lon":-76.57435,"city":"Lawn","state":"PA","address":"1 Pennsylvania Turnpike","name":""},
  {"lat":40.574389,"lon":-75.557802,"city":"Allentown","state":"PA","address":"5052 Cetronia Rd","name":""},
  {"lat":40.20223,"lon":-76.015507,"city":"Bowmansville","state":"PA","address":"1350 Pennsylvania Turnpike","name":""},
  {"lat":40.000176,"lon":-79.044549,"city":"Somerset","state":"PA","address":"179 North Plaza Access Road","name":""},
  {"lat":40.058842,"lon":-78.081955,"city":"Waterfall","state":"PA","address":"3744 North Hess Road","name":""},
  {"lat":29.77295,"lon":-94.978557,"city":"Baytown","state":"TX","address":"4531 Garth Road Suite 120","name":""},
  {"lat":32.863274,"lon":-79.903204,"city":"Charleston","state":"SC","address":"162 Seven Farms Drive","name":""},
  {"lat":44.675829,"lon":-90.166818,"city":"Marshfield","state":"WI","address":"915 North Central Avenue","name":""},
  {"lat":39.23524,"lon":-76.83039,"city":"Columbia","state":"MD","address":"9200 Old Annapolis Rd","name":""},
  {"lat":42.90372,"lon":-88.152603,"city":"Muskego","state":"WI","address":"W190 S7797 Racine Ave","name":""},
  {"lat":42.727007,"lon":-90.475195,"city":"Platteville","state":"WI","address":"245 East Business Highway 151","name":""},
  {"lat":43.574144,"lon":-89.777146,"city":"Baraboo","state":"WI","address":"1241 Kalahari Drive","name":""},
  {"lat":40.633864,"lon":-74.013969,"city":"Brooklyn","state":"NY","address":"711A 65th St","name":""},
  {"lat":39.061672,"lon":-77.159569,"city":"Rockville","state":"MD","address":"1079 Seven Locks Road","name":""},
  {"lat":40.803003,"lon":-73.967284,"city":"New York City","state":"NY","address":"2800 Broadway","name":""},
  {"lat":42.024392,"lon":-88.338407,"city":"Elgin","state":"IL","address":"351 S Randall Rd","name":""},
  {"lat":29.814071,"lon":-95.429848,"city":"Houston","state":"TX","address":"3011 Ella Blvd","name":""},
  {"lat":33.49296,"lon":-112.331809,"city":"Avondale","state":"AZ","address":"12685 W Indian School Rd","name":""},
  {"lat":29.578453,"lon":-98.442604,"city":"San Antonio","state":"TX","address":"2882 Thousand Oaks","name":""},
  {"lat":32.578389,"lon":-117.03628,"city":"San Diego","state":"CA","address":"780 Dennery Rd","name":""},
  {"lat":34.09264,"lon":-84.286141,"city":"Alpharetta","state":"GA","address":"670 N Main St","name":""},
  {"lat":29.519173,"lon":-98.773972,"city":"San Antonio","state":"TX","address":"14048 Culebra Rd. Suite 118","name":""},
  {"lat":31.366618,"lon":-110.940717,"city":"Nogales","state":"AZ","address":"522 W Mariposa Rd","name":""},
  {"lat":44.529559,"lon":-89.574185,"city":"Stevens Point","state":"WI","address":"617 Division St","name":""},
  {"lat":34.700696,"lon":-89.967462,"city":"Coldwater","state":"MS","address":"1483 Highway 306","name":""},
  {"lat":42.10851,"lon":-83.286075,"city":"Flat Rock","state":"MI","address":"27050 Telegraph Road","name":""},
  {"lat":33.614688,"lon":-85.82708,"city":"Oxford","state":"AL","address":"700 S Quintard Ave","name":""},
  {"lat":30.098039,"lon":-95.361121,"city":"Spring","state":"TX","address":"3784 Rayford Rd, Suite 100","name":""},
  {"lat":43.038986,"lon":-87.919698,"city":"Milwaukee","state":"WI","address":"612 West Wisconsin Avenue","name":""},
  {"lat":29.641513,"lon":-98.380009,"city":"San Antonio","state":"TX","address":"5523 E. Evans Road","name":""},
  {"lat":33.359884,"lon":-84.754273,"city":"Newnan","state":"GA","address":"740 Poplar Rd","name":""},
  {"lat":31.118856,"lon":-97.420716,"city":"Temple","state":"TX","address":"7451 West Adams Avenue","name":""},
  {"lat":40.732916,"lon":-73.849316,"city":"Queens","state":"NY","address":"6401 108th St","name":""},
  {"lat":41.73413,"lon":-87.702847,"city":"Evergreen Park","state":"IL","address":"8736 S Kedzie Ave","name":""},
  {"lat":41.865957,"lon":-87.713228,"city":"Chicago","state":"IL","address":"3501 Roosevelt Road","name":""},
  {"lat":31.101976,"lon":-97.749987,"city":"Killeen","state":"TX","address":"1516 S Fort Hood St","name":""},
  {"lat":47.469146,"lon":-94.879556,"city":"Bemidji","state":"MN","address":"100 Paul Bunyan Dr S","name":""},
  {"lat":42.930851,"lon":-87.860455,"city":"Cudahy","state":"WI","address":"6250 South Packard Avenue","name":""},
  {"lat":21.278831,"lon":-157.754083,"city":"Honolulu","state":"HI","address":"820 W Hind Dr","name":""},
  {"lat":29.911736,"lon":-95.482616,"city":"Houston","state":"TX","address":"12655 Tomball Parkway","name":""},
  {"lat":42.644431,"lon":-82.854115,"city":"Chesterfield","state":"MI","address":"46895 Gratiot Avenue","name":""},
  {"lat":33.741568,"lon":-117.817507,"city":"Tustin","state":"CA","address":"13662-C Newport Avenue","name":""},
  {"lat":40.377993,"lon":-111.813218,"city":"American Fork","state":"UT","address":"51 N West State Rd","name":""},
  {"lat":42.1987,"lon":-83.204216,"city":"Southgate","state":"MI","address":"14791 Eureka Rd","name":""},
  {"lat":34.944573,"lon":-88.496742,"city":"Corinth","state":"MS","address":"1709 N Harper Rd","name":""},
  {"lat":44.790744,"lon":-93.214443,"city":"Eagan","state":"MN","address":"2105 Cliff Rd","name":""},
  {"lat":33.653826,"lon":-86.648161,"city":"Birmingham","state":"AL","address":"2148 Sweeney Hollow Rd","name":""},
  {"lat":41.370604,"lon":-88.835918,"city":"Ottawa","state":"IL","address":"2866 Columbus St","name":""},
  {"lat":29.433711,"lon":-98.717276,"city":"San Antonio","state":"TX","address":"11330 Potranco Rd.","name":""},
  {"lat":32.522355,"lon":-92.147186,"city":"West Monroe","state":"LA","address":"2400 N 7th St","name":""},
  {"lat":38.883522,"lon":-76.99473,"city":"Washington","state":"DC","address":"406 8th St SE","name":""},
  {"lat":39.021706,"lon":-77.014388,"city":"Silver Spring","state":"MD","address":"115 University Boulevard West","name":""},
  {"lat":29.664417,"lon":-95.716088,"city":"Richmond","state":"TX","address":"19211 Morton Rd","name":""},
  {"lat":29.980319,"lon":-95.216813,"city":"Humble","state":"TX","address":"3809 Atascocita Road","name":""},
  {"lat":43.012527,"lon":-88.384716,"city":"Wales","state":"WI","address":"511 North Wales Road","name":""},
  {"lat":32.724741,"lon":-103.142922,"city":"Hobbs","state":"NM","address":"2220 North Grimes Street","name":""},
  {"lat":41.931704,"lon":-87.649134,"city":"Chicago","state":"IL","address":"2706 N Halsted St","name":""},
  {"lat":34.962857,"lon":-90.054574,"city":"Horn Lake","state":"MS","address":"3515 Goodman Rd W","name":""},
  {"lat":41.369184,"lon":-82.956479,"city":"Clyde","state":"OH","address":"1012 North County Road 260","name":""},
  {"lat":36.011708,"lon":-115.136101,"city":"Las Vegas","state":"NV","address":"9770 S Maryland Parkway","name":""},
  {"lat":41.513135,"lon":-87.258465,"city":"Hobart","state":"IN","address":"1475 South Lake Park Avenue","name":""},
  {"lat":40.08976,"lon":-83.04909,"city":"Worthington","state":"OH","address":"6130 Linworth Rd","name":""},
  {"lat":34.177194,"lon":-83.910032,"city":"Flowery Branch","state":"GA","address":"5915 Spout Springs Rd","name":""},
  {"lat":41.623056,"lon":-87.675354,"city":"Posen","state":"IL","address":"2306 W 147th St","name":""},
  {"lat":44.925898,"lon":-92.971678,"city":"Woodbury","state":"MN","address":"6671 Valley Creek Rd","name":""},
  {"lat":33.79814,"lon":-118.298339,"city":"Harbor City","state":"CA","address":"1219 Lomita Blvd","name":""},
  {"lat":43.167226,"lon":-88.099767,"city":"Menomonee Falls","state":"WI","address":"N82 W15272 Appleton Ave","name":""},
  {"lat":30.128845,"lon":-93.88362,"city":"Orange","state":"TX","address":"12099 Farm To Market Road 1442","name":""},
  {"lat":32.179352,"lon":-110.942169,"city":"Tucson","state":"AZ","address":"1993 East Ajo Way","name":""},
  {"lat":42.174151,"lon":-87.983434,"city":"Buffalo Grove","state":"IL","address":"1165 McHenry Rd","name":""},
  {"lat":32.846128,"lon":-96.849611,"city":"Dallas","state":"TX","address":"Dallas Love Field Airport","name":""},
  {"lat":43.427341,"lon":-88.198437,"city":"West Bend","state":"WI","address":"1610 W Washington St","name":""},
  {"lat":38.071599,"lon":-97.899508,"city":"Hutchinson","state":"KS","address":"1533 E 17th Ave.","name":""},
  {"lat":38.245496,"lon":-122.020826,"city":"Suisun City","state":"CA","address":"282 Sunset Ave","name":""},
  {"lat":34.044483,"lon":-118.378554,"city":"Los Angeles","state":"CA","address":"1831 S La Cienega Blvd","name":""},
  {"lat":32.649122,"lon":-97.0432,"city":"Grand Prairie","state":"TX","address":"5170 Lake Ridge Pkwy","name":""},
  {"lat":32.632854,"lon":-97.407547,"city":"Fort Worth","state":"TX","address":"7621 Summer Creek Rd.","name":""},
  {"lat":34.249206,"lon":-83.459433,"city":"Commerce","state":"GA","address":"110 Banks Crossing Dr","name":""},
  {"lat":25.879152,"lon":-80.196316,"city":"Miami Shores","state":"FL","address":"11300 NE 2nd Ave","name":""},
  {"lat":44.834027,"lon":-92.952134,"city":"Cottage Grove","state":"MN","address":"7584 80th Street South","name":""},
  {"lat":38.75445,"lon":-77.187662,"city":"Fort Belvoir","state":"VA","address":"7500 Heller Loop","name":""},
  {"lat":34.341586,"lon":-78.70916,"city":"Whiteville","state":"NC","address":"1006 Smyrna Drive","name":""},
  {"lat":40.26359,"lon":-83.067474,"city":"Delaware","state":"OH","address":"50 Coughlin Ln","name":""},
  {"lat":44.034469,"lon":-88.573988,"city":"Oshkosh","state":"WI","address":"1650 Oshkosh Ave","name":""},
  {"lat":33.37795,"lon":-112.009958,"city":"Phoenix","state":"AZ","address":"3333 E Baseline","name":""},
  {"lat":31.049396,"lon":-93.218333,"city":"Fort Polk South","state":"LA","address":"7323 Utah Avenue","name":""},
  {"lat":40.8358,"lon":-73.920832,"city":"The Bronx","state":"NY","address":"49 E 167th St","name":""},
  {"lat":34.96526,"lon":-80.059277,"city":"Wadesboro","state":"NC","address":"1109 East Caswell Street","name":""},
  {"lat":32.649404,"lon":-96.942801,"city":"Duncanville","state":"TX","address":"310 South Clark Road","name":""},
  {"lat":42.047634,"lon":-88.143994,"city":"Hoffman Estates","state":"IL","address":"1305 Barrington Road","name":""},
  {"lat":35.318173,"lon":-89.152914,"city":"Whiteville","state":"TN","address":"2070 Highway 64","name":""},
  {"lat":27.764481,"lon":-82.336419,"city":"Wimauma","state":"FL","address":"14407 US Highway 301","name":""},
  {"lat":40.713113,"lon":-73.605868,"city":"Hempstead","state":"NY","address":"760 Fulton Avenue","name":""},
  {"lat":41.682288,"lon":-87.539695,"city":"Chicago","state":"IL","address":"11711 S Ave O","name":""},
  {"lat":35.0875,"lon":-85.0725,"city":"Ooltewah","state":"TN","address":"5038 Hunter Rd","name":""},
  {"lat":36.705359,"lon":-119.574653,"city":"Sanger","state":"CA","address":"775 South Bethel Avenue","name":""},
  {"lat":33.464184,"lon":-83.242769,"city":"Greensboro","state":"GA","address":"1000 Salem Walk Drive","name":""},
  {"lat":42.364009,"lon":-88.111432,"city":"Round Lake","state":"IL","address":"751 North Fairfield Road","name":""},
  {"lat":34.840685,"lon":-90.358757,"city":"Robinsonville","state":"MS","address":"711 Lucky Ln","name":""},
  {"lat":40.760583,"lon":-73.995154,"city":"New York City","state":"NY","address":"595 10th Ave","name":""},
  {"lat":32.674642,"lon":-97.09259,"city":"Arlington","state":"TX","address":"4501 South Collins Street","name":""},
  {"lat":21.333299,"lon":-158.052113,"city":"Kapolei","state":"HI","address":"91-5431 Kapolei Parkway Space 418","name":""},
  {"lat":39.037737,"lon":-76.990216,"city":"Silver Spring","state":"MD","address":"11140 New Hampshire Ave","name":""},
  {"lat":43.102652,"lon":-89.195978,"city":"Cottage Grove","state":"WI","address":"110 Limestone Pass","name":""},
  {"lat":29.923168,"lon":-95.195615,"city":"Houston","state":"TX","address":"12712 W Lake Houston Pkwy","name":""},
  {"lat":42.02362,"lon":-76.4127,"city":"Nichols","state":"NY","address":"2384 W River Rd","name":""},
  {"lat":34.112875,"lon":-84.153904,"city":"Cumming","state":"GA","address":"3065 Old Atlanta Rd","name":""},
  {"lat":40.740755,"lon":-73.981313,"city":"New York City","state":"NY","address":"361 3rd Ave","name":""},
  {"lat":39.334324,"lon":-77.636692,"city":"Brunswick","state":"MD","address":"1194 Dutchmans Creek Dr","name":""},
  {"lat":30.871595,"lon":-83.289077,"city":"Valdosta","state":"GA","address":"2917 North Ashley Street","name":""},
  {"lat":30.404869,"lon":-86.852934,"city":"Navarre","state":"FL","address":"8856 Navarre Pkwy","name":""},
  {"lat":38.661018,"lon":-77.441032,"city":"Manassas","state":"VA","address":"13414 Dumfries Road","name":""},
  {"lat":33.890527,"lon":-79.756048,"city":"Lake City","state":"SC","address":"705 U.S. 52","name":""},
  {"lat":43.13561,"lon":-88.243191,"city":"Sussex","state":"WI","address":"249 Wisconsin 164","name":""},
  {"lat":33.305958,"lon":-111.942244,"city":"Chandler","state":"AZ","address":"5800 W Chandler Blvd","name":""},
  {"lat":28.460612,"lon":-82.542529,"city":"Spring Hill","state":"FL","address":"11046 Spring Hill Dr","name":""},
  {"lat":34.281106,"lon":-86.22043,"city":"Albertville","state":"AL","address":"8171 US Highway 431","name":""},
  {"lat":35.394577,"lon":-94.598825,"city":"Muldrow","state":"OK","address":"1328 S Main St","name":""},
  {"lat":34.034808,"lon":-117.758811,"city":"Pomona","state":"CA","address":"2047 Rancho Valley Dr","name":""},
  {"lat":44.505885,"lon":-88.072188,"city":"Green Bay","state":"WI","address":"1221 Lombardi Access Rd","name":""},
  {"lat":46.209036,"lon":-119.157076,"city":"Kennewick","state":"WA","address":"2617 W Kennewick Ave","name":""},
  {"lat":42.323646,"lon":-83.169707,"city":"Dearborn","state":"MI","address":"12951 Michigan Ave","name":""},
  {"lat":35.774221,"lon":-86.402063,"city":"Murfreesboro","state":"TN","address":"3415 Shelbyville Pike","name":""},
  {"lat":41.816118,"lon":-87.925851,"city":"Hinsdale","state":"IL","address":"150 East Ogden Avenue","name":""},
  {"lat":33.79579,"lon":-116.97113,"city":"San Jacinto","state":"CA","address":"671 N State St","name":""},
  {"lat":26.151666,"lon":-80.320552,"city":"Sunrise","state":"FL","address":"12801 West Sunrise Boulevard","name":""},
  {"lat":39.163595,"lon":-86.498519,"city":"Bloomington","state":"IN","address":"300 S College Mall Rd","name":""},
  {"lat":38.890501,"lon":-76.851322,"city":"Capitol Heights","state":"MD","address":"8909 Central Ave","name":""},
  {"lat":34.762135,"lon":-79.469412,"city":"Laurinburg","state":"NC","address":"1201 S Main St","name":""},
  {"lat":33.448673,"lon":-112.391847,"city":"Goodyear","state":"AZ","address":"211 N Estrella Pkwy","name":""},
  {"lat":35.030324,"lon":-79.062581,"city":"Fayetteville","state":"NC","address":"9566 Cliffdale Rd","name":""},
  {"lat":35.342033,"lon":-78.029817,"city":"Goldsboro","state":"NC","address":"2345 U.S. 117","name":""},
  {"lat":29.829701,"lon":-95.763213,"city":"Katy","state":"TX","address":"3831 W Grand Parkway","name":""},
  {"lat":41.367781,"lon":-82.958959,"city":"Clyde","state":"OH","address":"1012 Ohio Turnpike","name":""},
  {"lat":38.907883,"lon":-77.543988,"city":"Chantilly","state":"VA","address":"42204 McGraw Ridge Drive","name":""},
  {"lat":42.040327,"lon":-87.839553,"city":"Niles","state":"IL","address":"8584 W Dempster St","name":""},
  {"lat":34.153139,"lon":-84.821678,"city":"Cartersville","state":"GA","address":"11 Charley Harper Dr","name":""},
  {"lat":29.453438,"lon":-98.550587,"city":"San Antonio","state":"TX","address":"627 Bandera Road","name":""},
  {"lat":42.070016,"lon":-86.437858,"city":"Benton Harbor","state":"MI","address":"2680 Michigan 139","name":""},
  {"lat":35.385175,"lon":-96.670015,"city":"Seminole","state":"OK","address":"11242 Oklahoma 99","name":""},
  {"lat":40.766692,"lon":-73.920611,"city":"Astoria","state":"NY","address":"31-19 30th Ave","name":""},
  {"lat":30.112628,"lon":-95.555106,"city":"Spring","state":"TX","address":"24211 Kuykendahl Road","name":""},
  {"lat":30.072549,"lon":-90.493005,"city":"LaPlace","state":"LA","address":"1334 W Airline Hwy","name":""},
  {"lat":44.970246,"lon":-89.637747,"city":"Wausau","state":"WI","address":"110 W Bridge St","name":""},
  {"lat":28.857731,"lon":-82.392794,"city":"Inverness","state":"FL","address":"2461 East Gulf To Lake Rd","name":""},
  {"lat":41.864798,"lon":-88.20415,"city":"West Chicago","state":"IL","address":"110 W Roosevelt Rd","name":""},
  {"lat":39.598155,"lon":-77.729726,"city":"Hagerstown","state":"MD","address":"10319 Sharpsburg Pike","name":""},
  {"lat":39.121517,"lon":-77.177901,"city":"Gaithersburg","state":"MD","address":"16268 Frederick Road","name":""},
  {"lat":32.877266,"lon":-105.961357,"city":"Alamogordo","state":"NM","address":"1400 S White Sands Blvd","name":""},
  {"lat":37.312437,"lon":-89.539938,"city":"Cape Girardeau","state":"MO","address":"1704 Broadway St","name":""},
  {"lat":27.822158,"lon":-82.826362,"city":"North Redington Beach","state":"FL","address":"17307 Gulf Blvd","name":""},
  {"lat":34.988993,"lon":-118.941504,"city":"Arvin","state":"CA","address":"5621 Outlets At Tejon Parkway","name":""},
  {"lat":43.619958,"lon":-116.370598,"city":"Meridian","state":"ID","address":"1890 E Fairview Ave","name":""},
  {"lat":40.670064,"lon":-73.389277,"city":"Copiague","state":"NY","address":"1115 Montauk Hwy","name":""},
  {"lat":38.769347,"lon":-77.487204,"city":"Manassas","state":"VA","address":"8625 Sudley Rd","name":""},
  {"lat":30.212898,"lon":-93.376756,"city":"Sulphur","state":"LA","address":"2700 Ruth Street","name":""},
  {"lat":42.093235,"lon":-88.258381,"city":"East Dundee","state":"IL","address":"892 S Main Street","name":""},
  {"lat":34.360707,"lon":-80.061786,"city":"Hartsville","state":"SC","address":"1089 South 4th Street","name":""},
  {"lat":48.58856,"lon":-93.403462,"city":"International Falls","state":"MN","address":"1632 2nd Avenue","name":""},
  {"lat":41.117548,"lon":-102.957926,"city":"Sidney","state":"NE","address":"500 Glover Road","name":""},
  {"lat":38.335215,"lon":-75.083067,"city":"Ocean City","state":"MD","address":"405 N Boardwalk","name":""},
  {"lat":33.842857,"lon":-87.247517,"city":"Jasper","state":"AL","address":"2315 Highway 78 E","name":""},
  {"lat":44.731359,"lon":-93.22225,"city":"Apple Valley","state":"MN","address":"7668 150th St W","name":""},
  {"lat":36.278126,"lon":-95.831426,"city":"Owasso","state":"OK","address":"12802 E 86th St N","name":""},
  {"lat":34.509761,"lon":-89.924276,"city":"Como","state":"MS","address":"591 E Oak St","name":""},
  {"lat":40.862126,"lon":-73.924842,"city":"New York City","state":"NY","address":"109 Dyckman St","name":""},
  {"lat":38.296475,"lon":-77.496501,"city":"Fredericksburg","state":"VA","address":"2203 Plank Rd","name":""},
  {"lat":30.051385,"lon":-99.135555,"city":"Kerrville","state":"TX","address":"801 Sidney Baker St","name":""},
  {"lat":41.817229,"lon":-86.247194,"city":"Niles","state":"MI","address":"1005 South 11th Street","name":""},
  {"lat":33.108083,"lon":-96.842386,"city":"Frisco","state":"TX","address":"3555 Legacy Dr","name":""},
  {"lat":30.577615,"lon":-96.317324,"city":"College Station","state":"TX","address":"12061 FM 2154","name":""},
  {"lat":41.289513,"lon":-87.402058,"city":"Lowell","state":"IN","address":"1660 East Commercial Avenue","name":""},
  {"lat":29.549789,"lon":-98.510382,"city":"San Antonio","state":"TX","address":"11910 Blanco Road","name":""},
  {"lat":33.821226,"lon":-84.264549,"city":"Decatur","state":"GA","address":"2550 Lawrenceville Highway","name":""},
  {"lat":34.206855,"lon":-88.715109,"city":"Tupelo","state":"MS","address":"136 College Ave","name":""},
  {"lat":33.778653,"lon":-84.383866,"city":"Atlanta","state":"GA","address":"881 Peachtree St NE","name":""},
  {"lat":42.041137,"lon":-87.758883,"city":"Skokie","state":"IL","address":"5252 Dempster Street","name":""},
  {"lat":40.063194,"lon":-83.054251,"city":"Columbus","state":"OH","address":"1325 Bethel Rd","name":""},
  {"lat":39.06157,"lon":-77.474312,"city":"Ashburn","state":"VA","address":"44135 Ashbrook Marketplace Plaza","name":""},
  {"lat":38.781705,"lon":-77.185889,"city":"Springfield","state":"VA","address":"6310 Backlick Road","name":""},
  {"lat":34.426611,"lon":-118.425116,"city":"Santa Clarita","state":"CA","address":"16544 Soledad Canyon Rd","name":""},
  {"lat":28.862195,"lon":-96.996302,"city":"Victoria","state":"TX","address":"7104 N Navarro St","name":""},
  {"lat":44.083766,"lon":-87.691266,"city":"Manitowoc","state":"WI","address":"3506 Calumet Ave","name":""},
  {"lat":38.74079,"lon":-121.226558,"city":"Roseville","state":"CA","address":"8690 Sierra College Blvd","name":""},
  {"lat":32.459958,"lon":-111.216477,"city":"Marana","state":"AZ","address":"13952 North Sandario Road","name":""},
  {"lat":33.416174,"lon":-86.695614,"city":"Birmingham","state":"AL","address":"940 Inverness Corners","name":""},
  {"lat":29.16502,"lon":-82.169298,"city":"Ocala","state":"FL","address":"2708 Southwest College Road","name":""},
  {"lat":30.22052,"lon":-93.326148,"city":"Sulphur","state":"LA","address":"228 S Cities Service Highway","name":""},
  {"lat":26.164576,"lon":-80.201393,"city":"Lauderdale Lakes","state":"FL","address":"3960 W Oakland Park Blvd","name":""},
  {"lat":38.540733,"lon":-121.482326,"city":"Sacramento","state":"CA","address":"3700 Crocker Dr","name":""},
  {"lat":46.62024,"lon":-120.563581,"city":"Yakima","state":"WA","address":"1208 N 40th Ave.","name":""},
  {"lat":42.522188,"lon":-83.04805,"city":"Warren","state":"MI","address":"5847 13 Mile Rd","name":""},
  {"lat":33.879825,"lon":-118.334392,"city":"Torrance","state":"CA","address":"3564 Redondo Beach Bvd","name":""},
  {"lat":32.770715,"lon":-117.007843,"city":"La Mesa","state":"CA","address":"8807 1/2 La Mesa Blvd","name":""},
  {"lat":32.838345,"lon":-106.083215,"city":"Holloman Air Force Base","state":"NM","address":"551 West 4th St","name":""},
  {"lat":35.053577,"lon":-93.38614,"city":"Danville","state":"AR","address":"804 East 8th St","name":""},
  {"lat":33.524789,"lon":-88.436439,"city":"Columbus","state":"MS","address":"2121 Highway 45 N","name":""},
  {"lat":33.815958,"lon":-84.446143,"city":"Atlanta","state":"GA","address":"2230 Marietta Blvd NW","name":""},
  {"lat":35.344235,"lon":-80.170829,"city":"Albemarle","state":"NC","address":"716 NC 24/27 Byp E","name":""},
  {"lat":41.790793,"lon":-88.321555,"city":"North Aurora","state":"IL","address":"407 S. Lincolnway","name":""},
  {"lat":41.549806,"lon":-87.410442,"city":"Gary","state":"IN","address":"6060 W Ridge Rd","name":""},
  {"lat":38.870299,"lon":-77.054694,"city":"Washington","state":"DC","address":"Shirley Memorial Hwy","name":""},
  {"lat":27.859424,"lon":-82.203112,"city":"Lithia","state":"FL","address":"16645 Fishhawk Blvd","name":""},
  {"lat":41.767291,"lon":-87.585369,"city":"Chicago","state":"IL","address":"7013 S Stony Island Ave","name":""},
  {"lat":40.683922,"lon":-73.354162,"city":"Lindenhurst","state":"NY","address":"320 E Montauk Hwy","name":""},
  {"lat":33.56312,"lon":-83.477945,"city":"Madison","state":"GA","address":"1800 Eatonton Rd","name":""},
  {"lat":40.698042,"lon":-73.628938,"city":"Hempstead","state":"NY","address":"579 Peninsula Blvd","name":""},
  {"lat":28.115849,"lon":-81.974342,"city":"Lakeland","state":"FL","address":"5614 US Highway 98 N","name":""},
  {"lat":33.666676,"lon":-117.263065,"city":"Lake Elsinore","state":"CA","address":"29991 Canyon Hills Rd","name":""},
  {"lat":34.173215,"lon":-84.18839,"city":"Cumming","state":"GA","address":"5470 Bethelview Rd","name":""},
  {"lat":41.684345,"lon":-87.641782,"city":"Chicago","state":"IL","address":"11525 S Halsted St","name":""},
  {"lat":40.884442,"lon":-73.900318,"city":"The Bronx","state":"NY","address":"193 W 237th St","name":""},
  {"lat":40.878852,"lon":-74.152392,"city":"Clifton","state":"NJ","address":"405 Piaget Ave","name":""},
  {"lat":41.706803,"lon":-87.559372,"city":"Chicago","state":"IL","address":"10351 S Torrence Ave","name":""},
  {"lat":34.120888,"lon":-83.827171,"city":"Braselton","state":"GA","address":"2630 Old Winder Highway","name":""},
  {"lat":38.745704,"lon":-104.801615,"city":"Fort Carson","state":"CO","address":"5940 Ellis St","name":""},
  {"lat":27.75511,"lon":-82.638692,"city":"St. Petersburg","state":"FL","address":"1524 4th St S","name":""},
  {"lat":34.475683,"lon":-114.346297,"city":"Lake Havasu City","state":"AZ","address":"85 Lake Havasu Ave N","name":""},
  {"lat":41.758594,"lon":-87.615567,"city":"Chicago","state":"IL","address":"7450 S. Martin Luther King Dr.","name":""},
  {"lat":32.899809,"lon":-97.040335,"city":"Dallas","state":"TX","address":"Dfw Int. Airport","name":""},
  {"lat":34.848942,"lon":-117.084136,"city":"Barstow","state":"CA","address":"2804 Lenwood Rd","name":""},
  {"lat":29.932973,"lon":-94.268319,"city":"Beaumont","state":"TX","address":"17498 Interstate 10","name":""},
  {"lat":37.735109,"lon":-84.313684,"city":"Richmond","state":"KY","address":"202 Wayne Dr","name":""},
  {"lat":35.873373,"lon":-90.176875,"city":"Manila","state":"AR","address":"680 South Highway 77","name":""},
  {"lat":41.7163,"lon":-87.782519,"city":"Chicago Ridge","state":"IL","address":"9680 S Ridgeland Ave","name":""},
  {"lat":37.904426,"lon":-85.954468,"city":"Fort Knox","state":"KY","address":"2013 Eisenhower Ave","name":""},
  {"lat":40.611105,"lon":-111.983836,"city":"West Jordan","state":"UT","address":"7689 S Jordan Landing Blvd","name":""},
  {"lat":33.976568,"lon":-88.421199,"city":"Amory","state":"MS","address":"60256 Hatley Rd","name":""},
  {"lat":29.689716,"lon":-95.502437,"city":"Houston","state":"TX","address":"6755 Bissonnet","name":""},
  {"lat":42.175164,"lon":-88.333193,"city":"Algonquin","state":"IL","address":"15 S Randall Rd","name":""},
  {"lat":34.110456,"lon":-80.896359,"city":"Columbia","state":"SC","address":"9920 Two Notch Rd","name":""},
  {"lat":37.240083,"lon":-121.960434,"city":"Los Gatos","state":"CA","address":"15730 Los Gatos Blvd","name":""},
  {"lat":32.206476,"lon":-110.878134,"city":"Tucson","state":"AZ","address":"5346 E 22nd St","name":""},
  {"lat":40.761862,"lon":-73.329803,"city":"Deer Park","state":"NY","address":"1906 Deer Park Ave","name":""},
  {"lat":42.467488,"lon":-83.435478,"city":"Novi","state":"MI","address":"39415 W 10 Mile Rd","name":""},
  {"lat":41.780121,"lon":-87.863549,"city":"Hodgkins","state":"IL","address":"9400 Joliet Rd","name":""},
  {"lat":42.449462,"lon":-82.968635,"city":"Detroit","state":"MI","address":"14900 E 8 Mile Rd","name":""},
  {"lat":40.725541,"lon":-73.487044,"city":"Bethpage","state":"NY","address":"4025B Hempstead Tpke","name":""},
  {"lat":44.100612,"lon":-123.1277,"city":"Eugene","state":"OR","address":"45W Division Ave","name":""},
  {"lat":45.605407,"lon":-122.502028,"city":"Vancouver","state":"WA","address":"16600 SE McGillivray Blvd","name":""},
  {"lat":41.425364,"lon":-81.497332,"city":"Warrensville Heights","state":"OH","address":"4959 Richmond Rd","name":""},
  {"lat":39.177833,"lon":-77.269627,"city":"Germantown","state":"MD","address":"12915 Wisteria Dr","name":""},
  {"lat":41.138081,"lon":-73.291009,"city":"Southport","state":"CT","address":"3355 Post Rd","name":""},
  {"lat":35.959199,"lon":-86.801293,"city":"Franklin","state":"TN","address":"9100A Carothers Pkwy","name":""},
  {"lat":40.694391,"lon":-73.508887,"city":"Wantagh","state":"NY","address":"1148 Wantagh Ave","name":""},
  {"lat":39.057452,"lon":-96.096013,"city":"Paxico","state":"KS","address":"18094 SW Vera Frontage Rd","name":""},
  {"lat":40.009686,"lon":-75.295661,"city":"Ardmore","state":"PA","address":"12 Greenfield Ave","name":""},
  {"lat":40.737714,"lon":-73.996254,"city":"New York City","state":"NY","address":"544 Avenue Of The Americas","name":""},
  {"lat":39.934976,"lon":-91.373149,"city":"Quincy","state":"IL","address":"2602 Broadway St","name":""},
  {"lat":47.963999,"lon":-122.207697,"city":"Everett","state":"WA","address":"4019 Colby Ave","name":""},
  {"lat":47.146502,"lon":-122.43405,"city":"Tacoma","state":"WA","address":"12155 Pacific Ave S","name":""},
  {"lat":47.656562,"lon":-117.236394,"city":"Spokane","state":"WA","address":"12510 E Sprague Ave","name":""},
  {"lat":33.973142,"lon":-118.188017,"city":"Bell","state":"CA","address":"6907 Atlantic Ave","name":""},
  {"lat":39.554395,"lon":-119.782661,"city":"Reno","state":"NV","address":"2875 Northtowne Ln","name":""},
  {"lat":31.225901,"lon":-85.431622,"city":"Dothan","state":"AL","address":"3064 Ross Clark Cir","name":""},
  {"lat":29.230346,"lon":-81.010226,"city":"Daytona Beach","state":"FL","address":"215 N Atlantic Ave","name":""},
  {"lat":35.034009,"lon":-85.158719,"city":"Chattanooga","state":"TN","address":"2100 Hamilton Place Blvd.","name":""},
  {"lat":42.46155,"lon":-83.201785,"city":"Southfield","state":"MI","address":"23113 Greenfield Rd","name":""},
  {"lat":35.656758,"lon":-78.476877,"city":"Clayton","state":"NC","address":"770 Enterprise Drive","name":""},
  {"lat":40.929855,"lon":-74.026145,"city":"New Milford","state":"NJ","address":"754 River Rd","name":""},
  {"lat":38.136144,"lon":-79.046061,"city":"Staunton","state":"VA","address":"1028 Richmond Ave","name":""},
  {"lat":33.975168,"lon":-118.223511,"city":"Huntington Park","state":"CA","address":"2661 E Florence Ave","name":""},
  {"lat":41.819193,"lon":-87.821324,"city":"Lyons","state":"IL","address":"8007 Ogden Ave","name":""},
  {"lat":40.75526,"lon":-73.994542,"city":"New York City","state":"NY","address":"484 9th Ave","name":""},
  {"lat":32.344542,"lon":-90.833902,"city":"Vicksburg","state":"MS","address":"4209 Clay St","name":""},
  {"lat":38.861081,"lon":-77.386441,"city":"Fairfax","state":"VA","address":"12701 Shoppes Ln","name":""},
  {"lat":37.045761,"lon":-76.389514,"city":"Hampton","state":"VA","address":"2040 Coliseum Dr","name":""},
  {"lat":32.837419,"lon":-116.986352,"city":"Santee","state":"CA","address":"9665 Mission Gorge Rd","name":""},
  {"lat":31.628853,"lon":-94.652792,"city":"Nacogdoches","state":"TX","address":"2801 North St","name":""},
  {"lat":29.540728,"lon":-95.538309,"city":"Missouri City","state":"TX","address":"8731 Highway 6 South","name":""},
  {"lat":33.821391,"lon":-118.185198,"city":"Long Beach","state":"CA","address":"3543 Atlantic Ave","name":""},
  {"lat":34.16809,"lon":-119.177347,"city":"Oxnard","state":"CA","address":"3520 S. Saviers Rd","name":""},
  {"lat":30.501086,"lon":-90.485035,"city":"Hammond","state":"LA","address":"2202 W Thomas St","name":""},
  {"lat":38.678647,"lon":-121.788051,"city":"Woodland","state":"CA","address":"91 W. Court St","name":""},
  {"lat":33.628985,"lon":-117.663993,"city":"Mission Viejo","state":"CA","address":"22922 Los Alisos Blvd","name":""},
  {"lat":45.379044,"lon":-122.602911,"city":"Gladstone","state":"OR","address":"19510 McLoughlin Blvd","name":""},
  {"lat":40.74957,"lon":-73.8699,"city":"Corona","state":"NY","address":"37-76 Junction Blvd","name":""},
  {"lat":34.150183,"lon":-118.001211,"city":"Monrovia","state":"CA","address":"104 W Foothill Blvd","name":""},
  {"lat":45.676145,"lon":-122.551027,"city":"Orchards","state":"WA","address":"7411 NE 117th Ave","name":""},
  {"lat":32.655938,"lon":-117.06573,"city":"National City","state":"CA","address":"3030 Plaza Bonita Rd #2075","name":""},
  {"lat":47.657459,"lon":-122.690318,"city":"Silverdale","state":"WA","address":"10315 Silverdale Way NW","name":""},
  {"lat":41.825017,"lon":-87.798297,"city":"Berwyn","state":"IL","address":"7020 Ogden Ave","name":""},
  {"lat":42.138697,"lon":-87.984044,"city":"Arlington Heights","state":"IL","address":"105 W. Dundee Rd","name":""},
  {"lat":39.695339,"lon":-104.867484,"city":"Aurora","state":"CO","address":"1155 S Havana St","name":""},
  {"lat":40.663409,"lon":-73.548743,"city":"Merrick","state":"NY","address":"56 E Sunrise Hwy","name":""},
  {"lat":41.631289,"lon":-87.930512,"city":"Homer Glen","state":"IL","address":"14135 S Bell Rd","name":""},
  {"lat":42.152696,"lon":-88.433782,"city":"Huntley","state":"IL","address":"12090 Princeton Dr","name":""},
  {"lat":37.977454,"lon":-122.032955,"city":"Concord","state":"CA","address":"1924 Grant St","name":""},
  {"lat":28.852737,"lon":-82.383312,"city":"Inverness","state":"FL","address":"599 S. Stone Way","name":""},
  {"lat":33.959229,"lon":-117.592508,"city":"Eastvale","state":"CA","address":"7056 Archibald St","name":""},
  {"lat":30.453091,"lon":-97.604401,"city":"Pflugerville","state":"TX","address":"1552 FM 685","name":""},
  {"lat":33.139642,"lon":-96.802852,"city":"Frisco","state":"TX","address":"7410 Preston Rd","name":""},
  {"lat":39.039228,"lon":-94.416179,"city":"Independence","state":"MO","address":"4486 S Noland Rd","name":""},
  {"lat":30.516449,"lon":-86.465959,"city":"Niceville","state":"FL","address":"1152 John Sims Pkwy E","name":""},
  {"lat":39.666602,"lon":-104.987225,"city":"Englewood","state":"CO","address":"2766 S Broadway","name":""},
  {"lat":39.189038,"lon":-94.548582,"city":"Kansas City","state":"MO","address":"5243 N Antioch Rd","name":""},
  {"lat":30.180383,"lon":-93.248904,"city":"Lake Charles","state":"LA","address":"4301 Nelson Rd","name":""},
  {"lat":35.995776,"lon":-115.207056,"city":"Las Vegas","state":"NV","address":"10650 Southern Highlands Pkwy","name":""},
  {"lat":42.760202,"lon":-84.504919,"city":"East Lansing","state":"MI","address":"1595 W Lake Lansing Rd","name":""},
  {"lat":29.488686,"lon":-98.458806,"city":"San Antonio","state":"TX","address":"6418 N. New Braunfels Ave","name":""},
  {"lat":31.323109,"lon":-89.344988,"city":"Hattiesburg","state":"MS","address":"3720 Hardy St","name":""},
  {"lat":33.804033,"lon":-118.196083,"city":"Long Beach","state":"CA","address":"400 W Willow St","name":""},
  {"lat":33.658382,"lon":-118.00124,"city":"Huntington Beach","state":"CA","address":"201 Main St","name":""},
  {"lat":33.82047,"lon":-116.458604,"city":"Cathedral City","state":"CA","address":"31375 Date Palm Dr","name":""},
  {"lat":47.313774,"lon":-122.30773,"city":"Federal Way","state":"WA","address":"1946 S. Seatac Mall B-42","name":""},
  {"lat":40.870551,"lon":-72.996803,"city":"Coram","state":"NY","address":"350 Middle Country Rd","name":""},
  {"lat":26.618155,"lon":-80.115414,"city":"Lake Worth","state":"FL","address":"4644 Lake Worth Rd","name":""},
  {"lat":41.629565,"lon":-87.509271,"city":"Hammond","state":"IN","address":"4614 Calumet Ave","name":""},
  {"lat":37.723492,"lon":-121.435788,"city":"Tracy","state":"CA","address":"965 S Tracy Blvd","name":""},
  {"lat":29.887639,"lon":-95.642792,"city":"Houston","state":"TX","address":"7510 Highway 6 N","name":""},
  {"lat":39.198274,"lon":-121.061863,"city":"Grass Valley","state":"CA","address":"151 W McKnight Way","name":""},
  {"lat":40.431601,"lon":-74.385173,"city":"East Brunswick","state":"NJ","address":"680 Rte 18 N","name":""},
  {"lat":34.478922,"lon":-91.54825,"city":"Stuttgart","state":"AR","address":"408 E. 22nd St","name":""},
  {"lat":40.668026,"lon":-73.705123,"city":"Valley Stream","state":"NY","address":"207 W. Merrick Rd","name":""},
  {"lat":34.075643,"lon":-89.896552,"city":"Oakland","state":"MS","address":"28575 Highway 32","name":""},
  {"lat":40.884744,"lon":-73.260874,"city":"Kings Park","state":"NY","address":"101 Pulaski Rd","name":""},
  {"lat":41.975971,"lon":-87.787465,"city":"Chicago","state":"IL","address":"5205 N Nagle Avenue","name":""},
  {"lat":42.225793,"lon":-88.292094,"city":"Crystal Lake","state":"IL","address":"4817 Northwest Hwy","name":""},
  {"lat":38.58777,"lon":-89.98439,"city":"Fairview Heights","state":"IL","address":"6008 N Illinois St","name":""},
  {"lat":40.149327,"lon":-74.999299,"city":"Feasterville-Trevose","state":"PA","address":"110 E Street Rd","name":""},
  {"lat":34.171403,"lon":-118.838431,"city":"Thousand Oaks","state":"CA","address":"2839 E Thousand Oaks Blvd","name":""},
  {"lat":41.14854,"lon":-88.833521,"city":"Streator","state":"IL","address":"2377 North Bloomington St","name":""},
  {"lat":26.194693,"lon":-98.205234,"city":"McAllen","state":"TX","address":"1400 E Expressway 83","name":""},
  {"lat":26.959294,"lon":-82.352699,"city":"Englewood","state":"FL","address":"151 S Indiana Ave","name":""},
  {"lat":38.751737,"lon":-77.264705,"city":"Springfield","state":"VA","address":"7561 Huntsman Blvd","name":""},
  {"lat":35.385064,"lon":-119.112076,"city":"Bakersfield","state":"CA","address":"2733 Calloway Dr","name":""},
  {"lat":40.825275,"lon":-72.982107,"city":"Medford","state":"NY","address":"3197 Horseblock Road","name":""},
  {"lat":39.518494,"lon":-104.763672,"city":"Parker","state":"CO","address":"10920 S. Parker Rd","name":""},
  {"lat":37.365835,"lon":-121.850136,"city":"San Jose","state":"CA","address":"2303 McKee Rd","name":""},
  {"lat":42.188527,"lon":-88.10562,"city":"Lake Zurich","state":"IL","address":"485 South Rand Rd","name":""},
  {"lat":35.798897,"lon":-78.48976,"city":"Knightdale","state":"NC","address":"7137 US Hwy 64 East","name":""},
  {"lat":47.790578,"lon":-122.216817,"city":"Bothell","state":"WA","address":"22833 Bothell Everett Hwy","name":""},
  {"lat":41.931168,"lon":-87.987356,"city":"Addison","state":"IL","address":"33 E Lake St","name":""},
  {"lat":40.889038,"lon":-73.014976,"city":"Coram","state":"NY","address":"1852 Route 112","name":""},
  {"lat":40.116729,"lon":-88.211401,"city":"Urbana","state":"IL","address":"404 W University Ave","name":""},
  {"lat":32.343486,"lon":-111.013208,"city":"Tucson","state":"AZ","address":"7555 N La Cholla Blvd","name":""},
  {"lat":41.053363,"lon":-85.228158,"city":"Fort Wayne","state":"IN","address":"6747 Jefferson Blvd","name":""},
  {"lat":34.989134,"lon":-85.208759,"city":"East Ridge","state":"TN","address":"6504 Ringgold Rd","name":""},
  {"lat":35.205146,"lon":-89.731968,"city":"Arlington","state":"TN","address":"9915 US Highway 64","name":""},
  {"lat":34.42898,"lon":-118.535088,"city":"Santa Clarita","state":"CA","address":"26582 Bouquet Canyon Rd","name":""},
  {"lat":36.60124,"lon":-119.460778,"city":"Reedley","state":"CA","address":"585 I St","name":""},
  {"lat":32.828169,"lon":-97.099057,"city":"Euless","state":"TX","address":"711 S Industrial Blvd","name":""},
  {"lat":30.206338,"lon":-95.46357,"city":"Conroe","state":"TX","address":"3085 College Park Dr","name":""},
  {"lat":42.0569,"lon":-88.004478,"city":"Rolling Meadows","state":"IL","address":"1921 W Algonquin Rd","name":""},
  {"lat":41.747294,"lon":-87.817907,"city":"Bridgeview","state":"IL","address":"7949 W 79th St","name":""},
  {"lat":36.844503,"lon":-87.485332,"city":"Hopkinsville","state":"KY","address":"2525 Fort Campbell Blvd","name":""},
  {"lat":37.477165,"lon":-100.871565,"city":"Sublette","state":"KS","address":"1887 Highway 83","name":""},
  {"lat":34.140685,"lon":-117.977785,"city":"Duarte","state":"CA","address":"1231 E Huntington Dr","name":""},
  {"lat":36.779279,"lon":-119.808493,"city":"Fresno","state":"CA","address":"310 E Shields Ave","name":""},
  {"lat":38.97973,"lon":-77.349749,"city":"Reston","state":"VA","address":"1446 Reston Pkwy","name":""},
  {"lat":33.598567,"lon":-111.985668,"city":"Phoenix","state":"AZ","address":"4547 E Cactus Rd","name":""},
  {"lat":33.81795,"lon":-118.059636,"city":"Cypress","state":"CA","address":"4193 Ball Rd","name":""},
  {"lat":33.450202,"lon":-112.343601,"city":"Goodyear","state":"AZ","address":"13220 W Van Buren St","name":""},
  {"lat":39.09478,"lon":-76.852849,"city":"Laurel","state":"MD","address":"14903 Baltimore Ave","name":""},
  {"lat":41.078685,"lon":-74.166223,"city":"Mahwah","state":"NJ","address":"1001 Macarthur Blvd","name":""},
  {"lat":42.621435,"lon":-83.052709,"city":"Sterling Heights","state":"MI","address":"44603 Mound Rd","name":""},
  {"lat":38.004402,"lon":-84.446521,"city":"Lexington","state":"KY","address":"115 N Locust Hill Dr","name":""},
  {"lat":34.018047,"lon":-118.106016,"city":"Montebello","state":"CA","address":"521 N. Montebello Blvd","name":""},
  {"lat":42.070893,"lon":-87.925734,"city":"Mount Prospect","state":"IL","address":"820 E Rand Rd","name":""},
  {"lat":40.596397,"lon":-73.754678,"city":"Far Rockaway","state":"NY","address":"239 Beach 20th St","name":""},
  {"lat":32.521979,"lon":-84.95822,"city":"Columbus","state":"GA","address":"2445 Airport Thruway","name":""},
  {"lat":37.668364,"lon":-120.958054,"city":"Modesto","state":"CA","address":"1717 Oakdale Road","name":""},
  {"lat":38.947691,"lon":-104.795389,"city":"Colorado Springs","state":"CO","address":"1710 Briargate Blvd.","name":""},
  {"lat":38.446676,"lon":-90.371437,"city":"Arnold","state":"MO","address":"900 Jeffco Blvd","name":""},
  {"lat":39.136169,"lon":-76.749636,"city":"Hanover","state":"MD","address":"2733 Annapolis Rd","name":""},
  {"lat":29.441272,"lon":-98.666688,"city":"San Antonio","state":"TX","address":"9230 Potranco Rd","name":""},
  {"lat":29.813563,"lon":-95.721138,"city":"Katy","state":"TX","address":"3061 N Fry Rd","name":""},
  {"lat":33.549192,"lon":-101.904626,"city":"Lubbock","state":"TX","address":"4328 50th St","name":""},
  {"lat":44.498309,"lon":-87.990991,"city":"Green Bay","state":"WI","address":"1593 E Mason St","name":""},
  {"lat":29.781092,"lon":-98.732363,"city":"Boerne","state":"TX","address":"214 W Bandera Rd","name":""},
  {"lat":31.814496,"lon":-106.552037,"city":"El Paso","state":"TX","address":"929 Sunland Park Dr","name":""},
  {"lat":34.165461,"lon":-118.353577,"city":"Burbank","state":"CA","address":"4314 W Magnolia Blvd","name":""},
  {"lat":36.312513,"lon":-119.330032,"city":"Visalia","state":"CA","address":"3505 W Walnut Ave","name":""},
  {"lat":33.699269,"lon":-117.885026,"city":"Santa Ana","state":"CA","address":"3605 S Bristol St","name":""},
  {"lat":33.791494,"lon":-118.137543,"city":"Long Beach","state":"CA","address":"1960 Ximeno Ave","name":""},
  {"lat":34.074606,"lon":-118.021399,"city":"El Monte","state":"CA","address":"3818 Peck Rd","name":""},
  {"lat":47.630526,"lon":-122.154516,"city":"Bellevue","state":"WA","address":"2255 140th Ave NE","name":""},
  {"lat":41.858593,"lon":-87.764543,"city":"Cicero","state":"IL","address":"5600 W 16th St","name":""},
  {"lat":40.708109,"lon":-73.71924,"city":"Elmont","state":"NY","address":"219 Hempstead Tpke","name":""},
  {"lat":41.782653,"lon":-87.684057,"city":"Chicago","state":"IL","address":"6100 S. Western Ave","name":""},
  {"lat":30.284169,"lon":-89.754826,"city":"Slidell","state":"LA","address":"1597 Gause Blvd","name":""},
  {"lat":34.140313,"lon":-118.369192,"city":"Studio City","state":"CA","address":"10941 Ventura Blvd","name":""},
  {"lat":40.110493,"lon":-88.243929,"city":"Champaign","state":"IL","address":"515 S. Neil St","name":""},
  {"lat":45.806584,"lon":-108.473938,"city":"Billings","state":"MT","address":"405 Main St","name":""},
  {"lat":33.945744,"lon":-117.401289,"city":"Riverside","state":"CA","address":"7024 Magnolia Ave","name":""},
  {"lat":40.717547,"lon":-74.327046,"city":"Springfield","state":"NJ","address":"633 Morris Tpke","name":""},
  {"lat":25.823403,"lon":-80.187485,"city":"Miami","state":"FL","address":"5128 Biscayne Blvd","name":""},
  {"lat":42.422863,"lon":-123.335874,"city":"Grants Pass","state":"OR","address":"300 Union Ave","name":""},
  {"lat":34.058104,"lon":-118.292131,"city":"Los Angeles","state":"CA","address":"759 S Vermont Ave","name":""},
  {"lat":32.952189,"lon":-96.769442,"city":"Dallas","state":"TX","address":"14841 Coit Rd","name":""},
  {"lat":35.159689,"lon":-106.680852,"city":"Albuquerque","state":"NM","address":"3200 La Orilla Rd NW","name":""},
  {"lat":34.993907,"lon":-78.339332,"city":"Clinton","state":"NC","address":"925 Sunset Ave","name":""},
  {"lat":40.599327,"lon":-73.954826,"city":"Brooklyn","state":"NY","address":"1621 Avenue U","name":""},
  {"lat":38.829157,"lon":-77.084727,"city":"Alexandria","state":"VA","address":"1701 Centre Plz","name":""},
  {"lat":29.986665,"lon":-95.499526,"city":"Houston","state":"TX","address":"4547 Fm1960 Rd W","name":""},
  {"lat":40.167695,"lon":-122.228916,"city":"Red Bluff","state":"CA","address":"333 S Main St","name":""},
  {"lat":34.071853,"lon":-117.978028,"city":"Baldwin Park","state":"CA","address":"3203 Baldwin Park Blvd","name":""},
  {"lat":45.474941,"lon":-122.868891,"city":"Aloha","state":"OR","address":"18605 SW Farmington Rd","name":""},
  {"lat":36.836494,"lon":-119.698139,"city":"Clovis","state":"CA","address":"950 Herndon Ave Ste 107","name":""},
  {"lat":34.106555,"lon":-117.639402,"city":"Upland","state":"CA","address":"870 E Foothill Blvd","name":""},
  {"lat":40.705265,"lon":-73.656736,"city":"West Hempstead","state":"NY","address":"475 Hempstead Tpke","name":""},
  {"lat":28.336267,"lon":-81.593635,"city":"Kissimmee","state":"FL","address":"7644 W Irlo Bronson Mem Hwy","name":""},
  {"lat":34.174803,"lon":-84.127331,"city":"Cumming","state":"GA","address":"1165 Buford Hwy","name":""},
  {"lat":27.715627,"lon":-97.387334,"city":"Corpus Christi","state":"TX","address":"4701 S Padre Island Dr","name":""},
  {"lat":40.826766,"lon":-73.109116,"city":"Ronkonkoma","state":"NY","address":"125 Portion Rd","name":""},
  {"lat":35.045775,"lon":-89.692886,"city":"Collierville","state":"TN","address":"915 W Poplar Ave","name":""},
  {"lat":27.923846,"lon":-82.299275,"city":"Brandon","state":"FL","address":"950 Lumsden Rd","name":""},
  {"lat":40.785,"lon":-74.771547,"city":"Long Valley","state":"NJ","address":"62 East Mill Rd","name":""},
  {"lat":41.67244,"lon":-86.893135,"city":"Michigan City","state":"IN","address":"5234 Franklin St","name":""},
  {"lat":33.106083,"lon":-83.252922,"city":"Milledgeville","state":"GA","address":"1966 N Columbia St","name":""},
  {"lat":32.736158,"lon":-89.527606,"city":"Carthage","state":"MS","address":"502 Highway 16 E","name":""},
  {"lat":35.333641,"lon":-97.495942,"city":"Moore","state":"OK","address":"630 SW 4th St","name":""},
  {"lat":36.11397,"lon":-115.305672,"city":"Las Vegas","state":"NV","address":"9765 West Flamingo Rd","name":""},
  {"lat":34.59342,"lon":-83.763396,"city":"Cleveland","state":"GA","address":"212 S Main St","name":""},
  {"lat":37.121172,"lon":-93.467603,"city":"Republic","state":"MO","address":"756 US Highway 60 E","name":""},
  {"lat":34.956842,"lon":-120.436055,"city":"Santa Maria","state":"CA","address":"403 N Broadway","name":""},
  {"lat":37.304823,"lon":-122.032814,"city":"San Jose","state":"CA","address":"1137 S De Anza Blvd","name":""},
  {"lat":39.015379,"lon":-95.652101,"city":"Topeka","state":"KS","address":"2837 SE California Ave","name":""},
  {"lat":35.341766,"lon":-89.904641,"city":"Millington","state":"TN","address":"4758 Navy Rd","name":""},
  {"lat":40.747405,"lon":-73.756309,"city":"Oakland Gardens","state":"NY","address":"61-58 Springfield Blvd","name":""},
  {"lat":33.73475,"lon":-118.292621,"city":"San Pedro","state":"CA","address":"1013 S Gaffey St","name":""},
  {"lat":36.211783,"lon":-86.315635,"city":"Lebanon","state":"TN","address":"1023 W Main St","name":""},
  {"lat":33.130056,"lon":-117.065438,"city":"Escondido","state":"CA","address":"1247 E Valley Pkwy","name":""},
  {"lat":40.764402,"lon":-73.933022,"city":"Long Island City","state":"NY","address":"3326 21st St","name":""},
  {"lat":40.799918,"lon":-72.86585,"city":"Shirley","state":"NY","address":"545 William Floyd Pkwy","name":""},
  {"lat":34.264263,"lon":-118.526851,"city":"Granada Hills","state":"CA","address":"18100 Chatsworth St","name":""},
  {"lat":40.706464,"lon":-73.751206,"city":"Jamaica","state":"NY","address":"10962 Francis Lewis Blvd","name":""},
  {"lat":42.446403,"lon":-71.221795,"city":"Lexington","state":"MA","address":"10 Woburn St","name":""},
  {"lat":33.592024,"lon":-88.658685,"city":"West Point","state":"MS","address":"1140 Highway 45 S","name":""},
  {"lat":37.464743,"lon":-121.14325,"city":"Patterson","state":"CA","address":"1055 Sperry Ave","name":""},
  {"lat":28.069812,"lon":-82.362795,"city":"Tampa","state":"FL","address":"13510 Cypress Glenn Lane","name":""},
  {"lat":34.474659,"lon":-117.240145,"city":"Apple Valley","state":"CA","address":"12285 Apple Valley Rd","name":""},
  {"lat":40.867665,"lon":-73.920795,"city":"New York City","state":"NY","address":"4942 Broadway","name":""},
  {"lat":41.863677,"lon":-87.856278,"city":"Broadview","state":"IL","address":"1940 Roosevelt Rd","name":""},
  {"lat":33.902658,"lon":-118.251879,"city":"Compton","state":"CA","address":"1850 W. Rosecrans Ave","name":""},
  {"lat":32.729536,"lon":-117.225494,"city":"San Diego","state":"CA","address":"1770 Rosecrans St","name":""},
  {"lat":42.719476,"lon":-84.418805,"city":"Okemos","state":"MI","address":"1917 W Grand River Ave","name":""},
  {"lat":34.644551,"lon":-120.457984,"city":"Lompoc","state":"CA","address":"419 N H St","name":""},
  {"lat":33.774953,"lon":-118.376925,"city":"Rolling Hills","state":"CA","address":"21D Penninsula Ctr","name":""},
  {"lat":32.802997,"lon":-116.997303,"city":"El Cajon","state":"CA","address":"2396 Fletcher Pkwy","name":""},
  {"lat":38.137037,"lon":-121.289192,"city":"Lodi","state":"CA","address":"135 Lakewood Mall","name":""},
  {"lat":37.3204,"lon":-120.483586,"city":"Merced","state":"CA","address":"293 Merced Mall","name":""},
  {"lat":29.90023,"lon":-90.031142,"city":"Terrytown","state":"LA","address":"700 Terry Pkwy","name":""},
  {"lat":33.1342,"lon":-117.119254,"city":"San Marcos","state":"CA","address":"730 Nordahl Rd","name":""},
  {"lat":47.855504,"lon":-122.219279,"city":"Mill Creek","state":"WA","address":"15704 Mill Creek Blvd #20","name":""},
  {"lat":40.747078,"lon":-73.890997,"city":"Jackson Heights","state":"NY","address":"74-13 Roosevelt Ave","name":""},
  {"lat":36.247303,"lon":-115.209688,"city":"Las Vegas","state":"NV","address":"4906 W Lone Mountain Rd #A105","name":""},
  {"lat":40.745702,"lon":-73.906217,"city":"Woodside","state":"NY","address":"61-12 Roosevelt Ave","name":""},
  {"lat":33.893942,"lon":-118.361656,"city":"Redondo Beach","state":"CA","address":"4051 Inglewood Ave #104","name":""},
  {"lat":41.371511,"lon":-81.825198,"city":"Middleburg Heights","state":"OH","address":"17801 Bagley Rd","name":""},
  {"lat":47.098685,"lon":-122.296755,"city":"Puyallup","state":"WA","address":"17404 Meridian E","name":""},
  {"lat":35.999243,"lon":-115.104096,"city":"Henderson","state":"NV","address":"10604 S Eastern Ave","name":""},
  {"lat":38.835078,"lon":-77.050989,"city":"Alexandria","state":"VA","address":"3325 Jefferson Davis Hwy","name":""},
  {"lat":36.121254,"lon":-83.854074,"city":"Corryton","state":"TN","address":"7501 Tazewell Pike","name":""},
  {"lat":33.864251,"lon":-78.645998,"city":"Little River","state":"SC","address":"593 Highway 90 E","name":""},
  {"lat":40.748062,"lon":-73.5342,"city":"Hicksville","state":"NY","address":"420 Newbridge Rd","name":""},
  {"lat":34.966113,"lon":-89.846508,"city":"Olive Branch","state":"MS","address":"8120 Camp Creek Blvd","name":""},
  {"lat":29.678334,"lon":-95.641011,"city":"Houston","state":"TX","address":"9203 Highway 6 S","name":""},
  {"lat":27.521729,"lon":-82.557815,"city":"Palmetto","state":"FL","address":"612 10th St E","name":""},
  {"lat":35.76888,"lon":-86.91772,"city":"Spring Hill","state":"TN","address":"2098 Wall St","name":""},
  {"lat":34.955377,"lon":-80.85152,"city":"Indian Land","state":"SC","address":"8374 Charlotte Hwy","name":""},
  {"lat":40.754914,"lon":-73.9819,"city":"New York City","state":"NY","address":"25 W 43rd St","name":""},
  {"lat":36.792961,"lon":-119.871907,"city":"Fresno","state":"CA","address":"4425 W Ashlan Ave","name":""},
  {"lat":39.010536,"lon":-94.071558,"city":"Bates City","state":"MO","address":"202 E US Highway 40","name":""},
  {"lat":30.203714,"lon":-97.978667,"city":"Austin","state":"TX","address":"166 Hargraves Dr","name":""},
  {"lat":39.144447,"lon":-77.412506,"city":"Poolesville","state":"MD","address":"19706 Fisher Ave","name":""},
  {"lat":34.067487,"lon":-117.924889,"city":"West Covina","state":"CA","address":"410 S Glendora Ave","name":""},
  {"lat":38.220403,"lon":-85.625948,"city":"Louisville","state":"KY","address":"3959 Taylorsville Rd","name":""},
  {"lat":47.741116,"lon":-117.41263,"city":"Spokane","state":"WA","address":"9111 N Country Homes Blvd.","name":""},
  {"lat":40.883679,"lon":-111.881007,"city":"Bountiful","state":"UT","address":"530 S Main St","name":""},
  {"lat":36.160317,"lon":-115.079503,"city":"Las Vegas","state":"NV","address":"4420 E Charleston Blvd","name":""},
  {"lat":34.685442,"lon":-118.147766,"city":"Lancaster","state":"CA","address":"44150 10th St W","name":""},
  {"lat":33.862136,"lon":-117.739833,"city":"Anaheim","state":"CA","address":"701 S. Weir Canyon Rd","name":""},
  {"lat":33.392639,"lon":-111.683912,"city":"Mesa","state":"AZ","address":"1229 S. Power Rd S","name":""},
  {"lat":33.897453,"lon":-117.986024,"city":"La Mirada","state":"CA","address":"14750 Beach Blvd","name":""},
  {"lat":28.304878,"lon":-81.412311,"city":"Kissimmee","state":"FL","address":"807 W Vine St","name":""},
  {"lat":40.664192,"lon":-73.521986,"city":"Bellmore","state":"NY","address":"2800 Merrick Rd","name":""},
  {"lat":40.733156,"lon":-73.26397,"city":"Bay Shore","state":"NY","address":"1261 Sunrise Hwy","name":""},
  {"lat":41.425834,"lon":-81.734954,"city":"Brooklyn","state":"OH","address":"4740 Ridge Rd","name":""},
  {"lat":33.680701,"lon":-93.606242,"city":"Hope","state":"AR","address":"1615 N. Hervey","name":""},
  {"lat":34.314354,"lon":-88.706313,"city":"Tupelo","state":"MS","address":"836 Harmony Ln","name":""},
  {"lat":38.670166,"lon":-77.009175,"city":"Accokeek","state":"MD","address":"15793 Livingston Rd","name":""},
  {"lat":33.624076,"lon":-111.94163,"city":"Scottsdale","state":"AZ","address":"6501 E Greenway Pkwy","name":""},
  {"lat":34.276385,"lon":-89.5215,"city":"Oxford","state":"MS","address":"Hwy 7 South","name":""},
  {"lat":40.724054,"lon":-73.9512,"city":"Brooklyn","state":"NY","address":"643 Manhattan Ave","name":""},
  {"lat":34.673489,"lon":-77.33758,"city":"Camp Lejeune","state":"NC","address":"1238 Birch St","name":""},
  {"lat":39.324917,"lon":-77.3481,"city":"Frederick","state":"MD","address":"8925 Fingerboard Rd","name":""},
  {"lat":29.71568,"lon":-95.77669,"city":"Katy","state":"TX","address":"6920 S Fry Rd","name":""},
  {"lat":35.546381,"lon":-97.56516,"city":"Oklahoma City","state":"OK","address":"7502 N May Ave","name":""},
  {"lat":29.617453,"lon":-95.493313,"city":"Houston","state":"TX","address":"14460 Hillcroft St","name":""},
  {"lat":42.054919,"lon":-87.738956,"city":"Skokie","state":"IL","address":"4445 Golf Rd","name":""},
  {"lat":30.363881,"lon":-81.502261,"city":"Jacksonville","state":"FL","address":"3031 Monument Rd","name":""},
  {"lat":33.202706,"lon":-96.733803,"city":"McKinney","state":"TX","address":"116 S Custer Rd","name":""},
  {"lat":44.9094,"lon":-93.080064,"city":"West St. Paul","state":"MN","address":"1224 Robert St S","name":""},
  {"lat":41.764498,"lon":-89.690335,"city":"Rock Falls","state":"IL","address":"1800 1st Ave","name":""},
  {"lat":61.14325,"lon":-149.86674,"city":"Anchorage","state":"AK","address":"800 E Dimond Blvd","name":""},
  {"lat":42.171094,"lon":-77.10832,"city":"Painted Post","state":"NY","address":"125 Victory Highway","name":""},
  {"lat":34.350682,"lon":-119.069717,"city":"Santa Paula","state":"CA","address":"318 E Main St","name":""},
  {"lat":33.645632,"lon":-117.918081,"city":"Costa Mesa","state":"CA","address":"1927 Harbor Blvd","name":""},
  {"lat":33.889045,"lon":-118.116512,"city":"Bellflower","state":"CA","address":"10212 Alondra Blvd","name":""},
  {"lat":32.431993,"lon":-81.779798,"city":"Statesboro","state":"GA","address":"606 Fair Rd","name":""},
  {"lat":32.859682,"lon":-97.237498,"city":"Fort Worth","state":"TX","address":"6248 Rufe Snow Dr #402","name":""},
  {"lat":42.474656,"lon":-83.201009,"city":"Oak Park","state":"MI","address":"25170 Greenfield Rd","name":""},
  {"lat":40.752234,"lon":-73.700841,"city":"New Hyde Park","state":"NY","address":"2062 Lakeville Rd","name":""},
  {"lat":29.714877,"lon":-95.416225,"city":"Houston","state":"TX","address":"2431 University Blvd","name":""},
  {"lat":35.234554,"lon":-91.698801,"city":"Searcy","state":"AR","address":"1250 Truman Baker Dr","name":""},
  {"lat":29.688751,"lon":-95.534239,"city":"Houston","state":"TX","address":"8076 S Gessner Dr","name":""},
  {"lat":35.721052,"lon":-78.84448,"city":"Apex","state":"NC","address":"800 Perry Road","name":""},
  {"lat":42.019044,"lon":-87.673185,"city":"Chicago","state":"IL","address":"7553 N Paulina St","name":""},
  {"lat":27.532546,"lon":-82.499788,"city":"Ellenton","state":"FL","address":"6420 US 301 N","name":""},
  {"lat":28.558689,"lon":-81.822234,"city":"Groveland","state":"FL","address":"7901 Sr 50","name":""},
  {"lat":35.184476,"lon":-101.883496,"city":"Amarillo","state":"TX","address":"2823 Western Ave","name":""},
  {"lat":40.851343,"lon":-73.843816,"city":"The Bronx","state":"NY","address":"1888 Eastchester Rd","name":""},
  {"lat":38.456692,"lon":-122.726914,"city":"Santa Rosa","state":"CA","address":"365 Coddingtown Ctr","name":""},
  {"lat":33.787349,"lon":-89.849878,"city":"Grenada","state":"MS","address":"2030 Sunset Dr","name":""},
  {"lat":36.836375,"lon":-119.881275,"city":"Fresno","state":"CA","address":"6761 N Milburn Ave","name":""},
  {"lat":33.900296,"lon":-117.563026,"city":"Norco","state":"CA","address":"1260 Hamner Ave","name":""},
  {"lat":33.885392,"lon":-118.396395,"city":"Manhattan Beach","state":"CA","address":"925 N Sepulveda Blvd","name":""},
  {"lat":35.129408,"lon":-106.515927,"city":"Albuquerque","state":"NM","address":"11052 Montgomery Blvd NE","name":""},
  {"lat":38.637392,"lon":-90.391159,"city":"Ladue","state":"MO","address":"9842 Clayton Rd","name":""},
  {"lat":45.533738,"lon":-122.549462,"city":"Portland","state":"OR","address":"11011 NE Halsey St","name":""},
  {"lat":36.295706,"lon":-86.701999,"city":"Madison","state":"TN","address":"1777 Gallatin Pike N","name":""},
  {"lat":47.458731,"lon":-122.257795,"city":"Tukwila","state":"WA","address":"993 Southcenter Mall","name":""},
  {"lat":39.04898,"lon":-76.938058,"city":"Beltsville","state":"MD","address":"11601 Beltsville Dr","name":""},
  {"lat":33.565761,"lon":-112.099159,"city":"Phoenix","state":"AZ","address":"8841 N 19th Ave","name":""},
  {"lat":40.728056,"lon":-73.229869,"city":"Bay Shore","state":"NY","address":"529 E. Main St","name":""},
  {"lat":41.936167,"lon":-87.766176,"city":"Chicago","state":"IL","address":"3039 N. Central Ave","name":""},
  {"lat":41.938959,"lon":-87.722295,"city":"Chicago","state":"IL","address":"3801 W. Belmont Ave","name":""},
  {"lat":38.656631,"lon":-77.250453,"city":"Woodbridge","state":"VA","address":"13607 Richmond Hwy","name":""},
  {"lat":39.050219,"lon":-84.577233,"city":"Crescent Springs","state":"KY","address":"2410 High St","name":""},
  {"lat":33.512036,"lon":-82.046234,"city":"Augusta","state":"GA","address":"3024 Washington Rd","name":""},
  {"lat":41.661083,"lon":-87.754374,"city":"Crestwood","state":"IL","address":"5443 W 127th St","name":""},
  {"lat":37.014353,"lon":-121.585685,"city":"Gilroy","state":"CA","address":"785 1st St","name":""},
  {"lat":30.242271,"lon":-81.597832,"city":"Jacksonville","state":"FL","address":"7171 Phillips Highway","name":""},
  {"lat":41.916658,"lon":-87.752622,"city":"Chicago","state":"IL","address":"5050 W Grand Ave","name":""},
  {"lat":33.304837,"lon":-111.788964,"city":"Gilbert","state":"AZ","address":"2487 S Gilbert Rd","name":""},
  {"lat":28.762905,"lon":-82.550029,"city":"Homosassa","state":"FL","address":"6885 S Suncoast Blvd","name":""},
  {"lat":29.80657,"lon":-95.168078,"city":"Houston","state":"TX","address":"15242 Wallisville Rd","name":""},
  {"lat":39.288614,"lon":-77.20187,"city":"Damascus","state":"MD","address":"9803 Main St","name":""},
  {"lat":29.751121,"lon":-95.852367,"city":"Katy","state":"TX","address":"2750 FM 1463 Rd","name":""},
  {"lat":41.899964,"lon":-88.336774,"city":"St. Charles","state":"IL","address":"2057 Lincoln Highway","name":""},
  {"lat":33.408142,"lon":-84.674364,"city":"Sharpsburg","state":"GA","address":"12 Bailey Station Dr","name":""},
  {"lat":39.801026,"lon":-89.686476,"city":"Springfield","state":"IL","address":"106 Chatham Rd","name":""},
  {"lat":40.608408,"lon":-74.163751,"city":"Staten Island","state":"NY","address":"1650 Richmond Ave","name":""},
  {"lat":31.69887,"lon":-106.226831,"city":"Horizon City","state":"TX","address":"13034 Eastlake Dr","name":""},
  {"lat":31.480229,"lon":-97.207328,"city":"Waco","state":"TX","address":"1701 Hewitt Dr","name":""},
  {"lat":34.150678,"lon":-118.074499,"city":"Pasadena","state":"CA","address":"3657 E Foothill Blvd","name":""},
  {"lat":37.251292,"lon":-121.877471,"city":"San Jose","state":"CA","address":"5353 Almaden Expy","name":""},
  {"lat":39.531427,"lon":-119.866279,"city":"Reno","state":"NV","address":"5150 Mae Anne Ave","name":""},
  {"lat":33.637074,"lon":-112.224013,"city":"Peoria","state":"AZ","address":"7665 W Bell Rd","name":""},
  {"lat":36.128739,"lon":-115.225406,"city":"Las Vegas","state":"NV","address":"3301 S Jones Blvd","name":""},
  {"lat":34.16937,"lon":-118.605489,"city":"Woodland Hills","state":"CA","address":"5424 Topanga Canyon Blvd","name":""},
  {"lat":37.811802,"lon":-85.466398,"city":"Bardstown","state":"KY","address":"228 N 3rd St","name":""},
  {"lat":42.225395,"lon":-83.268469,"city":"Taylor","state":"MI","address":"11111 Telegraph Rd","name":""},
  {"lat":42.141073,"lon":-83.227175,"city":"Woodhaven","state":"MI","address":"20050 West Road","name":""},
  {"lat":42.457797,"lon":-83.133251,"city":"Ferndale","state":"MI","address":"22451 Woodward Ave","name":""},
  {"lat":41.822617,"lon":-87.690764,"city":"Chicago","state":"IL","address":"3910 S Archer Ave","name":""},
  {"lat":40.683692,"lon":-73.41705,"city":"Amityville","state":"NY","address":"355 Broadway","name":""},
  {"lat":29.564798,"lon":-95.686209,"city":"Sugar Land","state":"TX","address":"19970 Southwest Freeway","name":""},
  {"lat":28.032323,"lon":-82.424378,"city":"Tampa","state":"FL","address":"3203 E. Busch Blvd","name":""},
  {"lat":32.888618,"lon":-96.47253,"city":"Rockwall","state":"TX","address":"2951 Ridge Rd","name":""},
  {"lat":41.911722,"lon":-87.686898,"city":"Chicago","state":"IL","address":"1651 N Western Ave","name":""},
  {"lat":41.325935,"lon":-73.688375,"city":"Somers","state":"NY","address":"325 Route 100","name":""},
  {"lat":38.91599,"lon":-92.333627,"city":"Columbia","state":"MO","address":"3100 S Providence Rd","name":""},
  {"lat":28.323889,"lon":-81.335571,"city":"Kissimmee","state":"FL","address":"2705 Simpson Rd","name":""},
  {"lat":32.431574,"lon":-94.86365,"city":"Kilgore","state":"TX","address":"4405 Highway 42 N","name":""},
  {"lat":38.900232,"lon":-76.794614,"city":"Mitchellville","state":"MD","address":"12172 Central Ave","name":""},
  {"lat":34.050764,"lon":-117.434394,"city":"Fontana","state":"CA","address":"11175 Sierra Ave","name":""},
  {"lat":36.361202,"lon":-92.335927,"city":"Mountain Home","state":"AR","address":"3052 Highway 62","name":""},
  {"lat":32.431984,"lon":-99.75744,"city":"Abilene","state":"TX","address":"2901 S 14th St","name":""},
  {"lat":40.45913,"lon":-90.683272,"city":"Macomb","state":"IL","address":"820 W Jackson St","name":""},
  {"lat":31.112161,"lon":-97.799336,"city":"Killeen","state":"TX","address":"2250 Clear Creek Rd","name":""},
  {"lat":28.431182,"lon":-81.306668,"city":"Orlando","state":"FL","address":"9303 Jeff Fuqua Blvd","name":""},
  {"lat":34.160546,"lon":-118.511318,"city":"Encino","state":"CA","address":"17330 Ventura Blvd","name":""},
  {"lat":32.219897,"lon":-110.807213,"city":"Tucson","state":"AZ","address":"8670 E Broadway Blvd","name":""},
  {"lat":37.128022,"lon":-76.538862,"city":"Newport News","state":"VA","address":"14371 Warwick Blvd","name":""},
  {"lat":29.496238,"lon":-98.619039,"city":"San Antonio","state":"TX","address":"6727 Bandera Rd","name":""},
  {"lat":33.787997,"lon":-117.808702,"city":"Orange","state":"CA","address":"18551 E Chapman Ave","name":""},
  {"lat":41.107844,"lon":-112.019573,"city":"Clearfield","state":"UT","address":"435 State St","name":""},
  {"lat":34.031857,"lon":-81.087724,"city":"Columbia","state":"SC","address":"1525 Broad River Rd","name":""},
  {"lat":33.166819,"lon":-96.663218,"city":"McKinney","state":"TX","address":"3001 S Hardin Blvd","name":""},
  {"lat":40.818064,"lon":-97.600948,"city":"York","state":"NE","address":"4700 S. Lincoln Ave","name":""},
  {"lat":38.851183,"lon":-77.125902,"city":"Falls Church","state":"VA","address":"5701 Columbia Pike","name":""},
  {"lat":40.081421,"lon":-74.156783,"city":"Lakewood","state":"NJ","address":"1500 Ocean Avenue","name":""},
  {"lat":42.212398,"lon":-121.756408,"city":"Klamath Falls","state":"OR","address":"1781 Washburn Way","name":""},
  {"lat":35.593561,"lon":-78.768368,"city":"Fuquay-Varina","state":"NC","address":"1450 N Main Street","name":""},
  {"lat":40.624604,"lon":-73.999679,"city":"Brooklyn","state":"NY","address":"6502 14th Ave","name":""},
  {"lat":28.085123,"lon":-82.538535,"city":"Tampa","state":"FL","address":"5227 Ehrlich Rd","name":""},
  {"lat":35.038676,"lon":-90.024752,"city":"Memphis","state":"TN","address":"4012 Elvis Presley Blvd","name":""},
  {"lat":39.5953,"lon":-104.798269,"city":"Aurora","state":"CO","address":"16401 E Arapahoe Rd","name":""},
  {"lat":44.295257,"lon":-88.376019,"city":"Appleton","state":"WI","address":"3421 N Ballard Rd","name":""},
  {"lat":33.401288,"lon":-104.523167,"city":"Roswell","state":"NM","address":"800 N Main St","name":""},
  {"lat":35.31747,"lon":-106.542838,"city":"Bernalillo","state":"NM","address":"195 E Highway 550","name":""},
  {"lat":39.506287,"lon":-119.798504,"city":"Reno","state":"NV","address":"395 E Plumb Lane","name":""},
  {"lat":38.661871,"lon":-78.492481,"city":"Luray","state":"VA","address":"1046 US Highway 211 W","name":""},
  {"lat":38.015315,"lon":-87.574461,"city":"Evansville","state":"IN","address":"3960 N 1st Ave","name":""},
  {"lat":29.769931,"lon":-95.60288,"city":"Houston","state":"TX","address":"14501 Memorial Dr","name":""},
  {"lat":35.0871,"lon":-89.859293,"city":"Memphis","state":"TN","address":"6114 Quince Rd","name":""},
  {"lat":35.089363,"lon":-85.18803,"city":"Chattanooga","state":"TN","address":"4795 Hwy 58","name":""},
  {"lat":41.244689,"lon":-111.968225,"city":"Ogden","state":"UT","address":"1166 Washington Blvd","name":""},
  {"lat":37.149955,"lon":-121.656447,"city":"Morgan Hill","state":"CA","address":"230 Cochrane Plz","name":""},
  {"lat":34.15374,"lon":-118.757538,"city":"Agoura","state":"CA","address":"5697 Kanan Rd","name":""},
  {"lat":34.103567,"lon":-117.872864,"city":"Covina","state":"CA","address":"1311 N Grand Ave","name":""},
  {"lat":38.91225,"lon":-94.76756,"city":"Olathe","state":"KS","address":"11912 S. Strang Line Rd","name":""},
  {"lat":40.785814,"lon":-73.83622,"city":"College Point","state":"NY","address":"13210 14th Ave","name":""},
  {"lat":42.442201,"lon":-83.323022,"city":"Farmington Hills","state":"MI","address":"27919 Grand River Ave","name":""},
  {"lat":41.851565,"lon":-87.743964,"city":"Cicero","state":"IL","address":"2147 S Cicero Ave","name":""},
  {"lat":40.770299,"lon":-73.904622,"city":"Astoria","state":"NY","address":"4322 Ditmars Blvd","name":""},
  {"lat":40.806216,"lon":-72.845743,"city":"Mastic","state":"NY","address":"1495 Montauk Hwy","name":""},
  {"lat":40.048236,"lon":-82.864821,"city":"Gahanna","state":"OH","address":"1111 N Hamilton Rd","name":""},
  {"lat":37.769189,"lon":-122.23275,"city":"Alameda","state":"CA","address":"2601 Blanding Ave","name":""},
  {"lat":44.951057,"lon":-123.050687,"city":"Salem","state":"OR","address":"1124 Wallace Road NW","name":""},
  {"lat":41.521108,"lon":-81.527749,"city":"South Euclid","state":"OH","address":"4233 Mayfield Rd","name":""},
  {"lat":35.799988,"lon":-83.944672,"city":"Maryville","state":"TN","address":"2825 Old Knoxville Hwy","name":""},
  {"lat":36.219169,"lon":-86.573658,"city":"Old Hickory","state":"TN","address":"14835 Lebanon Rd","name":""},
  {"lat":41.729774,"lon":-87.552025,"city":"Chicago","state":"IL","address":"9100 S Commercial Ave","name":""},
  {"lat":32.843015,"lon":-96.991732,"city":"Irving","state":"TX","address":"2666 N Belt Line Rd","name":""},
  {"lat":40.903914,"lon":-74.127442,"city":"Elmwood Park","state":"NJ","address":"527 River Dr","name":""},
  {"lat":41.809896,"lon":-87.592029,"city":"Chicago","state":"IL","address":"1400 E 47th St","name":""},
  {"lat":33.940787,"lon":-118.180861,"city":"South Gate","state":"CA","address":"9930 Atlantic Ave","name":""},
  {"lat":37.989126,"lon":-100.854653,"city":"Garden City","state":"KS","address":"2505 Fleming St","name":""},
  {"lat":35.672328,"lon":-80.854263,"city":"Troutman","state":"NC","address":"1007 Charlotte Highway","name":""},
  {"lat":34.104355,"lon":-118.309132,"city":"Los Angeles","state":"CA","address":"1832 N. Western Ave","name":""},
  {"lat":30.003277,"lon":-90.129738,"city":"Metairie","state":"LA","address":"739 Veterans Memorial Blvd","name":""},
  {"lat":38.129428,"lon":-121.259999,"city":"Lodi","state":"CA","address":"480 S Cherokee Ln","name":""},
  {"lat":34.197293,"lon":-119.195262,"city":"Oxnard","state":"CA","address":"501 S Ventura Rd","name":""},
  {"lat":34.186847,"lon":-118.423219,"city":"Van Nuys","state":"CA","address":"13315 Victory Blvd","name":""},
  {"lat":34.160013,"lon":-118.236814,"city":"Glendale","state":"CA","address":"1010 N Glendale Ave","name":""},
  {"lat":42.25241,"lon":-87.99924,"city":"Mundelein","state":"IL","address":"722 S. Rt. 83","name":""},
  {"lat":33.995858,"lon":-117.905996,"city":"City of Industry","state":"CA","address":"18252 E. Gale Ave","name":""},
  {"lat":33.415773,"lon":-111.735685,"city":"Mesa","state":"AZ","address":"4406 E Main St","name":""},
  {"lat":40.862316,"lon":-73.893789,"city":"The Bronx","state":"NY","address":"321 E Kingsbridge Rd","name":""},
  {"lat":41.625725,"lon":-87.853139,"city":"Orland Park","state":"IL","address":"14461 S La Grange Rd","name":""},
  {"lat":41.976033,"lon":-87.692791,"city":"Chicago","state":"IL","address":"5200 N Lincoln Ave","name":""},
  {"lat":40.70036,"lon":-73.90568,"city":"Flushing","state":"NY","address":"5615 Myrtle Ave","name":""},
  {"lat":28.528781,"lon":-81.309974,"city":"Orlando","state":"FL","address":"1131 S Semoran Blvd","name":""},
  {"lat":20.891216,"lon":-156.464979,"city":"Kahului","state":"HI","address":"70 E Kaahumanu Ave","name":""},
  {"lat":34.609478,"lon":-92.493477,"city":"Bryant","state":"AR","address":"1611 N. Reynolds","name":""},
  {"lat":41.465072,"lon":-81.56057,"city":"Cleveland","state":"OH","address":"16969 Chagrin Blvd","name":""},
  {"lat":41.551091,"lon":-87.161325,"city":"Portage","state":"IN","address":"6550 U.S. Highway 6","name":""},
  {"lat":34.021406,"lon":-118.16093,"city":"East Los Angeles","state":"CA","address":"5039 Whittier Blvd","name":""},
  {"lat":27.389813,"lon":-82.519054,"city":"Sarasota","state":"FL","address":"2525 University Pkwy","name":""},
  {"lat":41.565529,"lon":-87.849466,"city":"Tinley Park","state":"IL","address":"9500 179th St","name":""},
  {"lat":40.692986,"lon":-73.808915,"city":"Jamaica","state":"NY","address":"14401 Liberty Ave","name":""},
  {"lat":40.582538,"lon":-73.836645,"city":"Far Rockaway","state":"NY","address":"11320 Beach Channel Dr","name":""},
  {"lat":27.447971,"lon":-82.52599,"city":"Bradenton","state":"FL","address":"5259 30th St E","name":""},
  {"lat":38.319256,"lon":-122.310841,"city":"Napa","state":"CA","address":"3373 Solano Ave","name":""},
  {"lat":30.386578,"lon":-86.471948,"city":"Destin","state":"FL","address":"1012 Highway 98 E","name":""},
  {"lat":30.533457,"lon":-87.262057,"city":"Pensacola","state":"FL","address":"304 E 9 Mile Rd","name":""},
  {"lat":38.340678,"lon":-77.07242,"city":"King George","state":"VA","address":"5231 James Madison Parkway","name":""},
  {"lat":34.308838,"lon":-118.434364,"city":"Sylmar","state":"CA","address":"13790 Foothill Blvd","name":""},
  {"lat":36.140132,"lon":-85.508982,"city":"Cookeville","state":"TN","address":"1265 Interstate Dr","name":""},
  {"lat":37.434212,"lon":-122.129831,"city":"Palo Alto","state":"CA","address":"2615 Middlefield Rd","name":""},
  {"lat":38.235816,"lon":-122.638552,"city":"Petaluma","state":"CA","address":"60 E Washington St","name":""},
  {"lat":30.021796,"lon":-90.238628,"city":"Kenner","state":"LA","address":"3600 Williams Blvd","name":""},
  {"lat":34.068749,"lon":-118.301792,"city":"Los Angeles","state":"CA","address":"4048 W 3rd St","name":""},
  {"lat":42.253492,"lon":-89.026838,"city":"Rockford","state":"IL","address":"4180 Newburg Rd","name":""},
  {"lat":37.311936,"lon":-121.809823,"city":"San Jose","state":"CA","address":"2968 Aborn Square Rd","name":""},
  {"lat":34.061163,"lon":-118.174687,"city":"Los Angeles","state":"CA","address":"1693 N Eastern Ave","name":""},
  {"lat":40.65395,"lon":-73.557753,"city":"Merrick","state":"NY","address":"1731 Merrick Rd","name":""},
  {"lat":27.89012,"lon":-82.728469,"city":"Largo","state":"FL","address":"13013 66th St","name":""},
  {"lat":34.724257,"lon":-76.743513,"city":"Morehead City","state":"NC","address":"2908 Arendell St","name":""},
  {"lat":42.047514,"lon":-87.885083,"city":"Des Plaines","state":"IL","address":"1552 Rand Rd","name":""},
  {"lat":36.917219,"lon":-121.785155,"city":"Watsonville","state":"CA","address":"1097 S. Green Valley Rd","name":""},
  {"lat":33.933494,"lon":-118.211847,"city":"Lynwood","state":"CA","address":"10930 Long Beach Blvd","name":""},
  {"lat":29.977258,"lon":-90.097303,"city":"New Orleans","state":"LA","address":"406 N Carrollton Ave","name":""},
  {"lat":40.862156,"lon":-73.061018,"city":"Centereach","state":"NY","address":"1327 Middle Country Rd","name":""},
  {"lat":32.300143,"lon":-95.302078,"city":"Tyler","state":"TX","address":"1400 W Southwest Loop 323","name":""},
  {"lat":41.144261,"lon":-104.86236,"city":"FE Warren AFB","state":"WY","address":"6305 Missile Dr","name":""},
  {"lat":33.805017,"lon":-117.22733,"city":"Perris","state":"CA","address":"1820 N Perris Blvd","name":""},
  {"lat":33.789392,"lon":-84.389571,"city":"Atlanta","state":"GA","address":"1270 Spring St NW","name":""},
  {"lat":29.395576,"lon":-94.935845,"city":"Texas City","state":"TX","address":"2802 Palmer Hwy","name":""},
  {"lat":33.847408,"lon":-118.011615,"city":"Buena Park","state":"CA","address":"6989 La Palma Ave","name":""},
  {"lat":33.716519,"lon":-118.0246,"city":"Huntington Beach","state":"CA","address":"5971 Warner Ave","name":""},
  {"lat":40.72615,"lon":-111.848895,"city":"Salt Lake City","state":"UT","address":"1465 E 2100 S","name":""},
  {"lat":37.646284,"lon":-121.03122,"city":"Modesto","state":"CA","address":"901 N Carpenter Rd","name":""},
  {"lat":36.100456,"lon":-115.117255,"city":"Las Vegas","state":"NV","address":"4860 S Eastern Ave","name":""},
  {"lat":33.997678,"lon":-118.055081,"city":"Whittier","state":"CA","address":"10820 Beverly Blvd","name":""},
  {"lat":40.739526,"lon":-73.815309,"city":"Flushing","state":"NY","address":"15367 Horace Harding Expy","name":""},
  {"lat":28.260965,"lon":-81.616838,"city":"Davenport","state":"FL","address":"8224 Champions Gate Blvd","name":""},
  {"lat":40.725246,"lon":-73.635182,"city":"Garden City","state":"NY","address":"165 7th St","name":""},
  {"lat":38.55746,"lon":-121.437791,"city":"Sacramento","state":"CA","address":"5648 Folsom Blvd","name":""},
  {"lat":33.885799,"lon":-118.159673,"city":"Paramount","state":"CA","address":"16280 Paramount Blvd","name":""},
  {"lat":39.544079,"lon":-119.734181,"city":"Sparks","state":"NV","address":"1145 N McCarran Blvd","name":""},
  {"lat":41.736761,"lon":-87.612567,"city":"Chicago","state":"IL","address":"448 E 87th St","name":""},
  {"lat":40.590638,"lon":-73.797298,"city":"Arverne","state":"NY","address":"6820 Rockaway Beach Blvd","name":""},
  {"lat":33.038019,"lon":-116.875116,"city":"Ramona","state":"CA","address":"1410 Main St","name":""},
  {"lat":40.861902,"lon":-74.089617,"city":"Wood Ridge","state":"NJ","address":"699 Avalon Dr","name":""},
  {"lat":38.750265,"lon":-90.424688,"city":"Bridgeton","state":"MO","address":"12121 Saint Charles Rock Rd","name":""},
  {"lat":30.078483,"lon":-94.169155,"city":"Beaumont","state":"TX","address":"6392 Phelan Blvd","name":""},
  {"lat":30.082472,"lon":-95.447843,"city":"Spring","state":"TX","address":"2203 Spring Stuebner Rd","name":""},
  {"lat":44.7146,"lon":-93.280524,"city":"Lakeville","state":"MN","address":"16179 Kenrick Ave","name":""},
  {"lat":38.870414,"lon":-77.17496,"city":"Falls Church","state":"VA","address":"6664 Arlington Blvd","name":""},
  {"lat":29.996591,"lon":-91.803015,"city":"New Iberia","state":"LA","address":"1104 E Main St","name":""},
  {"lat":45.303956,"lon":-122.772052,"city":"Wilsonville","state":"OR","address":"29911 SW Boones Ferry Rd","name":""},
  {"lat":34.660765,"lon":-118.20178,"city":"Lancaster","state":"CA","address":"4019 W Avenue L","name":""},
  {"lat":33.888824,"lon":-117.815018,"city":"Yorba Linda","state":"CA","address":"18322 Imperial Hwy","name":""},
  {"lat":34.10979,"lon":-118.191646,"city":"Highland Park","state":"CA","address":"5802 N. Figueroa St","name":""},
  {"lat":39.639085,"lon":-84.225644,"city":"Dayton","state":"OH","address":"27 N Springboro Pike","name":""},
  {"lat":40.722956,"lon":-73.799459,"city":"Flushing","state":"NY","address":"16822 Union Tpke","name":""},
  {"lat":41.879393,"lon":-87.626435,"city":"Chicago","state":"IL","address":"31 E Adams St","name":""},
  {"lat":40.862426,"lon":-73.987105,"city":"Leonia","state":"NJ","address":"353 Broad Ave","name":""},
  {"lat":41.931781,"lon":-87.713455,"city":"Chicago","state":"IL","address":"3427 W Diversey Ave","name":""},
  {"lat":29.555327,"lon":-95.383209,"city":"Pearland","state":"TX","address":"10504 Broadway St","name":""},
  {"lat":34.569243,"lon":-92.586271,"city":"Benton","state":"AR","address":"620 Military Rd","name":""},
  {"lat":38.257735,"lon":-122.067452,"city":"Fairfield","state":"CA","address":"3069 Travis Blvd","name":""},
  {"lat":40.220063,"lon":-85.402982,"city":"Muncie","state":"IN","address":"3308 N Wheeling Ave","name":""},
  {"lat":34.893853,"lon":-82.215963,"city":"Greer","state":"SC","address":"2000 Gsp Dr","name":""},
  {"lat":35.242207,"lon":-106.689581,"city":"Rio Rancho","state":"NM","address":"2345 Southern Blvd SE","name":""},
  {"lat":29.627287,"lon":-82.388252,"city":"Gainesville","state":"FL","address":"2900 SW 42nd St","name":""},
  {"lat":27.848109,"lon":-82.352221,"city":"Gibsonton","state":"FL","address":"10608 East Bay Rd","name":""},
  {"lat":32.755778,"lon":-117.133415,"city":"San Diego","state":"CA","address":"2810 El Cajon Blvd","name":""},
  {"lat":40.747607,"lon":-73.981348,"city":"New York City","state":"NY","address":"10 Park Ave","name":""},
  {"lat":33.843297,"lon":-117.57366,"city":"Corona","state":"CA","address":"160 W Foothill Parkway","name":""},
  {"lat":34.1286,"lon":-117.850912,"city":"Glendora","state":"CA","address":"856 E Route 66","name":""},
  {"lat":38.54425,"lon":-121.741113,"city":"Davis","state":"CA","address":"236 E St","name":""},
  {"lat":34.214503,"lon":-77.900007,"city":"Wilmington","state":"NC","address":"3809 Oleander Dr","name":""},
  {"lat":36.821536,"lon":-119.772758,"city":"Fresno","state":"CA","address":"5711 N 1st St","name":""},
  {"lat":41.060977,"lon":-111.946182,"city":"Layton","state":"UT","address":"1088 E Gentile St","name":""},
  {"lat":41.900976,"lon":-88.082691,"city":"Glendale Heights","state":"IL","address":"171 E North Ave","name":""},
  {"lat":32.798415,"lon":-79.891964,"city":"Mount Pleasant","state":"SC","address":"280 W Coleman Blvd","name":""},
  {"lat":46.85351,"lon":-114.010523,"city":"Missoula","state":"MT","address":"1880 Brooks St","name":""},
  {"lat":31.782959,"lon":-106.420677,"city":"El Paso","state":"TX","address":"5640 Montana Ave #A","name":""},
  {"lat":42.31909,"lon":-87.867425,"city":"North Chicago","state":"IL","address":"2829 22nd St","name":""},
  {"lat":41.950155,"lon":-88.030129,"city":"Addison","state":"IL","address":"1750 West Lake St","name":""},
  {"lat":33.873344,"lon":-118.306803,"city":"Gardena","state":"CA","address":"1699 Artesia Blvd","name":""},
  {"lat":40.742115,"lon":-73.130531,"city":"Oakdale","state":"NY","address":"1243 Montauk Hwy","name":""},
  {"lat":41.989937,"lon":-87.714327,"city":"Chicago","state":"IL","address":"3401 W. Peterson Ave","name":""},
  {"lat":35.818127,"lon":-78.846932,"city":"Morrisville","state":"NC","address":"3570 Davis Dr","name":""},
  {"lat":32.943595,"lon":-89.979272,"city":"Pickens","state":"MS","address":"4850 Hwy 17","name":""},
  {"lat":40.701829,"lon":-73.592602,"city":"Uniondale","state":"NY","address":"545 Uniondale Ave","name":""},
  {"lat":42.369949,"lon":-87.85189,"city":"Waukegan","state":"IL","address":"1609 Grand Ave","name":""},
  {"lat":29.638869,"lon":-98.458348,"city":"San Antonio","state":"TX","address":"20821 US Highway 281 N","name":""},
  {"lat":29.830055,"lon":-95.380115,"city":"Houston","state":"TX","address":"4414 North Freeway","name":""},
  {"lat":29.491656,"lon":-98.707405,"city":"San Antonio","state":"TX","address":"5539 W Loop 1604 N","name":""},
  {"lat":32.917868,"lon":-80.114919,"city":"North Charleston","state":"SC","address":"8507 Dorchester Rd","name":""},
  {"lat":39.04548,"lon":-94.357923,"city":"Independence","state":"MO","address":"2110 Independence Center","name":""},
  {"lat":30.01434,"lon":-97.858576,"city":"Kyle","state":"TX","address":"20371 Interstate Highway 35","name":""},
  {"lat":40.624643,"lon":-89.465078,"city":"Morton","state":"IL","address":"120 W Ashland St","name":""},
  {"lat":29.456559,"lon":-98.636356,"city":"San Antonio","state":"TX","address":"7272 Culebra Rd","name":""},
  {"lat":34.585701,"lon":-112.340779,"city":"Prescott Valley","state":"AZ","address":"3015 N Glassford Hill Rd","name":""},
  {"lat":30.440254,"lon":-87.282859,"city":"Pensacola","state":"FL","address":"4835 Mobile Highway","name":""},
  {"lat":35.493474,"lon":-97.51863,"city":"Oklahoma City","state":"OK","address":"323 NW 23rd St","name":""},
  {"lat":32.678214,"lon":-97.196566,"city":"Arlington","state":"TX","address":"5801 Office Park Dr","name":""},
  {"lat":40.66441,"lon":-89.581619,"city":"East Peoria","state":"IL","address":"303 S Main St","name":""},
  {"lat":29.715018,"lon":-98.160359,"city":"New Braunfels","state":"TX","address":"1667 W State Highway 46","name":""},
  {"lat":33.911003,"lon":-117.461081,"city":"Riverside","state":"CA","address":"3760 Tyler St","name":""},
  {"lat":38.908906,"lon":-77.407656,"city":"Herndon","state":"VA","address":"13344 Franklin Farms Rd","name":""},
  {"lat":34.808433,"lon":-106.699713,"city":"Los Lunas","state":"NM","address":"3457 Highway 47","name":""},
  {"lat":42.069674,"lon":-80.098511,"city":"Erie","state":"PA","address":"654 Millcreek Mall","name":""},
  {"lat":21.319197,"lon":-158.015338,"city":"Ewa Beach","state":"HI","address":"91-1001 Kaimalie St","name":""},
  {"lat":40.83391,"lon":-73.851798,"city":"The Bronx","state":"NY","address":"2172 Westchester Ave","name":""},
  {"lat":41.767121,"lon":-87.722165,"city":"Chicago","state":"IL","address":"6925 S. Pulaski Rd","name":""},
  {"lat":42.086474,"lon":-87.870563,"city":"Glenview","state":"IL","address":"1750 Milwaukee Ave","name":""},
  {"lat":40.817766,"lon":-73.411734,"city":"Huntington Station","state":"NY","address":"281 Walt Whitman Rd","name":""},
  {"lat":36.257259,"lon":-90.973142,"city":"Pocahontas","state":"AR","address":"647 Highway 67 S","name":""},
  {"lat":41.550157,"lon":-87.239201,"city":"Hobart","state":"IN","address":"1621 East 37th Ave","name":""},
  {"lat":26.209146,"lon":-80.221914,"city":"North Lauderdale","state":"FL","address":"7135 W McNab Rd","name":""},
  {"lat":37.26429,"lon":-121.983112,"city":"Los Gatos","state":"CA","address":"1444 Pollard Rd","name":""},
  {"lat":40.880791,"lon":-73.396892,"city":"Huntington","state":"NY","address":"200 E Main St","name":""},
  {"lat":40.8876,"lon":-74.018152,"city":"Teaneck","state":"NJ","address":"332 Cedar Ln","name":""},
  {"lat":36.009215,"lon":-78.94442,"city":"Durham","state":"NC","address":"2608 Erwin Rd","name":""},
  {"lat":33.927196,"lon":-83.337148,"city":"Athens","state":"GA","address":"1045 Gaines School Rd","name":""},
  {"lat":39.161715,"lon":-77.159543,"city":"Gaithersburg","state":"MD","address":"18558 Woodfield Rd","name":""},
  {"lat":32.53291,"lon":-97.336278,"city":"Burleson","state":"TX","address":"735 SW Wilshire Blvd","name":""},
  {"lat":29.60946,"lon":-98.510446,"city":"San Antonio","state":"TX","address":"1203 N Loop 1604 W","name":""},
  {"lat":32.607598,"lon":-117.080649,"city":"Chula Vista","state":"CA","address":"1170 Broadway","name":""},
  {"lat":33.727824,"lon":-84.940739,"city":"Villa Rica","state":"GA","address":"135 Commerce Dr","name":""},
  {"lat":32.357527,"lon":-90.0095,"city":"Flowood","state":"MS","address":"5657 Highway 25","name":""},
  {"lat":38.306511,"lon":-77.513856,"city":"Fredericksburg","state":"VA","address":"1800 Carl D Silver Parkway","name":""},
  {"lat":42.058763,"lon":-88.266298,"city":"Elgin","state":"IL","address":"1169 Dundee Ave","name":""},
  {"lat":42.298188,"lon":-88.99867,"city":"Rockford","state":"IL","address":"2579 N Mulford Rd","name":""},
  {"lat":41.692551,"lon":-83.623744,"city":"Toledo","state":"OH","address":"4015 Secor Rd","name":""},
  {"lat":47.1915,"lon":-122.274554,"city":"Puyallup","state":"WA","address":"1422 E Main Ave","name":""},
  {"lat":35.148529,"lon":-89.917504,"city":"Memphis","state":"TN","address":"4307 Summer Ave","name":""},
  {"lat":29.577328,"lon":-95.120926,"city":"Houston","state":"TX","address":"1924 El Dorado Blvd","name":""},
  {"lat":37.697024,"lon":-121.743251,"city":"Livermore","state":"CA","address":"4323 1st St","name":""},
  {"lat":40.844913,"lon":-73.276213,"city":"Commack","state":"NY","address":"2073 Jericho Tpke","name":""},
  {"lat":33.044672,"lon":-96.82768,"city":"Plano","state":"TX","address":"5960 W Parker Rd","name":""},
  {"lat":30.417169,"lon":-86.607515,"city":"Fort Walton Beach","state":"FL","address":"91 Eglin Pkwy NE","name":""},
  {"lat":35.869063,"lon":-86.386874,"city":"Murfreesboro","state":"TN","address":"1723 Memorial Blvd","name":""},
  {"lat":42.138731,"lon":-88.023735,"city":"Palatine","state":"IL","address":"801 East Dundee Rd","name":""},
  {"lat":40.715047,"lon":-73.832834,"city":"Forest Hills","state":"NY","address":"11716 Queens Blvd","name":""},
  {"lat":42.53328,"lon":-83.166378,"city":"Royal Oak","state":"MI","address":"1700 W 14 Mile Rd","name":""},
  {"lat":40.638967,"lon":-73.918905,"city":"Brooklyn","state":"NY","address":"1556 Ralph Ave","name":""},
  {"lat":32.671766,"lon":-97.135266,"city":"Arlington","state":"TX","address":"4654 South Cooper","name":""},
  {"lat":33.822037,"lon":-118.327154,"city":"Torrance","state":"CA","address":"2455 Sepulveda Blvd","name":""},
  {"lat":36.974225,"lon":-120.082955,"city":"Madera","state":"CA","address":"2180 W Cleveland Ave","name":""},
  {"lat":30.395439,"lon":-91.157709,"city":"Baton Rouge","state":"LA","address":"216 Lee Dr","name":""},
  {"lat":40.745679,"lon":-73.906123,"city":"Woodside","state":"NY","address":"5801 Woodside Ave","name":""},
  {"lat":41.021981,"lon":-74.207104,"city":"Franklin Lakes","state":"NJ","address":"794 Franklin Ave","name":""},
  {"lat":34.050658,"lon":-86.872395,"city":"Hanceville","state":"AL","address":"426 Al Highway 69 S","name":""},
  {"lat":36.201327,"lon":-86.518122,"city":"Mount Juliet","state":"TN","address":"2231 N Mount Juliet Rd","name":""},
  {"lat":37.107533,"lon":-84.085767,"city":"London","state":"KY","address":"1653 Highway 192 W","name":""},
  {"lat":38.690909,"lon":-90.386977,"city":"Overland","state":"MO","address":"10250 Page Ave","name":""},
  {"lat":32.463381,"lon":-90.13522,"city":"Madison","state":"MS","address":"179 Grandview Blvd","name":""},
  {"lat":37.450213,"lon":-122.18537,"city":"Menlo Park","state":"CA","address":"863 Santa Cruz Ave","name":""},
  {"lat":29.54653,"lon":-95.105436,"city":"Houston","state":"TX","address":"1051 Nasa Rd","name":""},
  {"lat":33.952071,"lon":-80.378098,"city":"Sumter","state":"SC","address":"1106 Broad St","name":""},
  {"lat":34.011916,"lon":-117.886405,"city":"West Covina","state":"CA","address":"3620 Nogales St","name":""},
  {"lat":40.622627,"lon":-73.937521,"city":"Brooklyn","state":"NY","address":"1922 Flatbush Ave # L","name":""},
  {"lat":37.964316,"lon":-100.854879,"city":"Garden City","state":"KS","address":"1521 E. Fulton St","name":""},
  {"lat":21.401667,"lon":-157.798333,"city":"Kaneohe","state":"HI","address":"45-480 Kaneohe Bay Dr","name":""},
  {"lat":34.260049,"lon":-118.323367,"city":"Sunland","state":"CA","address":"8700 Foothill Blvd","name":""},
  {"lat":40.743547,"lon":-89.632166,"city":"Peoria","state":"IL","address":"4525 N Sterling Ave","name":""},
  {"lat":35.0809,"lon":-106.62523,"city":"Albuquerque","state":"NM","address":"1902 Central Ave SE","name":""},
  {"lat":35.853173,"lon":-78.64298,"city":"Raleigh","state":"NC","address":"5265 Six Forks Rd","name":""},
  {"lat":41.416962,"lon":-81.920642,"city":"North Olmsted","state":"OH","address":"26963 Lorain Rd","name":""},
  {"lat":25.813995,"lon":-80.127424,"city":"Miami Beach","state":"FL","address":"341 41st St","name":""},
  {"lat":36.144028,"lon":-115.297232,"city":"Las Vegas","state":"NV","address":"9151 W Sahara Ave","name":""},
  {"lat":45.720601,"lon":-122.662502,"city":"Vancouver","state":"WA","address":"800 NE Tenney Rd","name":""},
  {"lat":41.593859,"lon":-87.636877,"city":"Harvey","state":"IL","address":"16242 S Halsted","name":""},
  {"lat":42.298719,"lon":-83.27425,"city":"Dearborn","state":"MI","address":"24235 Michigan Ave","name":""},
  {"lat":33.618609,"lon":-117.703346,"city":"Lake Forest","state":"CA","address":"23647 El Toro Rd","name":""},
  {"lat":28.211743,"lon":-82.354352,"city":"Wesley Chapel","state":"FL","address":"3745A Bruce B Downs Blvd","name":""},
  {"lat":34.070485,"lon":-117.930447,"city":"West Covina","state":"CA","address":"1014 Plaza Dr","name":""},
  {"lat":34.905719,"lon":-91.197357,"city":"Brinkley","state":"AR","address":"1414 N. Main St","name":""},
  {"lat":35.893912,"lon":-78.559824,"city":"Raleigh","state":"NC","address":"8401 Capital Blvd","name":""},
  {"lat":39.152117,"lon":-76.727361,"city":"Hanover","state":"MD","address":"7657 Arundel Mills Blvd","name":""},
  {"lat":28.332254,"lon":-81.532587,"city":"Celebration","state":"FL","address":"6200 W Irlo Bronson Mem Hwy","name":""},
  {"lat":41.809579,"lon":-87.980412,"city":"Westmont","state":"IL","address":"121 W Ogden Ave","name":""},
  {"lat":34.080288,"lon":-83.921788,"city":"Buford","state":"GA","address":"2710 Hamilton Mill Rd","name":""},
  {"lat":27.493186,"lon":-82.708094,"city":"Holmes Beach","state":"FL","address":"3302 E Bay Dr","name":""},
  {"lat":35.963194,"lon":-86.496263,"city":"Smyrna","state":"TN","address":"1041 Sgt Asbury Hawn Way","name":""},
  {"lat":29.644264,"lon":-98.621116,"city":"San Antonio","state":"TX","address":"21715 W Interstate 10","name":""},
  {"lat":36.660517,"lon":-121.658739,"city":"Salinas","state":"CA","address":"1100 S Main St","name":""},
  {"lat":43.177414,"lon":-87.912526,"city":"Bayside","state":"WI","address":"8820 N Port Washington Rd","name":""},
  {"lat":42.225693,"lon":-83.194018,"city":"Lincoln Park","state":"MI","address":"4005 Dix Hwy","name":""},
  {"lat":34.256843,"lon":-88.719303,"city":"Tupelo","state":"MS","address":"1011 West Main St","name":""},
  {"lat":47.546122,"lon":-122.061256,"city":"Issaquah","state":"WA","address":"1590 NW Gilman Blvd","name":""},