{"key":"battlefield","displayName":"Battlefields","category":"entertainment","useLocationName":true,"locations":[
  {"lat":39.46763452,"lon":-77.73828017,"city":"Sharpsburg","state":"MD","address":"","name":"Antietam National Battlefield"},
  {"lat":45.64647324,"lon":-113.6458443,"city":"Wisdom","state":"MT","address":"","name":"Big Hole National Battlefield"},
  {"lat":34.50611958,"lon":-88.72889343,"city":"Guntown","state":"MS","address":"","name":"Brices Cross Roads National Battlefield Site"},
  {"lat":34.94317623,"lon":-85.28749537,"city":"Fort Oglethorpe","state":"GA","address":"","name":"Chickamauga & Chattanooga National Military Park"},
  {"lat":35.13160654,"lon":-81.80935433,"city":"Gaffney","state":"SC","address":"","name":"Cowpens National Battlefield"},
  {"lat":36.49019078,"lon":-87.92445695,"city":"Dover","state":"TN","address":"","name":"Fort Donelson National Battlefield"},
  {"lat":39.81306048,"lon":-79.59033344,"city":"Farmington","state":"PA","address":"","name":"Fort Necessity National Battlefield"},
  {"lat":38.29378,"lon":-77.46734,"city":"Fredericksburg","state":"VA","address":"","name":"Fredericksburg & Spotsylvania National Military Park"},
  {"lat":39.81557366,"lon":-77.23246758,"city":"Gettysburg","state":"PA","address":"","name":"Gettysburg National Military Park"},
  {"lat":36.13225478,"lon":-79.8424561,"city":"Greensboro","state":"NC","address":"","name":"Guilford Courthouse National Military Park"},
  {"lat":32.97668879,"lon":-85.73413589,"city":"Daviston","state":"AL","address":"","name":"Horseshoe Bend National Military Park"},
  {"lat":33.95370717,"lon":-84.59214186,"city":"Kennesaw","state":"GA","address":"","name":"Kennesaw Mountain National Battlefield Park"},
  {"lat":35.13900723,"lon":-81.38978712,"city":"Blacksburg","state":"SC","address":"","name":"Kings Mountain National Military Park"},
  {"lat":38.81710063,"lon":-77.5353468,"city":"Manassas","state":"VA","address":"","name":"Manassas National Battlefield Park"},
  {"lat":39.36084236,"lon":-77.39637677,"city":"Frederick","state":"MD","address":"","name":"Monocacy National Battlefield"},
  {"lat":34.45820776,"lon":-78.11031134,"city":"Currie","state":"NC","address":"","name":"Moores Creek National Battlefield"},
  {"lat":36.45438033,"lon":-94.03468357,"city":"Garfield","state":"AR","address":"","name":"Pea Ridge National Military Park"},
  {"lat":37.19109957,"lon":-77.47594865,"city":"Petersburg","state":"VA","address":"","name":"Petersburg National Battlefield"},
  {"lat":37.48774472,"lon":-77.29107785,"city":"Richmond","state":"VA","address":"","name":"Richmond National Battlefield Park"},
  {"lat":41.91291085,"lon":-83.37620464,"city":"Monroe","state":"MI","address":"","name":"River Raisin National Battlefield Park"},
  {"lat":35.13850907,"lon":-88.3421072,"city":"Shiloh","state":"TN","address":"","name":"Shiloh National Military Park"},
  {"lat":35.87608652,"lon":-86.43078399,"city":"Murfreesboro","state":"TN","address":"","name":"Stones River National Battlefield"},
  {"lat":34.25557705,"lon":-88.73708623,"city":"Tupelo","state":"MS","address":"","name":"Tupelo National Battlefield"},
  {"lat":32.3621286,"lon":-90.85030186,"city":"Vicksburg","state":"MS","address":"","name":"Vicksburg National Military Park"},
  {"lat":37.1000127,"lon":-93.40986704,"city":"Republic","state":"MO","address":"","name":"Wilson's Creek National Battlefield"}
]}