{"key":"baymont","displayName":"Baymont","category":"hotels","useLocationName":false,"locations":[
  {"lat":61.173406,"lon":-149.92613,"city":"Anchorage","state":"AK","address":"5205 Northwood Dr","name":""},
  {"lat":43.966751,"lon":-124.109265,"city":"Florence","state":"OR","address":"1202 Bay St","name":""},
  {"lat":37.306101,"lon":-76.73058,"city":"Williamsburg","state":"VA","address":"3032b Richmond Rd","name":""},
  {"lat":36.703355,"lon":-77.552761,"city":"Emporia","state":"VA","address":"921B West Atlantic St","name":""},
  {"lat":38.929266,"lon":-77.248101,"city":"Vienna","state":"VA","address":"8616 Westwood Center Drive","name":""},
  {"lat":38.455585,"lon":-78.019791,"city":"Culpeper","state":"VA","address":"791 Madison Road","name":""},
  {"lat":38.9173,"lon":-78.1853,"city":"Front Royal","state":"VA","address":"10 South Commerce Ave","name":""},
  {"lat":37.018973,"lon":-79.8889,"city":"Rocky Mount","state":"VA","address":"1730 N Main St","name":""},
  {"lat":37.32222,"lon":-80.033257,"city":"Salem","state":"VA","address":"179 Sheraton Drive","name":""},
  {"lat":38.729477,"lon":-77.775223,"city":"Warrenton","state":"VA","address":"7379 Comfort Inn Dr.","name":""},
  {"lat":41.605137,"lon":-109.229202,"city":"Rock Springs","state":"WY","address":"1545 Elk St","name":""},
  {"lat":44.294964,"lon":-105.531388,"city":"Gillette","state":"WY","address":"2105 Rodgers Dr","name":""},
  {"lat":44.80609,"lon":-106.93867,"city":"Sheridan","state":"WY","address":"911 Sibley Circle","name":""},
  {"lat":41.796288,"lon":-107.214402,"city":"Rawlins","state":"WY","address":"2005 E Daley St","name":""},
  {"lat":42.855131,"lon":-106.268803,"city":"Evansville","state":"WY","address":"480 Lathrop Road","name":""},
  {"lat":43.994267,"lon":-88.575089,"city":"Oshkosh","state":"WI","address":"1581 W South Park Ave","name":""},
  {"lat":44.261915,"lon":-88.464189,"city":"Appleton","state":"WI","address":"3924 W College Ave","name":""},
  {"lat":43.03173,"lon":-89.41546,"city":"Madison","state":"WI","address":"2810 Coho Street","name":""},
  {"lat":43.63397,"lon":-88.71699,"city":"Waupun","state":"WI","address":"5 Gateway Drive","name":""},
  {"lat":44.93464,"lon":-92.372045,"city":"Baldwin","state":"WI","address":"805 Energy St","name":""},
  {"lat":42.85101,"lon":-88.32464,"city":"Mukwonago","state":"WI","address":"945 Greenwald Ct","name":""},
  {"lat":44.688814,"lon":-90.156647,"city":"Marshfield","state":"WI","address":"2107 North Central Avenue","name":""},
  {"lat":42.833954,"lon":-88.758255,"city":"Whitewater","state":"WI","address":"1355 West Main Street","name":""},
  {"lat":43.206078,"lon":-87.923027,"city":"Mequon","state":"WI","address":"10330 Port Washington Road","name":""},
  {"lat":42.524716,"lon":-88.978786,"city":"Beloit","state":"WI","address":"2900 Ford St.","name":""},
  {"lat":42.633293,"lon":-88.646423,"city":"Delavan","state":"WI","address":"215 East Walworth Ave","name":""},
  {"lat":45.082363,"lon":-87.659401,"city":"Marinette","state":"WI","address":"2180 Roosevelt Road","name":""},
  {"lat":44.771314,"lon":-91.430752,"city":"Eau Claire","state":"WI","address":"4075 Commonwealth Ave.","name":""},
  {"lat":43.877064,"lon":-91.174828,"city":"Onalaska","state":"WI","address":"3300 North Kinney Coulee Rd","name":""},
  {"lat":42.672167,"lon":-88.978524,"city":"Janesville","state":"WI","address":"616 Midland Rd.","name":""},
  {"lat":43.078972,"lon":-89.523155,"city":"Madison","state":"WI","address":"8102 Excelsior Dr.","name":""},
  {"lat":44.472,"lon":-88.0752,"city":"Green Bay","state":"WI","address":"2840 South Oneida Street","name":""},
  {"lat":43.755497,"lon":-87.943757,"city":"Plymouth","state":"WI","address":"678 Walton Drive","name":""},
  {"lat":42.766571,"lon":-88.199122,"city":"Waterford","state":"WI","address":"750 Fox Lane","name":""},
  {"lat":43.026337,"lon":-88.18837,"city":"Waukesha","state":"WI","address":"2111 East Moreland Blvd","name":""},
  {"lat":44.537743,"lon":-89.574211,"city":"Stevens Point","state":"WI","address":"247 Division St N","name":""},
  {"lat":47.614982,"lon":-122.340686,"city":"Seattle","state":"WA","address":"2106 5th Ave","name":""},
  {"lat":47.376797,"lon":-122.242101,"city":"Kent","state":"WA","address":"25100 74th Ave S","name":""},
  {"lat":47.100981,"lon":-119.244289,"city":"Moses Lake","state":"WA","address":"1819 Kittleson Rd","name":""},
  {"lat":46.605137,"lon":-120.482356,"city":"Yakima","state":"WA","address":"1603 E Yakima Ave","name":""},
  {"lat":47.65315,"lon":-117.42539,"city":"Spokane","state":"WA","address":"907 W 3rd Ave","name":""},
  {"lat":46.185765,"lon":-119.177439,"city":"Kennewick","state":"WA","address":"4220 West 27th Place","name":""},
  {"lat":47.702782,"lon":-122.178291,"city":"Kirkland","state":"WA","address":"12223 North East 116th Street","name":""},
  {"lat":47.574036,"lon":-122.688489,"city":"Bremerton","state":"WA","address":"5640 Kitsap Way","name":""},
  {"lat":48.79467,"lon":-122.484428,"city":"Bellingham","state":"WA","address":"125 East Kellogg Rd","name":""},
  {"lat":32.021098,"lon":-102.151831,"city":"Midland","state":"TX","address":"5011 West Loop 250N","name":""},
  {"lat":29.415844,"lon":-98.506118,"city":"San Antonio","state":"TX","address":"1025B S. Frio Street","name":""},
  {"lat":33.543099,"lon":-101.84618,"city":"Lubbock","state":"TX","address":"5410 I-27","name":""},
  {"lat":31.575513,"lon":-94.671942,"city":"Nacogdoches","state":"TX","address":"3215 South St","name":""},
  {"lat":29.582202,"lon":-98.474607,"city":"San Antonio","state":"TX","address":"126 Kenley Place","name":""},
  {"lat":29.403509,"lon":-98.624522,"city":"San Antonio","state":"TX","address":"6815 W US Hwy 90","name":""},
  {"lat":32.601089,"lon":-96.824712,"city":"DeSoto","state":"TX","address":"641 N Interstate 35 East","name":""},
  {"lat":31.360666,"lon":-96.145663,"city":"Jewett","state":"TX","address":"120 S Main St","name":""},
  {"lat":29.385587,"lon":-94.95176,"city":"Texas City","state":"TX","address":"201 N Hwy 146 N","name":""},
  {"lat":27.732321,"lon":-97.417933,"city":"Corpus Christi","state":"TX","address":"2838 S Padre Island Dr","name":""},
  {"lat":29.406468,"lon":-100.905521,"city":"Del Rio","state":"TX","address":"3616 Veterans Blvd","name":""},
  {"lat":30.319924,"lon":-97.708565,"city":"Austin","state":"TX","address":"5812 N Interstate 35","name":""},
  {"lat":30.061699,"lon":-94.135773,"city":"Beaumont","state":"TX","address":"1610 Interstate 10 South","name":""},
  {"lat":28.960953,"lon":-95.355479,"city":"Freeport","state":"TX","address":"320 S Gulf Blvd","name":""},
  {"lat":32.312776,"lon":-102.54409,"city":"Andrews","state":"TX","address":"601 S Main St","name":""},
  {"lat":32.248945,"lon":-97.737541,"city":"Glen Rose","state":"TX","address":"1615 NE Big Bend Trail","name":""},
  {"lat":32.491601,"lon":-99.722447,"city":"Abilene","state":"TX","address":"3501 West Lake Rd","name":""},
  {"lat":32.733667,"lon":-97.634336,"city":"Willow Park","state":"TX","address":"5080 E Interstate 20 Service Rd S","name":""},
  {"lat":31.870481,"lon":-102.320117,"city":"Odessa","state":"TX","address":"3023 E Hwy 80","name":""},
  {"lat":27.545628,"lon":-99.504708,"city":"Laredo","state":"TX","address":"4910 San Bernardo Ave","name":""},
  {"lat":29.835643,"lon":-95.487471,"city":"Houston","state":"TX","address":"12439 Northwest Fwy","name":""},
  {"lat":29.651655,"lon":-95.028483,"city":"La Porte","state":"TX","address":"1105 Highway 146 South","name":""},
  {"lat":30.89842,"lon":-102.9085,"city":"Fort Stockton","state":"TX","address":"1537 North Hwy 285","name":""},
  {"lat":29.910184,"lon":-95.412862,"city":"Houston","state":"TX","address":"10155 North Freeway","name":""},
  {"lat":26.189838,"lon":-98.22861,"city":"McAllen","state":"TX","address":"620 W Hwy 83","name":""},
  {"lat":30.043637,"lon":-95.254943,"city":"Kingwood","state":"TX","address":"22601 Hwy 59 N","name":""},
  {"lat":30.13808,"lon":-96.39329,"city":"Brenham","state":"TX","address":"2950 Wood Ridge Blvd","name":""},
  {"lat":29.63036,"lon":-95.23302,"city":"Houston","state":"TX","address":"11412 Gulf Fwy","name":""},
  {"lat":30.89137,"lon":-96.60158,"city":"Hearne","state":"TX","address":"1051 N Market St","name":""},
  {"lat":33.027779,"lon":-96.707085,"city":"Plano","state":"TX","address":"621 Central Parkway East","name":""},
  {"lat":29.747306,"lon":-96.599556,"city":"Columbus","state":"TX","address":"2535 Highway 71 S","name":""},
  {"lat":29.825196,"lon":-97.988906,"city":"San Marcos","state":"TX","address":"4210 IH-35 South","name":""},
  {"lat":29.088523,"lon":-97.27943,"city":"Cuero","state":"TX","address":"308 Park Heights Drive","name":""},
  {"lat":32.704975,"lon":-96.278908,"city":"Terrell","state":"TX","address":"1604 State Highway 34 South","name":""},
  {"lat":30.694911,"lon":-96.359636,"city":"Bryan","state":"TX","address":"1506 Nuches Lane","name":""},
  {"lat":31.98145,"lon":-102.037233,"city":"Midland","state":"TX","address":"3100 US Hwy 158 East","name":""},
  {"lat":31.910469,"lon":-102.292961,"city":"Odessa","state":"TX","address":"4101 Parks Legado Road","name":""},
  {"lat":28.862495,"lon":-97.002939,"city":"Victoria","state":"TX","address":"8107 Northeast Zac Lentz Pkwy","name":""},
  {"lat":28.895974,"lon":-99.110344,"city":"Pearsall","state":"TX","address":"1808 West Comal Street","name":""},
  {"lat":33.036846,"lon":-97.001869,"city":"Lewisville","state":"TX","address":"885 South Stemmons Freeway","name":""},
  {"lat":29.010626,"lon":-95.408302,"city":"Clute","state":"TX","address":"900 West Highway 332","name":""},
  {"lat":35.191063,"lon":-101.819359,"city":"Amarillo","state":"TX","address":"1700 E Interstate Dr","name":""},
  {"lat":31.928146,"lon":-102.212306,"city":"Midland","state":"TX","address":"3312 Fortress Drive","name":""},
  {"lat":30.631868,"lon":-96.300591,"city":"College Station","state":"TX","address":"2611 Harvey Road","name":""},
  {"lat":33.228349,"lon":-97.591192,"city":"Decatur","state":"TX","address":"600 West Hale Avenue","name":""},
  {"lat":32.15649,"lon":-94.783737,"city":"Henderson","state":"TX","address":"410 Highway 79 South","name":""},
  {"lat":32.717,"lon":-100.9106,"city":"Snyder","state":"TX","address":"1005 East US Highway 180","name":""},
  {"lat":35.432078,"lon":-100.272299,"city":"Wheeler","state":"TX","address":"1414 South Alan Bean Blvd","name":""},
  {"lat":33.876339,"lon":-98.558105,"city":"Wichita Falls","state":"TX","address":"4510 Kell Blvd","name":""},
  {"lat":36.374396,"lon":-100.802421,"city":"Perryton","state":"TX","address":"2601 South Main Street","name":""},
  {"lat":32.753902,"lon":-97.065239,"city":"Arlington","state":"TX","address":"2401 Diplomacy Drive","name":""},
  {"lat":29.2673,"lon":-94.82899,"city":"Galveston","state":"TX","address":"2826 63rd Street","name":""},
  {"lat":32.858948,"lon":-96.886246,"city":"Dallas","state":"TX","address":"2370 West Northwest Highway","name":""},
  {"lat":29.927357,"lon":-93.944542,"city":"Port Arthur","state":"TX","address":"3801 Highway 73","name":""},
  {"lat":35.463965,"lon":-84.647584,"city":"Athens","state":"TN","address":"2002 Whitaker RD","name":""},
  {"lat":35.1682,"lon":-89.862851,"city":"Memphis","state":"TN","address":"6020 Shelby Oaks Drive","name":""},
  {"lat":34.987875,"lon":-85.200616,"city":"East Ridge","state":"TN","address":"6674 Ringgold Road","name":""},
  {"lat":35.997893,"lon":-86.598484,"city":"La Vergne","state":"TN","address":"109 Enterprise Blvd","name":""},
  {"lat":36.134163,"lon":-85.451263,"city":"Cookeville","state":"TN","address":"2021 E Spring St.","name":""},
  {"lat":36.16288,"lon":-84.08445,"city":"Clinton","state":"TN","address":"710 Park Place","name":""},
  {"lat":36.026833,"lon":-83.990746,"city":"Knoxville","state":"TN","address":"6712 Central Avenue Pike","name":""},
  {"lat":35.668659,"lon":-88.8424,"city":"Jackson","state":"TN","address":"465 Vann Drive","name":""},
  {"lat":36.325035,"lon":-86.70005,"city":"Goodlettsville","state":"TN","address":"100 North Creek Blvd","name":""},
  {"lat":35.858342,"lon":-83.568513,"city":"Sevierville","state":"TN","address":"711 Parkway","name":""},
  {"lat":35.911564,"lon":-86.82238,"city":"Franklin","state":"TN","address":"4206 Franklin Commons Court","name":""},
  {"lat":36.381683,"lon":-86.465042,"city":"Gallatin","state":"TN","address":"354 Sumner Hall Drive","name":""},
  {"lat":36.001217,"lon":-85.043449,"city":"Crossville","state":"TN","address":"4038 Highway 127 North","name":""},
  {"lat":36.525299,"lon":-87.226624,"city":"Clarksville","state":"TN","address":"1112 Highway 76","name":""},
  {"lat":35.915966,"lon":-84.093811,"city":"Knoxville","state":"TN","address":"209 Market Place Boulevard","name":""},
  {"lat":35.391201,"lon":-86.239952,"city":"Tullahoma","state":"TN","address":"2113 North Jackson St","name":""},
  {"lat":35.20694,"lon":-84.851357,"city":"Cleveland","state":"TN","address":"360 Paul Huff Parkway","name":""},
  {"lat":35.594944,"lon":-87.055984,"city":"Columbia","state":"TN","address":"715 S. James M Campbell Blvd","name":""},
  {"lat":36.595455,"lon":-87.284149,"city":"Clarksville","state":"TN","address":"190 Holiday Dr","name":""},
  {"lat":35.804306,"lon":-83.579071,"city":"Pigeon Forge","state":"TN","address":"130 Wears Valley Rd","name":""},
  {"lat":36.153866,"lon":-86.685211,"city":"Nashville","state":"TN","address":"2350 Elm Hill Pike","name":""},
  {"lat":35.848797,"lon":-86.432083,"city":"Murfreesboro","state":"TN","address":"2230 Armory Drive","name":""},
  {"lat":35.721076,"lon":-83.51001,"city":"Gatlinburg","state":"TN","address":"293 Parkway","name":""},
  {"lat":36.352638,"lon":-82.380455,"city":"Johnson City","state":"TN","address":"2606 North Roan Street","name":""},
  {"lat":43.569081,"lon":-96.770109,"city":"Sioux Falls","state":"SD","address":"3101 W Russell Street","name":""},
  {"lat":44.418201,"lon":-103.538634,"city":"Sturgis","state":"SD","address":"2721 Lazelle St","name":""},
  {"lat":43.893152,"lon":-103.425537,"city":"Keystone","state":"SD","address":"106 US-16A","name":""},
  {"lat":43.803268,"lon":-99.380793,"city":"Oacoma","state":"SD","address":"1100 East Highway 16","name":""},
  {"lat":44.37132,"lon":-100.361856,"city":"Pierre","state":"SD","address":"713 West Sioux Ave","name":""},
  {"lat":43.424861,"lon":-103.469149,"city":"Hot Springs","state":"SD","address":"737 South 6th Street","name":""},
  {"lat":44.097004,"lon":-103.148605,"city":"Rapid City","state":"SD","address":"4040 Cheyenne Blvd","name":""},
  {"lat":43.516066,"lon":-96.782868,"city":"Sioux Falls","state":"SD","address":"3200 South Meadow Avenue","name":""},
  {"lat":44.475203,"lon":-103.814393,"city":"Spearfish","state":"SD","address":"323 South 27th Street","name":""},
  {"lat":34.746501,"lon":-81.038104,"city":"Richburg","state":"SC","address":"3085 Lancaster Highway","name":""},
  {"lat":34.971906,"lon":-80.98736,"city":"Rock Hill","state":"SC","address":"962 Riverview Rd","name":""},
  {"lat":32.480813,"lon":-80.971549,"city":"Ridgeland","state":"SC","address":"511 James L. Taylor Rd","name":""},
  {"lat":33.48434,"lon":-80.47406,"city":"Santee","state":"SC","address":"249 Britain St","name":""},
  {"lat":34.691725,"lon":-79.894406,"city":"Cheraw","state":"SC","address":"710 Market St","name":""},
  {"lat":33.84488,"lon":-78.65587,"city":"North Myrtle Beach","state":"SC","address":"1755 Highway 17 N","name":""},
  {"lat":32.880894,"lon":-80.711266,"city":"Walterboro","state":"SC","address":"1286 Sniders Hwy","name":""},
  {"lat":34.830596,"lon":-82.304473,"city":"Greenville","state":"SC","address":"31 Old Country Road","name":""},
  {"lat":33.551003,"lon":-80.829102,"city":"Orangeburg","state":"SC","address":"3583 Saint Matthews Road","name":""},
  {"lat":34.216904,"lon":-82.164345,"city":"Greenwood","state":"SC","address":"109 Enterprise Court","name":""},
  {"lat":34.574509,"lon":-82.707199,"city":"Anderson","state":"SC","address":"128 Interstate Blvd","name":""},
  {"lat":34.907654,"lon":-82.104591,"city":"Duncan","state":"SC","address":"1546 East Main St","name":""},
  {"lat":34.822962,"lon":-82.554101,"city":"Easley","state":"SC","address":"211 Dayton School Road","name":""},
  {"lat":35.09,"lon":-81.664391,"city":"Gaffney","state":"SC","address":"101 Stuard Street","name":""},
  {"lat":34.034083,"lon":-81.10845,"city":"Columbia","state":"SC","address":"347 Zimalcrest Drive","name":""},
  {"lat":33.968094,"lon":-80.952278,"city":"Columbia","state":"SC","address":"240 East Exchange Blvd","name":""},
  {"lat":33.701662,"lon":-80.241308,"city":"Manning","state":"SC","address":"2284 Raccoon Road","name":""},
  {"lat":40.029669,"lon":-76.22777,"city":"Lancaster","state":"PA","address":"2165 Lincoln Hwy East","name":""},
  {"lat":40.960593,"lon":-77.761035,"city":"Milesburg","state":"PA","address":"971 North Eagle Valley Road","name":""},
  {"lat":40.534759,"lon":-76.425549,"city":"Pine Grove","state":"PA","address":"419 Suedberg Road","name":""},
  {"lat":39.90717,"lon":-77.64822,"city":"Chambersburg","state":"PA","address":"1122 Wayne Ave.","name":""},
  {"lat":40.321586,"lon":-76.790549,"city":"Harrisburg","state":"PA","address":"5680 Allentown Blvd","name":""},
  {"lat":41.003641,"lon":-75.276777,"city":"Bartonsville","state":"PA","address":"116 Turtle Walk Lane","name":""},
  {"lat":42.065633,"lon":-80.036092,"city":"Erie","state":"PA","address":"8170 Perry Highway","name":""},
  {"lat":34.177081,"lon":-97.16575,"city":"Ardmore","state":"OK","address":"136 Holiday Dr","name":""},
  {"lat":36.114733,"lon":-97.090293,"city":"Stillwater","state":"OK","address":"2515 W 6th Ave","name":""},
  {"lat":36.814481,"lon":-97.337152,"city":"Blackwell","state":"OK","address":"1201 N 44th St","name":""},
  {"lat":36.059708,"lon":-95.876228,"city":"Tulsa","state":"OK","address":"9020 E. 71st Street","name":""},
  {"lat":35.38529,"lon":-96.9117,"city":"Shawnee","state":"OK","address":"4981 N Harrison St","name":""},
  {"lat":36.392246,"lon":-97.921944,"city":"Enid","state":"OK","address":"3614 W Owen K. Garriott Road","name":""},
  {"lat":35.607525,"lon":-97.56234,"city":"Oklahoma City","state":"OK","address":"13500 Plaza Terrace","name":""},
  {"lat":35.459477,"lon":-97.596252,"city":"Oklahoma City","state":"OK","address":"4240 West I-40 Service Rd","name":""},
  {"lat":41.059857,"lon":-83.662423,"city":"Findlay","state":"OH","address":"1600 Fox Street","name":""},
  {"lat":39.440937,"lon":-84.339907,"city":"Monroe","state":"OH","address":"40 New Garver Rd.","name":""},
  {"lat":40.580897,"lon":-83.073131,"city":"Marion","state":"OH","address":"2117 Marion Mount Gilead Rd","name":""},
  {"lat":41.021701,"lon":-80.633623,"city":"Boardman","state":"OH","address":"7393 South Ave","name":""},
  {"lat":41.618103,"lon":-83.690537,"city":"Holland","state":"OH","address":"1214 Corporate Drive","name":""},
  {"lat":39.848799,"lon":-84.190948,"city":"Dayton","state":"OH","address":"6960B Miller Lane","name":""},
  {"lat":41.610095,"lon":-83.538177,"city":"Northwood","state":"OH","address":"2426 Oregon Rd","name":""},
  {"lat":41.154705,"lon":-80.664008,"city":"Youngstown","state":"OH","address":"4055 Belmont Avenue","name":""},
  {"lat":40.05954,"lon":-82.954,"city":"Columbus","state":"OH","address":"887 Morse Rd","name":""},
  {"lat":41.59713,"lon":-83.80078,"city":"Swanton","state":"OH","address":"10753 Airport Hwy","name":""},
  {"lat":39.419998,"lon":-81.457314,"city":"Marietta","state":"OH","address":"701 Pike St","name":""},
  {"lat":40.151221,"lon":-84.224342,"city":"Piqua","state":"OH","address":"950 E Ash St","name":""},
  {"lat":40.267494,"lon":-83.071976,"city":"Delaware","state":"OH","address":"1720 Columbus Pike","name":""},
  {"lat":39.995029,"lon":-81.576273,"city":"Cambridge","state":"OH","address":"61595 Southgate Parkway","name":""},
  {"lat":39.943871,"lon":-81.998436,"city":"Zanesville","state":"OH","address":"230 Scenic Crest Drive","name":""},
  {"lat":39.616569,"lon":-83.609617,"city":"Jeffersonville","state":"OH","address":"11431 Allen Road Northwest","name":""},
  {"lat":39.5407,"lon":-82.439682,"city":"Logan","state":"OH","address":"12819 State Route 664 South","name":""},
  {"lat":39.735071,"lon":-82.630738,"city":"Lancaster","state":"OH","address":"1721 River Valley Circle North","name":""},
  {"lat":41.131378,"lon":-81.654282,"city":"Copley","state":"OH","address":"130 Montrose West Ave, Bldg A","name":""},
  {"lat":41.443035,"lon":-82.684738,"city":"Sandusky","state":"OH","address":"1711 Cleveland Road","name":""},
  {"lat":39.358456,"lon":-84.266052,"city":"Mason","state":"OH","address":"2793 Waterpark Drive","name":""},
  {"lat":41.551025,"lon":-83.599937,"city":"Perrysburg","state":"OH","address":"27441 Helen Drive","name":""},
  {"lat":39.267368,"lon":-84.43737,"city":"Cincinnati","state":"OH","address":"10900 Crowne Pointe Drive","name":""},
  {"lat":39.822041,"lon":-82.937386,"city":"Columbus","state":"OH","address":"2323 Rickenbacker Parkway West","name":""},
  {"lat":39.871941,"lon":-84.135681,"city":"Huber Heights","state":"OH","address":"8110 Old Troy Pike","name":""},
  {"lat":39.893814,"lon":-83.80658,"city":"Springfield","state":"OH","address":"319 East Leffel Lane","name":""},
  {"lat":43.088709,"lon":-78.198781,"city":"Batavia","state":"NY","address":"202 Oak St","name":""},
  {"lat":43.058108,"lon":-77.650278,"city":"Henrietta","state":"NY","address":"905 Lehigh Station Rd","name":""},
  {"lat":41.073821,"lon":-73.816797,"city":"Elmsford","state":"NY","address":"540 Saw Mill River Rd","name":""},
  {"lat":43.43161,"lon":-73.713051,"city":"Lake George","state":"NY","address":"439 Canada Street","name":""},
  {"lat":42.75417,"lon":-73.81624,"city":"Latham","state":"NY","address":"20 Airport Park Boulevard","name":""},
  {"lat":40.759558,"lon":-73.940916,"city":"Long Island City","state":"NY","address":"37-10 11th Street","name":""},
  {"lat":43.32529,"lon":-73.68268,"city":"Queensbury","state":"NY","address":"1 Abbey Lane","name":""},
  {"lat":42.908251,"lon":-78.752771,"city":"Buffalo","state":"NY","address":"3475 Union Rd","name":""},
  {"lat":36.168351,"lon":-115.138128,"city":"Las Vegas","state":"NV","address":"700 Fremont st","name":""},
  {"lat":40.839319,"lon":-115.788314,"city":"Elko","state":"NV","address":"95 Spruce Road","name":""},
  {"lat":36.049114,"lon":-115.169472,"city":"Las Vegas","state":"NV","address":"55 East Robindale Road","name":""},
  {"lat":34.06954,"lon":-106.893685,"city":"Socorro","state":"NM","address":"1009 N California St","name":""},
  {"lat":32.269256,"lon":-107.73866,"city":"Deming","state":"NM","address":"1721 E Pine St","name":""},
  {"lat":32.377559,"lon":-104.227619,"city":"Carlsbad","state":"NM","address":"3705 National Park Highway","name":""},
  {"lat":36.720444,"lon":-108.184427,"city":"Farmington","state":"NM","address":"1901 E Broadway Street","name":""},
  {"lat":34.658741,"lon":-106.776543,"city":"Belen","state":"NM","address":"2110 Camino del Llano","name":""},
  {"lat":35.05653,"lon":-106.63566,"city":"Albuquerque","state":"NM","address":"2601 Mulberry St SE","name":""},
  {"lat":35.637928,"lon":-106.017342,"city":"Santa Fe","state":"NM","address":"4150 Cerrillos Road","name":""},
  {"lat":32.737913,"lon":-103.150243,"city":"Hobbs","state":"NM","address":"3510 North Central","name":""},
  {"lat":40.028798,"lon":-74.817059,"city":"Westampton","state":"NJ","address":"2020 County Rd 541","name":""},
  {"lat":40.884552,"lon":-74.72954,"city":"Budd Lake","state":"NJ","address":"102 US Highway 46","name":""},
  {"lat":40.97405,"lon":-74.28881,"city":"Pompton Plains","state":"NJ","address":"140 Route 23 North","name":""},
  {"lat":40.851124,"lon":-96.686395,"city":"Lincoln","state":"NE","address":"3939 N 26th ST","name":""},
  {"lat":41.163818,"lon":-96.140556,"city":"Omaha","state":"NE","address":"9595 S 145th St","name":""},
  {"lat":41.16436,"lon":-95.923936,"city":"Bellevue","state":"NE","address":"305 Fort Crook Rd N","name":""},
  {"lat":41.454266,"lon":-96.453735,"city":"Fremont","state":"NE","address":"2700 N Diers Parkway","name":""},
  {"lat":46.892281,"lon":-102.834047,"city":"Dickinson","state":"ND","address":"3233 Legend Dr","name":""},
  {"lat":46.882469,"lon":-98.715198,"city":"Jamestown","state":"ND","address":"507 25th St SW","name":""},
  {"lat":48.156941,"lon":-103.652667,"city":"Williston","state":"ND","address":"1325 19th Ave W","name":""},
  {"lat":46.849075,"lon":-100.915825,"city":"Mandan","state":"ND","address":"2611 Old Red Trail Northwest","name":""},
  {"lat":46.84631,"lon":-96.80063,"city":"Fargo","state":"ND","address":"1340 21st Ave S","name":""},
  {"lat":47.912954,"lon":-97.088087,"city":"Grand Forks","state":"ND","address":"951 South 42nd Street","name":""},
  {"lat":48.199821,"lon":-101.315231,"city":"Minot","state":"ND","address":"1609 35th Avenue Southwest","name":""},
  {"lat":46.28681,"lon":-96.623329,"city":"Wahpeton","state":"ND","address":"1800 Two Ten Drive","name":""},
  {"lat":35.007998,"lon":-78.827462,"city":"Fayetteville","state":"NC","address":"1922 Cedar Creek Road","name":""},
  {"lat":36.290683,"lon":-76.242104,"city":"Elizabeth City","state":"NC","address":"848 Halstead Blvd","name":""},
  {"lat":36.142121,"lon":-78.718436,"city":"Creedmoor","state":"NC","address":"1585 NC HWY 56","name":""},
  {"lat":34.24334,"lon":-77.88435,"city":"Wilmington","state":"NC","address":"4926 Market St","name":""},
  {"lat":36.060368,"lon":-77.816437,"city":"Battleboro","state":"NC","address":"7095 NC 4","name":""},
  {"lat":35.592876,"lon":-80.861206,"city":"Mooresville","state":"NC","address":"132 Meadow Hill Ct","name":""},
  {"lat":35.71228,"lon":-81.318359,"city":"Hickory","state":"NC","address":"1120 13th Avenue Dr Southeast","name":""},
  {"lat":35.335339,"lon":-81.893913,"city":"Forest City","state":"NC","address":"164 Jameson Inn Drive","name":""},
  {"lat":35.506939,"lon":-78.322884,"city":"Smithfield","state":"NC","address":"125 South Equity Drive","name":""},
  {"lat":35.457256,"lon":-79.144447,"city":"Sanford","state":"NC","address":"2614 South Horner Boulevard","name":""},
  {"lat":36.331062,"lon":-78.443738,"city":"Henderson","state":"NC","address":"400 North Cooper Drive","name":""},
  {"lat":35.298275,"lon":-78.601341,"city":"Dunn","state":"NC","address":"901 Jackson Road","name":""},
  {"lat":36.489077,"lon":-79.737434,"city":"Eden","state":"NC","address":"716 Linden Drive","name":""},
  {"lat":35.567558,"lon":-77.401703,"city":"Greenville","state":"NC","address":"3439 South Memorial Drive","name":""},
  {"lat":35.562378,"lon":-82.540886,"city":"Asheville","state":"NC","address":"204 Hendersonville Rd","name":""},
  {"lat":47.504982,"lon":-111.303106,"city":"Great Falls","state":"MT","address":"220 Central Ave","name":""},
  {"lat":46.911375,"lon":-114.036601,"city":"Missoula","state":"MT","address":"4953 N Reserve St","name":""},
  {"lat":45.699174,"lon":-111.050286,"city":"Bozeman","state":"MT","address":"2020 Wheat Drive","name":""},
  {"lat":48.39211,"lon":-114.33759,"city":"Whitefish","state":"MT","address":"6390 US-93","name":""},
  {"lat":47.128176,"lon":-104.69299,"city":"Glendive","state":"MT","address":"2006 N Merrill Ave","name":""},
  {"lat":45.752819,"lon":-108.56562,"city":"Billings","state":"MT","address":"2030 Overland Ave","name":""},
  {"lat":46.59193,"lon":-112.006104,"city":"Helena","state":"MT","address":"750 Fee Street","name":""},
  {"lat":30.442916,"lon":-88.530419,"city":"Moss Point","state":"MS","address":"7001 Highway 63","name":""},
  {"lat":32.351234,"lon":-88.693177,"city":"Meridian","state":"MS","address":"1400 Roebuck Dr.","name":""},
  {"lat":30.4586,"lon":-88.84411,"city":"Biloxi","state":"MS","address":"8011 Tucker Road","name":""},
  {"lat":31.686005,"lon":-89.148782,"city":"Laurel","state":"MS","address":"1820 Jefferson St.","name":""},
  {"lat":31.244353,"lon":-90.479273,"city":"McComb","state":"MS","address":"101 Anna Drive","name":""},
  {"lat":34.280801,"lon":-88.714248,"city":"Tupelo","state":"MS","address":"625 Spicer Drive","name":""},
  {"lat":32.266399,"lon":-90.143463,"city":"Pearl","state":"MS","address":"434 Riverwind Dr","name":""},
  {"lat":33.781301,"lon":-89.833456,"city":"Grenada","state":"MS","address":"1575 Jamison Drive","name":""},
  {"lat":32.380831,"lon":-90.148594,"city":"Jackson","state":"MS","address":"5709 I-55 North","name":""},
  {"lat":38.209063,"lon":-90.403755,"city":"Festus","state":"MO","address":"1200 W Gannon Dr","name":""},
  {"lat":39.246093,"lon":-94.452772,"city":"Liberty","state":"MO","address":"115 N Stewart Rd","name":""},
  {"lat":36.63529,"lon":-93.26404,"city":"Branson","state":"MO","address":"230 S Wildwood Dr","name":""},
  {"lat":38.769084,"lon":-90.499292,"city":"St. Charles","state":"MO","address":"801 Veterans Memorial Parkway","name":""},
  {"lat":37.773637,"lon":-90.443426,"city":"Farmington","state":"MO","address":"1625 W Columbia St","name":""},
  {"lat":39.684653,"lon":-91.404319,"city":"Hannibal","state":"MO","address":"4141 Market St","name":""},
  {"lat":40.170649,"lon":-92.574308,"city":"Kirksville","state":"MO","address":"2702 South Franklin Street","name":""},
  {"lat":37.249369,"lon":-93.264981,"city":"Springfield","state":"MO","address":"1610 E Evergreen St","name":""},
  {"lat":36.745853,"lon":-91.874168,"city":"West Plains","state":"MO","address":"1605 Imperial Dr","name":""},
  {"lat":38.967875,"lon":-92.375956,"city":"Columbia","state":"MO","address":"2500 I-70 Dr SW","name":""},
  {"lat":38.819247,"lon":-91.14464,"city":"Warrenton","state":"MO","address":"425 East Veterans Memorial Pky","name":""},
  {"lat":38.873335,"lon":-91.962094,"city":"Fulton","state":"MO","address":"2205 Cardinal Dr","name":""},
  {"lat":37.158646,"lon":-93.226929,"city":"Springfield","state":"MO","address":"3343 East Battlefield St","name":""},
  {"lat":38.11643,"lon":-92.683511,"city":"Osage Beach","state":"MO","address":"5887 Osage Beach Pkwy","name":""},
  {"lat":36.644138,"lon":-93.231735,"city":"Branson","state":"MO","address":"1000 West Main Street","name":""},
  {"lat":37.826667,"lon":-92.147551,"city":"Saint Robert","state":"MO","address":"139 Carmel Valley Way","name":""},
  {"lat":38.215571,"lon":-91.168136,"city":"Sullivan","state":"MO","address":"275 North Service Road West","name":""},
  {"lat":37.940318,"lon":-91.802305,"city":"Rolla","state":"MO","address":"1801 Martin Springs Drive","name":""},
  {"lat":38.577168,"lon":-92.178566,"city":"Jefferson City","state":"MO","address":"319 West Miller Street","name":""},
  {"lat":46.727061,"lon":-92.219908,"city":"Proctor","state":"MN","address":"9315 Westgate Blvd","name":""},
  {"lat":45.07411,"lon":-93.306077,"city":"Brooklyn Center","state":"MN","address":"2050 Freeway Blvd","name":""},
  {"lat":44.783222,"lon":-93.469775,"city":"Shakopee","state":"MN","address":"1244 Canterbury Rd S","name":""},
  {"lat":45.133609,"lon":-93.274007,"city":"Coon Rapids","state":"MN","address":"8965 Springbrook Drive","name":""},
  {"lat":45.648417,"lon":-95.367808,"city":"Glenwood","state":"MN","address":"100 15th St SE","name":""},
  {"lat":44.86331,"lon":-93.25747,"city":"Richfield","state":"MN","address":"1200 E 78th Street","name":""},
  {"lat":44.08548,"lon":-93.241837,"city":"Owatonna","state":"MN","address":"245 Florence Avenue","name":""},
  {"lat":44.02179,"lon":-92.744293,"city":"Kasson","state":"MN","address":"301 8th Street Southeast","name":""},
  {"lat":44.701092,"lon":-93.288063,"city":"Lakeville","state":"MN","address":"17145 Kenyon Avenue","name":""},
  {"lat":45.628525,"lon":-94.576462,"city":"Albany","state":"MN","address":"820 Shamrock Lane","name":""},
  {"lat":46.352097,"lon":-94.250969,"city":"Baxter","state":"MN","address":"7208 Fairview Road","name":""},
  {"lat":45.357164,"lon":-84.970149,"city":"Petoskey","state":"MI","address":"1420 US Route 131 S","name":""},
  {"lat":42.64913,"lon":-83.24257,"city":"Auburn Hills","state":"MI","address":"2100 Featherstone Rd","name":""},
  {"lat":45.809132,"lon":-88.04889,"city":"Iron Mountain","state":"MI","address":"1609 S Stephenson Ave","name":""},
  {"lat":42.993296,"lon":-83.739671,"city":"Flint","state":"MI","address":"2361 Austins Pkwy","name":""},
  {"lat":44.272622,"lon":-86.271995,"city":"Manistee","state":"MI","address":"1462 US Hwy 31","name":""},
  {"lat":43.557085,"lon":-83.949035,"city":"Bay City","state":"MI","address":"6285 Westside Saginaw Rd.","name":""},
  {"lat":42.096895,"lon":-83.67592,"city":"Milan","state":"MI","address":"1230 Dexter St","name":""},
  {"lat":44.62918,"lon":-86.09387,"city":"Beulah","state":"MI","address":"1400 US Highway 31","name":""},
  {"lat":42.207868,"lon":-85.892452,"city":"Paw Paw","state":"MI","address":"111 Ampey Road","name":""},
  {"lat":42.91403,"lon":-85.67251,"city":"Grand Rapids","state":"MI","address":"255B 28th St SW","name":""},
  {"lat":42.21818,"lon":-83.49028,"city":"Belleville","state":"MI","address":"45945 S I94 Service Dr","name":""},
  {"lat":42.09444,"lon":-83.24659,"city":"Flat Rock","state":"MI","address":"29101 Commerce Dr","name":""},
  {"lat":42.34116,"lon":-83.01458,"city":"Detroit","state":"MI","address":"3250 E. Jefferson Ave.","name":""},
  {"lat":42.323981,"lon":-85.185928,"city":"Battle Creek","state":"MI","address":"182 West Van Buren","name":""},
  {"lat":41.885062,"lon":-83.395273,"city":"Monroe","state":"MI","address":"14774 Laplaisance Road","name":""},
  {"lat":42.955563,"lon":-82.502233,"city":"Port Huron","state":"MI","address":"1611 Range Road","name":""},
  {"lat":43.167635,"lon":-86.205779,"city":"Muskegon","state":"MI","address":"4677 South Harvey Street","name":""},
  {"lat":42.324364,"lon":-83.448174,"city":"Canton","state":"MI","address":"5700 North Haggerty Rd","name":""},
  {"lat":42.53239,"lon":-83.118843,"city":"Madison Heights","state":"MI","address":"32800 Stephenson Highway","name":""},
  {"lat":43.655369,"lon":-84.253403,"city":"Midland","state":"MI","address":"2200 West Wackerly Street","name":""},
  {"lat":45.890709,"lon":-84.727391,"city":"Saint Ignace","state":"MI","address":"1131 North State Street","name":""},
  {"lat":42.299503,"lon":-84.028191,"city":"Chelsea","state":"MI","address":"1540 Commerce Park Drive","name":""},
  {"lat":42.240236,"lon":-83.348481,"city":"Romulus","state":"MI","address":"9000 Wickham Road","name":""},
  {"lat":43.611359,"lon":-84.730129,"city":"Mount Pleasant","state":"MI","address":"5858 East Pickard South","name":""},
  {"lat":44.720068,"lon":-85.645777,"city":"Traverse City","state":"MI","address":"2326 N US-31 S","name":""},
  {"lat":42.525444,"lon":-82.910133,"city":"Roseville","state":"MI","address":"20675 13 Mile Road","name":""},
  {"lat":43.348976,"lon":-83.865334,"city":"Bridgeport","state":"MI","address":"6460 Dixie Hwy","name":""},
  {"lat":42.268983,"lon":-85.657866,"city":"Kalamazoo","state":"MI","address":"2203 South 11th Street","name":""},
  {"lat":42.031512,"lon":-86.516507,"city":"Stevensville","state":"MI","address":"2601 West Marquette Woods Road","name":""},
  {"lat":45.78121,"lon":-84.732062,"city":"Mackinaw City","state":"MI","address":"109 South Nicolet Street","name":""},
  {"lat":45.022446,"lon":-84.684158,"city":"Gaylord","state":"MI","address":"510 South Wisconsin Avenue","name":""},
  {"lat":42.261181,"lon":-85.203564,"city":"Battle Creek","state":"MI","address":"4725 Beckley Road","name":""},
  {"lat":42.911572,"lon":-85.530869,"city":"Grand Rapids","state":"MI","address":"2873 Kraft Avenue Southeast","name":""},
  {"lat":42.275594,"lon":-84.430554,"city":"Jackson","state":"MI","address":"2035 Bondsteel Drive","name":""},
  {"lat":42.403718,"lon":-86.248476,"city":"South Haven","state":"MI","address":"1555 Phoenix Rd","name":""},
  {"lat":42.6247,"lon":-83.997998,"city":"Howell","state":"MI","address":"4120 Lambert Drive","name":""},
  {"lat":41.779091,"lon":-86.735443,"city":"New Buffalo","state":"MI","address":"18800 Harbor Country Drive","name":""},
  {"lat":43.047424,"lon":-86.2192,"city":"Grand Haven","state":"MI","address":"1500 South Beacon Boulevard","name":""},
  {"lat":42.775326,"lon":-86.077728,"city":"Holland","state":"MI","address":"680 East 24th Street","name":""},
  {"lat":38.412692,"lon":-75.566212,"city":"Salisbury","state":"MD","address":"2625 N Salisbury Blvd","name":""},
  {"lat":41.65358,"lon":-70.98582,"city":"North Dartmouth","state":"MA","address":"171 Faunce Corner Mall Road","name":""},
  {"lat":30.252376,"lon":-93.012266,"city":"Iowa","state":"LA","address":"107 East Frontage Road","name":""},
  {"lat":30.223736,"lon":-89.786048,"city":"Slidell","state":"LA","address":"142 Oak Ct","name":""},
  {"lat":37.735905,"lon":-84.321095,"city":"Richmond","state":"KY","address":"100 Eastern Byp","name":""},
  {"lat":37.381675,"lon":-84.330243,"city":"Mount Vernon","state":"KY","address":"2090 Richmond St","name":""},
  {"lat":36.756359,"lon":-85.143329,"city":"Albany","state":"KY","address":"79 Soma Lane","name":""},
  {"lat":38.011051,"lon":-84.171806,"city":"Winchester","state":"KY","address":"960 Interstate Dr","name":""},
  {"lat":37.353596,"lon":-87.490228,"city":"Madisonville","state":"KY","address":"1891 Lantaff Blvd","name":""},
  {"lat":36.92934,"lon":-86.418411,"city":"Bowling Green","state":"KY","address":"1919 Mel Browning Street","name":""},
  {"lat":38.155216,"lon":-85.714661,"city":"Louisville","state":"KY","address":"6515 Signature Drive","name":""},
  {"lat":38.220221,"lon":-84.539714,"city":"Georgetown","state":"KY","address":"250 Outlet Center Drive","name":""},
  {"lat":37.112407,"lon":-84.099188,"city":"London","state":"KY","address":"2075 Highway 192","name":""},
  {"lat":38.062597,"lon":-85.70445,"city":"Brooks","state":"KY","address":"149 Willabrook Drive","name":""},
  {"lat":37.096754,"lon":-88.690665,"city":"Paducah","state":"KY","address":"5300 Cairo Rd","name":""},
  {"lat":36.979763,"lon":-84.111641,"city":"Corbin","state":"KY","address":"174 Adams Road","name":""},
  {"lat":38.225483,"lon":-85.581421,"city":"Louisville","state":"KY","address":"9400 Blairwood Road","name":""},
  {"lat":37.708928,"lon":-85.832614,"city":"Elizabethtown","state":"KY","address":"209 Commerce Drive","name":""},
  {"lat":36.669895,"lon":-86.556648,"city":"Franklin","state":"KY","address":"162 Anand Drive","name":""},
  {"lat":37.138351,"lon":-85.971748,"city":"Cave City","state":"KY","address":"799 Mammoth Cave St","name":""},
  {"lat":37.652544,"lon":-98.71592,"city":"Pratt","state":"KS","address":"704 Allison Lane","name":""},
  {"lat":38.06458,"lon":-97.90438,"city":"Hutchinson","state":"KS","address":"1315 E. 11TH AVE.","name":""},
  {"lat":37.817278,"lon":-96.886788,"city":"El Dorado","state":"KS","address":"2525 W Central Ave","name":""},
  {"lat":39.06615,"lon":-94.61425,"city":"Kansas City","state":"KS","address":"501 Southwest Blvd","name":""},
  {"lat":37.2759,"lon":-97.38435,"city":"Wellington","state":"KS","address":"1130B E 16th St","name":""},
  {"lat":37.69335,"lon":-97.19729,"city":"Wichita","state":"KS","address":"12111 E Central Ave","name":""},
  {"lat":38.827744,"lon":-97.634804,"city":"Salina","state":"KS","address":"1740 West Crawford Street","name":""},
  {"lat":38.897419,"lon":-99.319336,"city":"Hays","state":"KS","address":"3801 Vine Street","name":""},
  {"lat":39.041935,"lon":-95.759491,"city":"Topeka","state":"KS","address":"1401 Southwest Ashworth Place","name":""},
  {"lat":38.969696,"lon":-95.259804,"city":"Lawrence","state":"KS","address":"740 Iowa Street","name":""},
  {"lat":39.81895,"lon":-85.77119,"city":"Greenfield","state":"IN","address":"2270 N State St.","name":""},
  {"lat":40.045907,"lon":-86.492666,"city":"Lebanon","state":"IN","address":"1245 W State Road 32","name":""},
  {"lat":39.728982,"lon":-86.251333,"city":"Indianapolis","state":"IN","address":"5316 West Southern Avenue","name":""},
  {"lat":39.797197,"lon":-86.043708,"city":"Indianapolis","state":"IN","address":"7050 East 21st St.","name":""},
  {"lat":39.871287,"lon":-84.88977,"city":"Richmond","state":"IN","address":"912 Mendelson Drive","name":""},
  {"lat":41.713382,"lon":-86.250998,"city":"South Bend","state":"IN","address":"215 South Dixie Way","name":""},
  {"lat":41.46598,"lon":-87.32499,"city":"Merrillville","state":"IN","address":"8375 Georgia Street","name":""},
  {"lat":41.58348,"lon":-87.18247,"city":"Portage","state":"IN","address":"2323 Willowcreek Road","name":""},
  {"lat":39.919226,"lon":-86.228153,"city":"Indianapolis","state":"IN","address":"3871 W 92nd St","name":""},
  {"lat":40.054779,"lon":-85.649185,"city":"Anderson","state":"IN","address":"2215 E 59th St","name":""},
  {"lat":41.36499,"lon":-85.07794,"city":"Auburn","state":"IN","address":"306 Touring Dr","name":""},
  {"lat":41.72035,"lon":-86.178429,"city":"Mishawaka","state":"IN","address":"120 W University Drive","name":""},
  {"lat":39.4818,"lon":-86.015671,"city":"Franklin","state":"IN","address":"2122 Holiday Lane","name":""},
  {"lat":40.021713,"lon":-85.99942,"city":"Noblesville","state":"IN","address":"16025 Prosperity Dr","name":""},
  {"lat":39.120285,"lon":-84.849983,"city":"Lawrenceburg","state":"IN","address":"1000 East Eads Parkway","name":""},
  {"lat":39.860073,"lon":-85.973801,"city":"Indianapolis","state":"IN","address":"5755 North German Church Road","name":""},
  {"lat":41.695736,"lon":-86.893904,"city":"Michigan City","state":"IN","address":"4128 South Franklin Street","name":""},
  {"lat":39.825111,"lon":-86.278046,"city":"Indianapolis","state":"IN","address":"3850 Eagle View Dr","name":""},
  {"lat":39.666216,"lon":-86.093414,"city":"Indianapolis","state":"IN","address":"4402 East Creek View Drive","name":""},
  {"lat":40.220573,"lon":-85.430145,"city":"Muncie","state":"IN","address":"3400 North Chadam Lane","name":""},
  {"lat":41.728813,"lon":-85.971268,"city":"Elkhart","state":"IN","address":"3010 Brittany Court","name":""},
  {"lat":41.180912,"lon":-85.104668,"city":"Fort Wayne","state":"IN","address":"2881 East Dupont Road","name":""},
  {"lat":39.35957,"lon":-85.480865,"city":"Greensburg","state":"IN","address":"2317 North State Road 3","name":""},
  {"lat":38.169853,"lon":-87.55132,"city":"Haubstadt","state":"IN","address":"12798 Access Road 1250 South","name":""},
  {"lat":39.673691,"lon":-86.373604,"city":"Plainfield","state":"IN","address":"6010 Gateway Drive","name":""},
  {"lat":40.420197,"lon":-86.82103,"city":"Lafayette","state":"IN","address":"201 Frontage Road","name":""},
  {"lat":39.749076,"lon":-86.029834,"city":"Indianapolis","state":"IN","address":"1540 Brookville Crossing Way","name":""},
  {"lat":38.189232,"lon":-86.979393,"city":"Dale","state":"IN","address":"1339 North Washington Street","name":""},
  {"lat":38.233278,"lon":-86.126508,"city":"Corydon","state":"IN","address":"2495 Landmark Avenue Northeast","name":""},
  {"lat":38.631416,"lon":-87.179756,"city":"Washington","state":"IN","address":"7 Cumberland Drive","name":""},
  {"lat":40.454594,"lon":-86.111023,"city":"Kokomo","state":"IN","address":"1709 East Lincoln Road","name":""},
  {"lat":37.922302,"lon":-89.808052,"city":"Chester","state":"IL","address":"2150 State St","name":""},
  {"lat":40.121475,"lon":-87.542869,"city":"Danville","state":"IL","address":"360 Eastgate Drive","name":""},
  {"lat":41.51493,"lon":-88.12177,"city":"Joliet","state":"IL","address":"1730 McDonough Street","name":""},
  {"lat":41.927967,"lon":-87.972466,"city":"Addison","state":"IL","address":"600 E Lake St","name":""},
  {"lat":42.488535,"lon":-88.306137,"city":"Richmond","state":"IL","address":"11200 N US Rte 12","name":""},
  {"lat":37.731392,"lon":-88.963348,"city":"Marion","state":"IL","address":"2608 W Main Street","name":""},
  {"lat":38.587826,"lon":-89.944296,"city":"OFallon","state":"IL","address":"1320 Park Plaza Drive","name":""},
  {"lat":39.1189,"lon":-88.570733,"city":"Effingham","state":"IL","address":"1811 W Fayette Ave","name":""},
  {"lat":42.39672,"lon":-88.61218,"city":"Harvard","state":"IL","address":"1701 S Division St","name":""},
  {"lat":42.3162,"lon":-89.632432,"city":"Freeport","state":"IL","address":"1060 Riverside Drive","name":""},
  {"lat":37.144564,"lon":-88.728499,"city":"Metropolis","state":"IL","address":"203 East Front Street","name":""},
  {"lat":40.946754,"lon":-90.335899,"city":"Galesburg","state":"IL","address":"2285 Washington Street","name":""},
  {"lat":39.791688,"lon":-88.267914,"city":"Tuscola","state":"IL","address":"1006 Southline Road","name":""},
  {"lat":42.377797,"lon":-87.936791,"city":"Gurnee","state":"IL","address":"5430 Grand Avenue","name":""},
  {"lat":39.694546,"lon":-90.227356,"city":"Jacksonville","state":"IL","address":"1914 Southbrooke Rd","name":""},
  {"lat":42.085896,"lon":-87.867577,"city":"Glenview","state":"IL","address":"1625 Milwaukee Ave","name":""},
  {"lat":40.623612,"lon":-89.462256,"city":"Morton","state":"IL","address":"210 East Ashland Street","name":""},
  {"lat":42.273758,"lon":-88.960991,"city":"Rockford","state":"IL","address":"662 North Lyford Road","name":""},
  {"lat":41.659286,"lon":-87.738241,"city":"Alsip","state":"IL","address":"12801 South Cicero","name":""},
  {"lat":39.17527,"lon":-89.669934,"city":"Litchfield","state":"IL","address":"1405 West Hudson Drive","name":""},
  {"lat":40.7386,"lon":-89.6252,"city":"Peoria","state":"IL","address":"2002 West War Memorial Drive","name":""},
  {"lat":41.621726,"lon":-87.576097,"city":"Calumet City","state":"IL","address":"510 East End Avenue","name":""},
  {"lat":47.673737,"lon":-116.754242,"city":"Coeur d Alene","state":"ID","address":"2209 Sherman Avenue","name":""},
  {"lat":40.39491,"lon":-91.382,"city":"Keokuk","state":"IA","address":"325 Main Street","name":""},
  {"lat":41.64288,"lon":-95.33801,"city":"Harlan","state":"IA","address":"5015 Ridgeway Drive","name":""},
  {"lat":42.502586,"lon":-94.156502,"city":"Fort Dodge","state":"IA","address":"2938 5th Ave S","name":""},
  {"lat":41.943623,"lon":-91.678856,"city":"Cedar Rapids","state":"IA","address":"720 33rd Ave SouthWest","name":""},
  {"lat":42.035675,"lon":-93.867004,"city":"Boone","state":"IA","address":"1745 SouthEast Marshall","name":""},
  {"lat":42.775752,"lon":-96.183199,"city":"Le Mars","state":"IA","address":"1314 12th Street Southwest","name":""},
  {"lat":42.007996,"lon":-93.581917,"city":"Ames","state":"IA","address":"1605 South Dayton Place","name":""},
  {"lat":42.007919,"lon":-92.91674,"city":"Marshalltown","state":"IA","address":"115 Iowa Avenue West","name":""},
  {"lat":42.467159,"lon":-92.319473,"city":"Waterloo","state":"IA","address":"1945 La Porte Road","name":""},
  {"lat":42.490589,"lon":-90.733137,"city":"Dubuque","state":"IA","address":"4025 Mcdonald Dr","name":""},
  {"lat":41.593769,"lon":-90.56736,"city":"Davenport","state":"IA","address":"400 Jason Way Court","name":""},
  {"lat":41.526717,"lon":-93.701782,"city":"Des Moines","state":"IA","address":"6221 Willow Creek Ave","name":""},
  {"lat":41.645538,"lon":-93.599457,"city":"Des Moines","state":"IA","address":"4685 Northeast 14th Street","name":""},
  {"lat":41.41336,"lon":-92.943456,"city":"Pella","state":"IA","address":"2104 Washington Street","name":""},
  {"lat":33.562426,"lon":-84.318464,"city":"Morrow","state":"GA","address":"2192 Mount Zion Pkwy","name":""},
  {"lat":32.375732,"lon":-82.067378,"city":"Metter","state":"GA","address":"1035 Fortner Rd","name":""},
  {"lat":34.254108,"lon":-83.466564,"city":"Commerce","state":"GA","address":"267 Steven B Tanger Blvd.","name":""},
  {"lat":32.197353,"lon":-81.195805,"city":"Port Wentworth","state":"GA","address":"7220 GA-21","name":""},
  {"lat":30.68124,"lon":-83.22598,"city":"Lake Park","state":"GA","address":"4912 Timber Dr","name":""},
  {"lat":34.378065,"lon":-84.914468,"city":"Adairsville","state":"GA","address":"100 Georgia North Circle","name":""},
  {"lat":34.08286,"lon":-84.67834,"city":"Acworth","state":"GA","address":"5245 Glade Road SE","name":""},
  {"lat":33.480097,"lon":-82.132312,"city":"Grovetown","state":"GA","address":"461 Park West Dr","name":""},
  {"lat":32.10978,"lon":-81.23524,"city":"Pooler","state":"GA","address":"130 Continental Blvd","name":""},
  {"lat":34.10038,"lon":-83.81288,"city":"Braselton","state":"GA","address":"2069 Highway 211 NW","name":""},
  {"lat":32.52313,"lon":-84.95996,"city":"Columbus","state":"GA","address":"5585 Whitesville Rd","name":""},
  {"lat":33.75375,"lon":-84.7206,"city":"Douglasville","state":"GA","address":"8315 Cherokee Blvd","name":""},
  {"lat":33.914515,"lon":-84.201173,"city":"Norcross","state":"GA","address":"5945 Oakbrook Pkwy","name":""},
  {"lat":34.700417,"lon":-83.723038,"city":"Helen","state":"GA","address":"8220 S Main Street","name":""},
  {"lat":33.61914,"lon":-84.470071,"city":"College Park","state":"GA","address":"2451 Old National Pkwy","name":""},
  {"lat":33.828452,"lon":-84.492154,"city":"Smyrna","state":"GA","address":"5130 South Cobb Drive","name":""},
  {"lat":33.041816,"lon":-84.973307,"city":"LaGrange","state":"GA","address":"107 Hoffman Drive","name":""},
  {"lat":32.020512,"lon":-81.112823,"city":"Savannah","state":"GA","address":"2 Lee Boulevard","name":""},
  {"lat":33.774788,"lon":-84.606941,"city":"Lithia Springs","state":"GA","address":"976 West Pointe Court","name":""},
  {"lat":34.273579,"lon":-84.808907,"city":"Cartersville","state":"GA","address":"11 Kent Drive","name":""},
  {"lat":33.287229,"lon":-84.291887,"city":"Griffin","state":"GA","address":"2007 North Expressway","name":""},
  {"lat":31.82933,"lon":-81.617264,"city":"Hinesville","state":"GA","address":"773 Veterans Parkway","name":""},
  {"lat":30.852298,"lon":-83.948156,"city":"Thomasville","state":"GA","address":"1470 Remington Ave","name":""},
  {"lat":31.218379,"lon":-81.494179,"city":"Brunswick","state":"GA","address":"105 Center Drive","name":""},
  {"lat":30.844042,"lon":-83.324395,"city":"Valdosta","state":"GA","address":"1725 Gornto Road","name":""},
  {"lat":31.215687,"lon":-82.329124,"city":"Waycross","state":"GA","address":"950 South City Blvd","name":""},
  {"lat":30.790953,"lon":-81.662211,"city":"Kingsland","state":"GA","address":"105 May Creek Drive","name":""},
  {"lat":32.617607,"lon":-83.674393,"city":"Warner Robins","state":"GA","address":"2731 Watson Boulevard","name":""},
  {"lat":32.490105,"lon":-82.933546,"city":"Dublin","state":"GA","address":"100 PM Watson Lane","name":""},
  {"lat":31.618654,"lon":-84.22522,"city":"Albany","state":"GA","address":"2720 Dawson Road","name":""},
  {"lat":33.426765,"lon":-84.178436,"city":"McDonough","state":"GA","address":"855 Industrial Boulevard","name":""},
  {"lat":34.536138,"lon":-83.537017,"city":"Cornelia","state":"GA","address":"1105 US-441 BUS","name":""},
  {"lat":34.030659,"lon":-84.57766,"city":"Kennesaw","state":"GA","address":"3192 Barrett Lakes Boulevard","name":""},
  {"lat":33.616606,"lon":-83.843666,"city":"Covington","state":"GA","address":"10111 Alcovy Road","name":""},
  {"lat":32.900568,"lon":-83.686451,"city":"Macon","state":"GA","address":"3680 Riverside Drive","name":""},
  {"lat":33.5238,"lon":-82.0345,"city":"Augusta","state":"GA","address":"2905 Riverwest Drive","name":""},
  {"lat":32.001985,"lon":-81.283635,"city":"Savannah","state":"GA","address":"393 Canebrake Road","name":""},
  {"lat":32.105616,"lon":-81.145453,"city":"Savannah","state":"GA","address":"357 Main Street","name":""},
  {"lat":29.187883,"lon":-82.104307,"city":"Ocala","state":"FL","address":"2430 N.E. 2nd St.","name":""},
  {"lat":28.551872,"lon":-81.428026,"city":"Orlando","state":"FL","address":"3956 West Colonial Dr","name":""},
  {"lat":28.56732,"lon":-81.26805,"city":"Orlando","state":"FL","address":"8750 East Colonial Drive","name":""},
  {"lat":26.590391,"lon":-81.873019,"city":"Fort Myers","state":"FL","address":"4850 S. Cleveland Avenue","name":""},
  {"lat":28.508652,"lon":-81.415505,"city":"Orlando","state":"FL","address":"2500 33rd St.","name":""},
  {"lat":30.483638,"lon":-81.648166,"city":"Jacksonville","state":"FL","address":"1153 Airport Rd","name":""},
  {"lat":28.334463,"lon":-81.496294,"city":"Kissimmee","state":"FL","address":"2930 Polynesian Isle Blvd","name":""},
  {"lat":29.173696,"lon":-81.082228,"city":"Daytona Beach","state":"FL","address":"2725 W International","name":""},
  {"lat":30.726508,"lon":-85.185362,"city":"Marianna","state":"FL","address":"2222 Highway 71","name":""},
  {"lat":30.176591,"lon":-85.805488,"city":"Panama City Beach","state":"FL","address":"11004 Front Beach Rd","name":""},
  {"lat":26.33149,"lon":-81.78866,"city":"Bonita Springs","state":"FL","address":"9800 Bonita Beach Rd","name":""},
  {"lat":30.4934,"lon":-84.4266,"city":"Midway","state":"FL","address":"81 Commerce Boulevard","name":""},
  {"lat":26.89778,"lon":-82.00644,"city":"Punta Gorda","state":"FL","address":"9035 Mac Drive","name":""},
  {"lat":30.194906,"lon":-81.737625,"city":"Jacksonville","state":"FL","address":"8555 Blanding Blvd","name":""},
  {"lat":28.45269,"lon":-81.46754,"city":"Orlando","state":"FL","address":"7531 Canada Avenue","name":""},
  {"lat":27.320566,"lon":-82.528442,"city":"Sarasota","state":"FL","address":"1425 S Tamiami Trail","name":""},
  {"lat":30.177996,"lon":-82.69133,"city":"Lake City","state":"FL","address":"3598 West US Highway 90","name":""},
  {"lat":28.098562,"lon":-81.952255,"city":"Lakeland","state":"FL","address":"4375 Lakeland Park Drive","name":""},
  {"lat":30.24625,"lon":-81.599098,"city":"Jacksonville","state":"FL","address":"7030 Bonneval Road","name":""},
  {"lat":29.654678,"lon":-82.415855,"city":"Gainesville","state":"FL","address":"6901 Northwest 4th Blvd","name":""},
  {"lat":26.548801,"lon":-81.799065,"city":"Fort Myers","state":"FL","address":"9401 Marketplace Rd","name":""},
  {"lat":30.720264,"lon":-86.57074,"city":"Crestview","state":"FL","address":"4040 Ferdon Blvd","name":""},
  {"lat":30.485832,"lon":-84.315506,"city":"Tallahassee","state":"FL","address":"3210 North Monroe St.","name":""},
  {"lat":39.660275,"lon":-75.753365,"city":"Newark","state":"DE","address":"630 South College Avenue","name":""},
  {"lat":41.37227,"lon":-72.0712,"city":"Groton","state":"CT","address":"360 Route 12","name":""},
  {"lat":41.916813,"lon":-72.613068,"city":"East Windsor","state":"CT","address":"260 Main Street","name":""},
  {"lat":41.296736,"lon":-72.764846,"city":"Branford","state":"CT","address":"3 Business Park Drive","name":""},
  {"lat":39.861119,"lon":-104.91119,"city":"Henderson","state":"CO","address":"9041 Brighton Road","name":""},
  {"lat":37.588508,"lon":-106.137928,"city":"Monte Vista","state":"CO","address":"1519 Grande Ave","name":""},
  {"lat":37.301749,"lon":-107.871028,"city":"Durango","state":"CO","address":"3255 Main Ave","name":""},
  {"lat":40.407992,"lon":-105.052314,"city":"Loveland","state":"CO","address":"1639 E. Eisenhower Blvd.","name":""},
  {"lat":39.915069,"lon":-104.986928,"city":"Thornton","state":"CO","address":"243 E 120th Ave","name":""},
  {"lat":40.25214,"lon":-103.880643,"city":"Fort Morgan","state":"CO","address":"14378 US-34","name":""},
  {"lat":39.26971,"lon":-103.7114,"city":"Limon","state":"CO","address":"2505 6th Street","name":""},
  {"lat":40.58177,"lon":-105.00653,"city":"Fort Collins","state":"CO","address":"3808 E Mulberry St","name":""},
  {"lat":38.948864,"lon":-104.806404,"city":"Colorado Springs","state":"CO","address":"1055 Kelly Johnson Blvd.","name":""},
  {"lat":38.523521,"lon":-106.015243,"city":"Salida","state":"CO","address":"7400 West US Highway 50","name":""},
  {"lat":38.306457,"lon":-104.611198,"city":"Pueblo","state":"CO","address":"3626 North Freeway Road","name":""},
  {"lat":39.726506,"lon":-105.130012,"city":"Golden","state":"CO","address":"11909 West 6th Ave","name":""},
  {"lat":37.349612,"lon":-108.556671,"city":"Cortez","state":"CO","address":"2279 Hawkins","name":""},
  {"lat":39.82082,"lon":-104.77021,"city":"Denver","state":"CO","address":"6805 North Argonne Street","name":""},
  {"lat":40.414971,"lon":-120.648662,"city":"Susanville","state":"CA","address":"1710 Main St","name":""},
  {"lat":37.797144,"lon":-121.186164,"city":"Manteca","state":"CA","address":"1920 E Yosemite Ave","name":""},
  {"lat":35.344732,"lon":-119.038161,"city":"Bakersfield","state":"CA","address":"1030 Wible Rd","name":""},
  {"lat":35.621376,"lon":-117.67063,"city":"Ridgecrest","state":"CA","address":"131 S CHINA LAKE BLVD","name":""},
  {"lat":39.439671,"lon":-123.80547,"city":"Fort Bragg","state":"CA","address":"250 S Main Street","name":""},
  {"lat":34.07773,"lon":-117.61823,"city":"Ontario","state":"CA","address":"1655 E 4th Street","name":""},
  {"lat":34.035404,"lon":-118.117158,"city":"Monterey Park","state":"CA","address":"434 Potrero Grande Dr.","name":""},
  {"lat":35.12644,"lon":-118.41356,"city":"Tehachapi","state":"CA","address":"500 Steuber Rd","name":""},
  {"lat":34.894,"lon":-117.05052,"city":"Barstow","state":"CA","address":"1861 W Main Street","name":""},
  {"lat":32.71959,"lon":-117.15791,"city":"San Diego","state":"CA","address":"719 Ash St.","name":""},
  {"lat":41.70414,"lon":-122.646536,"city":"Yreka","state":"CA","address":"148 Moonlit Oaks Ave","name":""},
  {"lat":40.437097,"lon":-122.289255,"city":"Anderson","state":"CA","address":"2040 Factory Outlets Drive","name":""},
  {"lat":37.697429,"lon":-121.07032,"city":"Modesto","state":"CA","address":"4100 Salida Boulevard","name":""},
  {"lat":31.722146,"lon":-110.074224,"city":"Tombstone","state":"AZ","address":"580 W Randolph Way","name":""},
  {"lat":35.189442,"lon":-114.053009,"city":"Kingman","state":"AZ","address":"3275 E. Andy Devine Ave","name":""},
  {"lat":33.579,"lon":-112.11605,"city":"Phoenix","state":"AZ","address":"10210 N. 26th Drive","name":""},
  {"lat":34.91565,"lon":-110.154,"city":"Holbrook","state":"AZ","address":"1308 Navajo Blvd","name":""},
  {"lat":32.87912,"lon":-111.694539,"city":"Casa Grande","state":"AZ","address":"2145 E Florence Blvd","name":""},
  {"lat":33.46189,"lon":-112.17336,"city":"Phoenix","state":"AZ","address":"1242 N 53rd Ave","name":""},
  {"lat":36.921786,"lon":-111.474852,"city":"Page","state":"AZ","address":"677 Scenic View Rd","name":""},
  {"lat":35.180466,"lon":-111.662148,"city":"Flagstaff","state":"AZ","address":"2005 South Milton Road","name":""},
  {"lat":32.125885,"lon":-110.933197,"city":"Tucson","state":"AZ","address":"6955 South Tucson Blvd","name":""},
  {"lat":34.1819,"lon":-93.0706,"city":"Caddo Valley","state":"AR","address":"100 Crystal Palace Drive","name":""},
  {"lat":33.472746,"lon":-94.041531,"city":"Texarkana","state":"AR","address":"5102 N State Line Ave","name":""},
  {"lat":36.05579,"lon":-94.197037,"city":"Fayetteville","state":"AR","address":"735 South Shiloh Dr","name":""},
  {"lat":35.807976,"lon":-90.671555,"city":"Jonesboro","state":"AR","address":"2910 Kazi Street","name":""},
  {"lat":34.427833,"lon":-93.088406,"city":"Hot Springs","state":"AR","address":"5321 Central Avenue","name":""},
  {"lat":32.364528,"lon":-86.207694,"city":"Montgomery","state":"AL","address":"5924 Monticello Dr","name":""},
  {"lat":31.78253,"lon":-85.953404,"city":"Troy","state":"AL","address":"1013 Hwy 231 South","name":""},
  {"lat":31.215639,"lon":-85.431224,"city":"Dothan","state":"AL","address":"2841 Ross Clark Circle, S.W.","name":""},
  {"lat":32.433734,"lon":-87.024014,"city":"Selma","state":"AL","address":"2420 N Broad St","name":""},
  {"lat":30.80294,"lon":-88.108147,"city":"Saraland","state":"AL","address":"1320 Industrial Parkway","name":""},
  {"lat":31.87809,"lon":-85.15072,"city":"Eufaula","state":"AL","address":"136 Towne Center Rd","name":""},
  {"lat":31.445048,"lon":-85.654182,"city":"Ozark","state":"AL","address":"1360 S US Highway 231","name":""},
  {"lat":34.830631,"lon":-87.632248,"city":"Florence","state":"AL","address":"115 Ana Dr","name":""},
  {"lat":33.165901,"lon":-87.55336,"city":"Tuscaloosa","state":"AL","address":"5021 Oscar Baxter Road","name":""},
  {"lat":32.459129,"lon":-86.416641,"city":"Prattville","state":"AL","address":"104 Jameson Court","name":""},
  {"lat":30.585909,"lon":-88.171593,"city":"Mobile","state":"AL","address":"5634 Tillmans Corner Parkway","name":""},
  {"lat":30.671436,"lon":-88.127595,"city":"Mobile","state":"AL","address":"930 W I-65 Service Road South","name":""}]}