{"key":"best_western_plus","displayName":"Best Western Plus","category":"hotels","useLocationName":false,"locations":[
  {"lat":39.104098,"lon":-76.84243,"city":"Laurel","state":"MD","address":"1 N 2nd Street","name":""},
  {"lat":41.137325,"lon":-104.704835,"city":"Cheyenne","state":"WY","address":"8101 Hutchins Drive","name":""},
  {"lat":42.84135,"lon":-106.223187,"city":"Casper","state":"WY","address":"651 Granite Peak Drive","name":""},
  {"lat":41.772435,"lon":-110.550224,"city":"Kemmerer","state":"WY","address":"760 Highway 189/30","name":""},
  {"lat":43.650902,"lon":-108.200543,"city":"Thermopolis","state":"WY","address":"116 E Park Street","name":""},
  {"lat":44.263702,"lon":-88.469309,"city":"Appleton","state":"WI","address":"132 N Mall Drive","name":""},
  {"lat":44.964755,"lon":-89.655105,"city":"Wausau","state":"WI","address":"201 N. 17th Avenue","name":""},
  {"lat":43.030248,"lon":-88.804515,"city":"Jefferson","state":"WI","address":"1409 W Junction Road","name":""},
  {"lat":44.957456,"lon":-92.7228,"city":"Hudson","state":"WI","address":"1200 Gateway Boulevard","name":""},
  {"lat":45.103827,"lon":-92.540341,"city":"New Richmond","state":"WI","address":"240 Paperjack Drive","name":""},
  {"lat":44.902411,"lon":-91.929667,"city":"Menomonie","state":"WI","address":"320 Oak Avenue","name":""},
  {"lat":44.861376,"lon":-89.634173,"city":"Rothschild","state":"WI","address":"803 W Industrial Park Avenue","name":""},
  {"lat":45.87192,"lon":-89.708706,"city":"Minocqua","state":"WI","address":"320 Front Street","name":""},
  {"lat":44.785108,"lon":-91.529798,"city":"Eau Claire","state":"WI","address":"3340 Mondovi Road","name":""},
  {"lat":43.943697,"lon":-90.767211,"city":"Sparta","state":"WI","address":"4445 Theater Road","name":""},
  {"lat":43.072433,"lon":-89.428232,"city":"Madison","state":"WI","address":"2424 University Avenue","name":""},
  {"lat":37.792737,"lon":-81.213109,"city":"Beckley","state":"WV","address":"125 Hylton Ln","name":""},
  {"lat":39.282175,"lon":-80.277454,"city":"Bridgeport","state":"WV","address":"100 Lodgeville Road","name":""},
  {"lat":42.951615,"lon":-87.911375,"city":"Milwaukee","state":"WI","address":"5105 S Howell Avenue","name":""},
  {"lat":47.183214,"lon":-122.462581,"city":"Tacoma","state":"WA","address":"8045 S Hosmer Street","name":""},
  {"lat":47.745259,"lon":-117.407418,"city":"Spokane","state":"WA","address":"9601 N Newport Highway","name":""},
  {"lat":46.419655,"lon":-117.063146,"city":"Clarkston","state":"WA","address":"1395 Bridge Street","name":""},
  {"lat":47.238506,"lon":-122.427359,"city":"Tacoma","state":"WA","address":"2611 East E Street","name":""},
  {"lat":48.788598,"lon":-122.520257,"city":"Bellingham","state":"WA","address":"3985 Bennett Drive","name":""},
  {"lat":47.483681,"lon":-122.194481,"city":"Renton","state":"WA","address":"1850 Maple Valley Highway","name":""},
  {"lat":47.434679,"lon":-120.319243,"city":"Wenatchee","state":"WA","address":"815 N Wenatchee Avenue","name":""},
  {"lat":46.406311,"lon":-120.279582,"city":"Zillah","state":"WA","address":"911 Vintage Valley Pkwy","name":""},
  {"lat":47.659932,"lon":-117.412604,"city":"Spokane","state":"WA","address":"33 W Spokane Falls Boulevard","name":""},
  {"lat":46.975807,"lon":-123.810114,"city":"Aberdeen","state":"WA","address":"701 E Heron Street","name":""},
  {"lat":48.153366,"lon":-122.179766,"city":"Arlington","state":"WA","address":"3721 172nd Street","name":""},
  {"lat":46.322305,"lon":-117.975784,"city":"Dayton","state":"WA","address":"507 E Main Street","name":""},
  {"lat":47.649395,"lon":-122.690965,"city":"Silverdale","state":"WA","address":"3073 NW Bucklin Hill Road","name":""},
  {"lat":47.06197,"lon":-122.762243,"city":"Lacey","state":"WA","address":"8326 Quinault Drive NE","name":""},
  {"lat":45.579423,"lon":-122.37873,"city":"Washougal","state":"WA","address":"121 S 2nd Street","name":""},
  {"lat":48.421082,"lon":-119.505144,"city":"Omak","state":"WA","address":"820 Koala Avenue","name":""},
  {"lat":47.808285,"lon":-122.383765,"city":"Edmonds","state":"WA","address":"130 W Dayton Street","name":""},
  {"lat":45.7799,"lon":-122.552726,"city":"Battle Ground","state":"WA","address":"1419 W Main Street","name":""},
  {"lat":46.30763,"lon":-119.983204,"city":"Sunnyside","state":"WA","address":"1849 Quail Ln","name":""},
  {"lat":46.98102,"lon":-120.548925,"city":"Ellensburg","state":"WA","address":"211 W Umptanum Road","name":""},
  {"lat":47.673547,"lon":-117.11209,"city":"Liberty Lake","state":"WA","address":"1816 N Pepper Ln","name":""},
  {"lat":45.658944,"lon":-122.574822,"city":"Vancouver","state":"WA","address":"9420 NE Vancouver Mall Drive","name":""},
  {"lat":46.567038,"lon":-120.474058,"city":"Yakima","state":"WA","address":"2408 Rudkin Road","name":""},
  {"lat":47.301535,"lon":-122.234889,"city":"Auburn","state":"WA","address":"401 8th Street SW","name":""},
  {"lat":46.645917,"lon":-122.954816,"city":"Chehalis","state":"WA","address":"201 Interstate Avenue","name":""},
  {"lat":46.622704,"lon":-120.512273,"city":"Yakima","state":"WA","address":"1614 N 1st Street","name":""},
  {"lat":46.184205,"lon":-119.175945,"city":"Kennewick","state":"WA","address":"4001 W 27th Avenue","name":""},
  {"lat":47.601635,"lon":-122.335315,"city":"Seattle","state":"WA","address":"77 Yesler Way","name":""},
  {"lat":46.070585,"lon":-118.341575,"city":"Walla Walla","state":"WA","address":"7 E Oak Street","name":""},
  {"lat":46.220183,"lon":-119.785213,"city":"Prosser","state":"WA","address":"259 Merlot Drive","name":""},
  {"lat":47.161157,"lon":-122.300759,"city":"Puyallup","state":"WA","address":"620 South Hill Park Drive","name":""},
  {"lat":47.38237,"lon":-122.26242,"city":"Kent","state":"WA","address":"24415 Russell Road","name":""},
  {"lat":48.308898,"lon":-122.641693,"city":"Oak Harbor","state":"WA","address":"33175 State Route 20","name":""},
  {"lat":47.103448,"lon":-119.316911,"city":"Moses Lake","state":"WA","address":"3000 W Marina Drive","name":""},
  {"lat":38.404873,"lon":-78.909755,"city":"Harrisonburg","state":"VA","address":"3325 S Main Street","name":""},
  {"lat":38.133406,"lon":-77.514985,"city":"Woodford","state":"VA","address":"5217 Mudd Tavern Road","name":""},
  {"lat":36.712342,"lon":-78.110875,"city":"South Hill","state":"VA","address":"101 Thompson Street","name":""},
  {"lat":37.640008,"lon":-77.459028,"city":"Glen Allen","state":"VA","address":"8607 Telegraph Road","name":""},
  {"lat":37.519143,"lon":-77.340293,"city":"Sandston","state":"VA","address":"5300 Airport Square Ln","name":""},
  {"lat":37.270427,"lon":-77.316207,"city":"Hopewell","state":"VA","address":"3950 Courthouse Road","name":""},
  {"lat":47.620725,"lon":-117.505715,"city":"Spokane","state":"WA","address":"3711 S Geiger Boulevard","name":""},
  {"lat":38.062826,"lon":-78.94137,"city":"Waynesboro","state":"VA","address":"109 Apple Tree Ln","name":""},
  {"lat":37.979303,"lon":-78.213077,"city":"Zion Crossroads","state":"VA","address":"135 Wood Ridge Ter","name":""},
  {"lat":37.108957,"lon":-76.499878,"city":"Newport News","state":"VA","address":"500 Operations Drive","name":""},
  {"lat":37.608603,"lon":-77.519846,"city":"Richmond","state":"VA","address":"7007 W Broad Street","name":""},
  {"lat":36.943465,"lon":-76.233935,"city":"Norfolk","state":"VA","address":"1330 E Ocean View Avenue","name":""},
  {"lat":37.308875,"lon":-79.970755,"city":"Roanoke","state":"VA","address":"5050 Valley View Boulevard NW","name":""},
  {"lat":38.719565,"lon":-77.126365,"city":"Alexandria","state":"VA","address":"8751 Richmond Highway","name":""},
  {"lat":37.804235,"lon":-79.415735,"city":"Lexington","state":"VA","address":"25 Willow Springs Road","name":""},
  {"lat":37.505595,"lon":-77.57583,"city":"North Chesterfield","state":"VA","address":"9826 Midlothian Turnpike","name":""},
  {"lat":44.345142,"lon":-72.748047,"city":"Waterbury","state":"VT","address":"45 Blush Hill Road","name":""},
  {"lat":44.470415,"lon":-73.178903,"city":"South Burlington","state":"VT","address":"1076 Williston Road","name":""},
  {"lat":37.143235,"lon":-113.48728,"city":"Washington","state":"UT","address":"1294 E Hospitality Way","name":""},
  {"lat":40.255668,"lon":-111.660678,"city":"Provo","state":"UT","address":"1600 N Freedom Boulevard","name":""},
  {"lat":37.190869,"lon":-112.995154,"city":"Springdale","state":"UT","address":"668 Zion Park Boulevard","name":""},
  {"lat":40.49209,"lon":-111.411608,"city":"Heber City","state":"UT","address":"1227 S US Highway 40","name":""},
  {"lat":37.681335,"lon":-113.062544,"city":"Cedar City","state":"UT","address":"50 W 200 N","name":""},
  {"lat":37.211632,"lon":-113.270439,"city":"La Verkin","state":"UT","address":"44 W 500 N","name":""},
  {"lat":40.738495,"lon":-114.034285,"city":"Wendover","state":"UT","address":"685 E Wendover Boulevard","name":""},
  {"lat":40.302645,"lon":-109.955125,"city":"Ballard","state":"UT","address":"2477 E Highway 40","name":""},
  {"lat":40.773805,"lon":-112.021705,"city":"Salt Lake City","state":"UT","address":"5433 W Wiley Post Way","name":""},
  {"lat":41.081385,"lon":-111.980365,"city":"Layton","state":"UT","address":"798 W 1425 N","name":""},
  {"lat":41.139281,"lon":-111.91428,"city":"South Ogden","state":"UT","address":"6650 Highway 89","name":""},
  {"lat":37.674493,"lon":-112.153191,"city":"Bryce Canyon City","state":"UT","address":"30 N 100 E","name":""},
  {"lat":40.557305,"lon":-111.893725,"city":"Sandy","state":"UT","address":"10695 Auto Mall Drive","name":""},
  {"lat":37.089085,"lon":-113.585005,"city":"St. George","state":"UT","address":"1129 S Bluff Street","name":""},
  {"lat":38.573019,"lon":-109.551398,"city":"Moab","state":"UT","address":"16 S Main Street","name":""},
  {"lat":41.244374,"lon":-112.012409,"city":"Ogden","state":"UT","address":"1335 W 1200 S","name":""},
  {"lat":40.726675,"lon":-111.546775,"city":"Park City","state":"UT","address":"6560 N Landmark Drive","name":""},
  {"lat":41.736135,"lon":-111.834655,"city":"Logan","state":"UT","address":"250 N Main Street","name":""},
  {"lat":37.673571,"lon":-112.15695,"city":"Bryce Canyon City","state":"UT","address":"26 South Main Street","name":""},
  {"lat":38.571416,"lon":-109.550544,"city":"Moab","state":"UT","address":"105 S Main Street","name":""},
  {"lat":40.860345,"lon":-111.901295,"city":"North Salt Lake","state":"UT","address":"1030 N 400 E","name":""},
  {"lat":29.600987,"lon":-95.351868,"city":"Houston","state":"TX","address":"14402 Old Chocolate Bayou Road","name":""},
  {"lat":29.620128,"lon":-95.605417,"city":"Sugar Land","state":"TX","address":"14444 Southwest Freeway","name":""},
  {"lat":32.840188,"lon":-97.293897,"city":"Fort Worth","state":"TX","address":"3751 NE Loop 820","name":""},
  {"lat":35.194462,"lon":-101.816159,"city":"Amarillo","state":"TX","address":"1505 Ross Street","name":""},
  {"lat":31.728559,"lon":-98.984497,"city":"Brownwood","state":"TX","address":"504 W Commerce Street","name":""},
  {"lat":32.308095,"lon":-95.468407,"city":"Chandler","state":"TX","address":"302 N Sawmill Road","name":""},
  {"lat":32.20223,"lon":-98.23985,"city":"Stephenville","state":"TX","address":"121 S Lockhart Road","name":""},
  {"lat":29.786189,"lon":-95.644129,"city":"Houston","state":"TX","address":"1000 Highway 6 N","name":""},
  {"lat":26.183071,"lon":-98.239412,"city":"McAllen","state":"TX","address":"1500 Wichita Avenue","name":""},
  {"lat":29.938484,"lon":-93.979705,"city":"Port Arthur","state":"TX","address":"7550 Anchor Drive","name":""},
  {"lat":31.085129,"lon":-97.712515,"city":"Killeen","state":"TX","address":"2709 Cunningham Road","name":""},
  {"lat":35.192736,"lon":-101.922729,"city":"Amarillo","state":"TX","address":"7410 W Amarillo Boulevard","name":""},
  {"lat":30.0607,"lon":-95.908427,"city":"Waller","state":"TX","address":"19720 Stokes Road","name":""},
  {"lat":29.653292,"lon":-97.59705,"city":"Luling","state":"TX","address":"4120 E Pierce Street","name":""},
  {"lat":28.983291,"lon":-95.984609,"city":"Bay City","state":"TX","address":"501 7th Street","name":""},
  {"lat":29.402917,"lon":-98.441801,"city":"San Antonio","state":"TX","address":"333 Roland Avenue","name":""},
  {"lat":30.089845,"lon":-97.814635,"city":"Buda","state":"TX","address":"15295 S IH 35 Bldg 900","name":""},
  {"lat":30.320695,"lon":-97.708625,"city":"Austin","state":"TX","address":"919 E Koenig Ln","name":""},
  {"lat":32.414005,"lon":-100.860195,"city":"Colorado City","state":"TX","address":"2304 N State Highway 208","name":""},
  {"lat":32.963354,"lon":-102.821703,"city":"Denver City","state":"TX","address":"830 E Broadway Street","name":""},
  {"lat":29.253585,"lon":-94.849455,"city":"Galveston","state":"TX","address":"8502 Seawall Boulevard","name":""},
  {"lat":31.191666,"lon":-101.449822,"city":"Big Lake","state":"TX","address":"1401 E US Highway 67","name":""},
  {"lat":33.602944,"lon":-101.911672,"city":"Lubbock","state":"TX","address":"4703 N Loop 289","name":""},
  {"lat":29.439815,"lon":-98.461595,"city":"San Antonio","state":"TX","address":"2131 PanAm Expressway","name":""},
  {"lat":31.054305,"lon":-98.178745,"city":"Lampasas","state":"TX","address":"1504 S Key Avenue","name":""},
  {"lat":30.421987,"lon":-97.590263,"city":"Pflugerville","state":"TX","address":"16101 Impact Way","name":""},
  {"lat":32.836765,"lon":-97.089255,"city":"Euless","state":"TX","address":"421 Airport Freeway","name":""},
  {"lat":28.678289,"lon":-99.181102,"city":"Dilley","state":"TX","address":"16491 South I-35","name":""},
  {"lat":30.067835,"lon":-95.431135,"city":"Spring","state":"TX","address":"353 E Louetta Road","name":""},
  {"lat":31.779495,"lon":-106.393235,"city":"El Paso","state":"TX","address":"6655 Gateway Boulevard W","name":""},
  {"lat":30.564405,"lon":-96.265655,"city":"College Station","state":"TX","address":"950 Arrington Road","name":""},
  {"lat":29.695027,"lon":-97.105138,"city":"Flatonia","state":"TX","address":"310 B East Highway I-10 Frontage Road","name":""},
  {"lat":29.01808,"lon":-95.434163,"city":"Lake Jackson","state":"TX","address":"702 Highway 332 E","name":""},
  {"lat":30.90401,"lon":-102.902595,"city":"Fort Stockton","state":"TX","address":"2115 Interstate 10 West","name":""},
  {"lat":29.221875,"lon":-98.412885,"city":"Elmendorf","state":"TX","address":"20015 Eagle Ford Way","name":""},
  {"lat":32.431225,"lon":-96.838885,"city":"Waxahachie","state":"TX","address":"1701 N Highway 77","name":""},
  {"lat":29.653195,"lon":-95.261845,"city":"Houston","state":"TX","address":"8778 Airport Boulevard","name":""},
  {"lat":27.527633,"lon":-99.5039,"city":"Laredo","state":"TX","address":"3110 Santa Ursula Avenue","name":""},
  {"lat":32.715825,"lon":-102.645804,"city":"Seminole","state":"TX","address":"308 S Main Street (Hwy 385)","name":""},
  {"lat":31.905313,"lon":-102.300947,"city":"Odessa","state":"TX","address":"7001 Tres Hermanas Boulevard","name":""},
  {"lat":32.659335,"lon":-97.275765,"city":"Fort Worth","state":"TX","address":"3230 Forest Hill Circle","name":""},
  {"lat":30.643805,"lon":-97.682515,"city":"Georgetown","state":"TX","address":"600 San Gabriel Village Boulevard","name":""},
  {"lat":28.942254,"lon":-98.507249,"city":"Pleasanton","state":"TX","address":"1917 W Oaklawn Road","name":""},
  {"lat":28.544388,"lon":-99.845958,"city":"Carrizo Springs","state":"TX","address":"2474 N 1st Street","name":""},
  {"lat":29.599255,"lon":-98.279245,"city":"Schertz","state":"TX","address":"17401 IH 35 N","name":""},
  {"lat":30.130296,"lon":-94.014052,"city":"Vidor","state":"TX","address":"165 E Courtland Street","name":""},
  {"lat":32.727389,"lon":-97.790852,"city":"Weatherford","state":"TX","address":"210 Alford Drive","name":""},
  {"lat":32.783935,"lon":-97.060535,"city":"Grand Prairie","state":"TX","address":"2075 N State Highway 360","name":""},
  {"lat":30.12701,"lon":-95.228177,"city":"New Caney","state":"TX","address":"22033 US Highway 59","name":""},
  {"lat":31.596785,"lon":-97.109735,"city":"Bellmead","state":"TX","address":"1502 Interstate 35 N","name":""},
  {"lat":28.668815,"lon":-97.383705,"city":"Goliad","state":"TX","address":"754 East Pearl Street","name":""},
  {"lat":32.865282,"lon":-95.752103,"city":"Emory","state":"TX","address":"1026 E Lennon Drive","name":""},
  {"lat":31.810935,"lon":-94.194995,"city":"Center","state":"TX","address":"210 Moffett Drive","name":""},
  {"lat":29.310989,"lon":-94.767857,"city":"Galveston","state":"TX","address":"102 Seawall Boulevard","name":""},
  {"lat":28.835811,"lon":-97.865127,"city":"Kenedy","state":"TX","address":"205 Business Park Boulevard","name":""},
  {"lat":32.907781,"lon":-96.452137,"city":"Rockwall","state":"TX","address":"996 E I-30","name":""},
  {"lat":29.225456,"lon":-98.789991,"city":"Lytle","state":"TX","address":"19876 I-35 South","name":""},
  {"lat":30.220325,"lon":-97.691167,"city":"Austin","state":"TX","address":"1805 Airport Commerce Drive","name":""},
  {"lat":32.217581,"lon":-95.822984,"city":"Athens","state":"TX","address":"1814 State Highway 31 E","name":""},
  {"lat":31.97554,"lon":-102.064041,"city":"Midland","state":"TX","address":"601 E I-20 & Terrell Street","name":""},
  {"lat":33.859385,"lon":-98.531645,"city":"Wichita Falls","state":"TX","address":"4540 Maplewood Avenue","name":""},
  {"lat":29.318339,"lon":-98.554625,"city":"San Antonio","state":"TX","address":"12507 SW Loop 410","name":""},
  {"lat":33.764266,"lon":-96.583927,"city":"Denison","state":"TX","address":"810 N US Highway 75","name":""},
  {"lat":31.396065,"lon":-103.505644,"city":"Pecos","state":"TX","address":"141 S Frontage Road","name":""},
  {"lat":29.473206,"lon":-95.371807,"city":"Manvel","state":"TX","address":"19301 Highway 6","name":""},
  {"lat":29.782935,"lon":-95.807363,"city":"Katy","state":"TX","address":"2006 Katy Mills Boulevard","name":""},
  {"lat":29.458811,"lon":-98.320488,"city":"San Antonio","state":"TX","address":"8669 E IH-10","name":""},
  {"lat":29.39504,"lon":-98.65099,"city":"San Antonio","state":"TX","address":"3635 Crooked Trl","name":""},
  {"lat":33.092805,"lon":-96.113335,"city":"Greenville","state":"TX","address":"3001 Mustang Crossing Annex","name":""},
  {"lat":32.539175,"lon":-97.311321,"city":"Burleson","state":"TX","address":"516 Memorial Plz","name":""},
  {"lat":32.577751,"lon":-97.128793,"city":"Mansfield","state":"TX","address":"775 Highway 287 N","name":""},
  {"lat":32.450745,"lon":-100.401035,"city":"Sweetwater","state":"TX","address":"300 NW Georgia Avenue","name":""},
  {"lat":32.756295,"lon":-96.466025,"city":"Forney","state":"TX","address":"752 Pinson Road","name":""},
  {"lat":32.641529,"lon":-96.888601,"city":"Duncanville","state":"TX","address":"922 E Highway 67","name":""},
  {"lat":31.574335,"lon":-102.890475,"city":"Monahans","state":"TX","address":"2101 S Betty Street","name":""},
  {"lat":27.892485,"lon":-97.311983,"city":"Portland","state":"TX","address":"1707 Highway 181","name":""},
  {"lat":33.130777,"lon":-97.037081,"city":"Lake Dallas","state":"TX","address":"305 Swisher Road","name":""},
  {"lat":28.864127,"lon":-97.003097,"city":"Victoria","state":"TX","address":"8106 NE Zac Lentz Pkwy","name":""},
  {"lat":29.999375,"lon":-95.158295,"city":"Humble","state":"TX","address":"7730 FM 1960 Road E","name":""},
  {"lat":33.08695,"lon":-98.585246,"city":"Graham","state":"TX","address":"1707 Highway 16 S","name":""},
  {"lat":30.208996,"lon":-95.455384,"city":"The Woodlands","state":"TX","address":"17081 Interstate 45 S","name":""},
  {"lat":31.288725,"lon":-94.728805,"city":"Lufkin","state":"TX","address":"3211 S 1st Street","name":""},
  {"lat":35.232365,"lon":-100.248595,"city":"Shamrock","state":"TX","address":"1802 N Main Street","name":""},
  {"lat":30.262135,"lon":-98.872775,"city":"Fredericksburg","state":"TX","address":"314 E Highway Street","name":""},
  {"lat":29.612235,"lon":-98.468245,"city":"San Antonio","state":"TX","address":"18555 US Highway 281 N","name":""},
  {"lat":33.195085,"lon":-96.637365,"city":"McKinney","state":"TX","address":"480 Wilson Creek Boulevard","name":""},
  {"lat":32.811115,"lon":-97.420835,"city":"Lake Worth","state":"TX","address":"3920 Boat Club Road","name":""},
  {"lat":29.75765,"lon":-95.377205,"city":"Houston","state":"TX","address":"915 W Dallas Street","name":""},
  {"lat":34.943214,"lon":-100.897434,"city":"Clarendon","state":"TX","address":"902 W 2nd Street","name":""},
  {"lat":29.823165,"lon":-95.474705,"city":"Houston","state":"TX","address":"11611 Northwest Freeway","name":""},
  {"lat":29.979755,"lon":-95.423745,"city":"Houston","state":"TX","address":"14753 North Freeway","name":""},
  {"lat":26.276895,"lon":-98.168915,"city":"Edinburg","state":"TX","address":"2708 S US Highway 281 (Closner Blvd)","name":""},
  {"lat":33.016195,"lon":-96.983985,"city":"Lewisville","state":"TX","address":"330 E Corporate Drive","name":""},
  {"lat":29.774381,"lon":-95.242692,"city":"Houston","state":"TX","address":"10521 East Freeway","name":""},
  {"lat":33.231095,"lon":-97.172055,"city":"Denton","state":"TX","address":"2910 W University Drive","name":""},
  {"lat":32.289115,"lon":-95.304415,"city":"Tyler","state":"TX","address":"120 W Rieck Road","name":""},
  {"lat":32.919459,"lon":-97.018319,"city":"Irving","state":"TX","address":"5050 W John Carpenter Freeway","name":""},
  {"lat":36.044356,"lon":-86.655621,"city":"Antioch","state":"TN","address":"510 Collins Park Drive","name":""},
  {"lat":35.193329,"lon":-84.891078,"city":"Cleveland","state":"TN","address":"107 Interstate Drive NW","name":""},
  {"lat":35.280771,"lon":-87.317026,"city":"Lawrenceburg","state":"TN","address":"One Western Way","name":""},
  {"lat":35.677034,"lon":-88.784664,"city":"Jackson","state":"TN","address":"2443 Christmasville Cove","name":""},
  {"lat":36.208952,"lon":-86.777571,"city":"Nashville","state":"TN","address":"2401 Brick Church Pike","name":""},
  {"lat":35.825074,"lon":-83.575707,"city":"Pigeon Forge","state":"TN","address":"1949 Parkway","name":""},
  {"lat":36.146317,"lon":-86.663618,"city":"Nashville","state":"TN","address":"911 Airport Center Drive","name":""},
  {"lat":36.601455,"lon":-87.277395,"city":"Clarksville","state":"TN","address":"275 Alfred Thun Road","name":""},
  {"lat":36.133906,"lon":-86.723937,"city":"Nashville","state":"TN","address":"825 Murfreesboro Pike","name":""},
  {"lat":36.139165,"lon":-83.278545,"city":"Morristown","state":"TN","address":"130 Cracker Road","name":""},
  {"lat":35.139306,"lon":-90.022232,"city":"Memphis","state":"TN","address":"1177 Madison Avenue","name":""},
  {"lat":36.150875,"lon":-86.858655,"city":"Nashville","state":"TN","address":"5600 OBRIEN AVE","name":""},
  {"lat":35.203609,"lon":-89.775043,"city":"Memphis","state":"TN","address":"8635 US Highway 64","name":""},
  {"lat":35.999409,"lon":-83.774134,"city":"Knoxville","state":"TN","address":"7260 Saddlerack Street","name":""},
  {"lat":36.151395,"lon":-86.789155,"city":"Nashville","state":"TN","address":"1407 Division Street","name":""},
  {"lat":35.914865,"lon":-84.100635,"city":"Knoxville","state":"TN","address":"420 N Peters Road","name":""},
  {"lat":43.99204,"lon":-97.106385,"city":"Madison","state":"SD","address":"456 SE 12th Street","name":""},
  {"lat":44.095063,"lon":-103.1544,"city":"Rapid City","state":"SD","address":"3723 Eglin Street","name":""},
  {"lat":43.573325,"lon":-96.770305,"city":"Sioux Falls","state":"SD","address":"3200 W Maple Street","name":""},
  {"lat":32.294973,"lon":-80.940888,"city":"Bluffton","state":"SC","address":"259 Okatie Village Drive","name":""},
  {"lat":33.989863,"lon":-81.236147,"city":"Lexington","state":"SC","address":"601 Columbia Avenue","name":""},
  {"lat":34.839924,"lon":-82.31707,"city":"Greenville","state":"SC","address":"831 Congaree Road","name":""},
  {"lat":35.011905,"lon":-81.955145,"city":"Spartanburg","state":"SC","address":"125 Sloane Garden Road","name":""},
  {"lat":32.275103,"lon":-81.080094,"city":"Hardeeville","state":"SC","address":"18102 Whyte Hardee Boulevard","name":""},
  {"lat":33.775435,"lon":-78.796835,"city":"Myrtle Beach","state":"SC","address":"9551 N Kings Highway","name":""},
  {"lat":34.775005,"lon":-82.466345,"city":"Piedmont","state":"SC","address":"70 Kalyns Way","name":""},
  {"lat":34.688695,"lon":-82.825195,"city":"Clemson","state":"SC","address":"1310 Tiger Boulevard","name":""},
  {"lat":33.484105,"lon":-80.467955,"city":"Santee","state":"SC","address":"9059 Old Number Six Highway","name":""},
  {"lat":39.908843,"lon":-76.705598,"city":"York","state":"PA","address":"140 Leaders Heights Road","name":""},
  {"lat":41.331399,"lon":-75.736849,"city":"Pittston","state":"PA","address":"30 Concorde Drive","name":""},
  {"lat":40.300271,"lon":-76.611448,"city":"Hershey","state":"PA","address":"1800 E Chocolate Avenue","name":""},
  {"lat":41.482015,"lon":-75.688811,"city":"Clarks Summit","state":"PA","address":"820 Northern Boulevard","name":""},
  {"lat":40.688216,"lon":-80.089529,"city":"Cranberry Township","state":"PA","address":"5001 Cranberry Springs Drive","name":""},
  {"lat":40.288401,"lon":-76.985295,"city":"Enola","state":"PA","address":"4900 Woodland DR","name":""},
  {"lat":39.957823,"lon":-75.159432,"city":"Philadelphia","state":"PA","address":"1225 Vine Street","name":""},
  {"lat":41.035044,"lon":-78.400415,"city":"Clearfield","state":"PA","address":"14424 Clearfield Shawville Highway","name":""},
  {"lat":41.042555,"lon":-75.312335,"city":"Tannersville","state":"PA","address":"2647 Route 715","name":""},
  {"lat":40.839505,"lon":-77.801645,"city":"State College","state":"PA","address":"115 Premiere Drive","name":""},
  {"lat":39.860266,"lon":-75.359964,"city":"Chester","state":"PA","address":"1450 Providence Avenue","name":""},
  {"lat":40.303095,"lon":-75.985735,"city":"Shillington","state":"PA","address":"2299 Lancaster Pike","name":""},
  {"lat":40.212355,"lon":-76.881125,"city":"New Cumberland","state":"PA","address":"702 Limekiln Road","name":""},
  {"lat":41.953505,"lon":-78.646655,"city":"Bradford","state":"PA","address":"100 S Davis Street","name":""},
  {"lat":41.401153,"lon":-78.561221,"city":"St. Marys","state":"PA","address":"1002 Earth Road","name":""},
  {"lat":39.884804,"lon":-75.524069,"city":"Glen Mills","state":"PA","address":"675 Conchester Highway","name":""},
  {"lat":41.244153,"lon":-75.880323,"city":"Wilkes-Barre","state":"PA","address":"77 E Market Street","name":""},
  {"lat":40.012685,"lon":-76.135304,"city":"Paradise","state":"PA","address":"3063 Lincoln Highway E (US 30)","name":""},
  {"lat":40.037419,"lon":-76.105836,"city":"Intercourse","state":"PA","address":"3610 E Newport Road","name":""},
  {"lat":45.33647,"lon":-122.767389,"city":"Wilsonville","state":"OR","address":"8815 SW Sun Place","name":""},
  {"lat":42.211625,"lon":-121.756765,"city":"Klamath Falls","state":"OR","address":"2627 S 6th Street","name":""},
  {"lat":45.566597,"lon":-122.539827,"city":"Portland","state":"OR","address":"11938 NE Airport Way","name":""},
  {"lat":44.631505,"lon":-123.057415,"city":"Albany","state":"OR","address":"1100 Price Road SE","name":""},
  {"lat":43.388106,"lon":-123.334892,"city":"Sutherlin","state":"OR","address":"150 Myrtle Street","name":""},
  {"lat":44.6583,"lon":-124.054682,"city":"Newport","state":"OR","address":"3019 N Coast Highway","name":""},
  {"lat":45.367495,"lon":-122.601725,"city":"Oregon City","state":"OR","address":"1900 Clackamette Drive","name":""},
  {"lat":45.329145,"lon":-118.073235,"city":"La Grande","state":"OR","address":"1711 21st Street","name":""},
  {"lat":45.663177,"lon":-121.897655,"city":"Cascade Locks","state":"OR","address":"735 WaNaPa Street","name":""},
  {"lat":44.932676,"lon":-124.019838,"city":"Lincoln City","state":"OR","address":"4430 SE Highway 101","name":""},
  {"lat":45.71182,"lon":-121.499037,"city":"Hood River","state":"OR","address":"1108 E Marina Way","name":""},
  {"lat":44.082068,"lon":-123.039849,"city":"Springfield","state":"OR","address":"971 Kruse Way","name":""},
  {"lat":44.920186,"lon":-122.998042,"city":"Salem","state":"OR","address":"3125 Ryan Drive SE","name":""},
  {"lat":45.996834,"lon":-123.928561,"city":"Seaside","state":"OR","address":"414 N Prom","name":""},
  {"lat":45.403513,"lon":-122.798006,"city":"Tigard","state":"OR","address":"16105 SW Pacific Highway","name":""},
  {"lat":44.251705,"lon":-121.185935,"city":"Redmond","state":"OR","address":"2630 SW 17th Place","name":""},
  {"lat":34.740873,"lon":-97.257289,"city":"Pauls Valley","state":"OK","address":"2509 W Grant Avenue","name":""},
  {"lat":35.047048,"lon":-97.922658,"city":"Chickasha","state":"OK","address":"430 S. Grand Avenue","name":""},
  {"lat":35.417735,"lon":-97.488995,"city":"Oklahoma City","state":"OK","address":"4750 S I-35 Service Road","name":""},
  {"lat":35.386885,"lon":-99.404185,"city":"Elk City","state":"OK","address":"105 Meadow Ridge Drive","name":""},
  {"lat":35.127464,"lon":-96.492458,"city":"Wewoka","state":"OK","address":"201 Commerce Drive","name":""},
  {"lat":34.172115,"lon":-97.161615,"city":"Ardmore","state":"OK","address":"2600 W Broadway","name":""},
  {"lat":36.276194,"lon":-98.479026,"city":"Fairview","state":"OK","address":"802 N Main Street","name":""},
  {"lat":35.966941,"lon":-95.655755,"city":"Coweta","state":"OK","address":"13593 State Highway 51 S","name":""},
  {"lat":36.074165,"lon":-95.862215,"city":"Tulsa","state":"OK","address":"10143 E 62nd Street S","name":""},
  {"lat":35.985245,"lon":-96.767245,"city":"Cushing","state":"OK","address":"508 E Main Street","name":""},
  {"lat":34.080931,"lon":-96.763591,"city":"Madill","state":"OK","address":"827 South First Street","name":""},
  {"lat":36.125615,"lon":-97.060365,"city":"Stillwater","state":"OK","address":"315 N Husband Street","name":""},
  {"lat":36.684229,"lon":-101.468631,"city":"Guymon","state":"OK","address":"1102 NE 6th Street","name":""},
  {"lat":35.389105,"lon":-97.533255,"city":"Oklahoma City","state":"OK","address":"7701 C A Henderson Boulevard","name":""},
  {"lat":35.436223,"lon":-97.410122,"city":"Midwest City","state":"OK","address":"6701 Tinker Diagonal","name":""},
  {"lat":35.609295,"lon":-97.534645,"city":"Oklahoma City","state":"OK","address":"1301 W Memorial Road","name":""},
  {"lat":36.116645,"lon":-95.889715,"city":"Tulsa","state":"OK","address":"3212 S 79th East Avenue","name":""},
  {"lat":35.466515,"lon":-97.725826,"city":"Yukon","state":"OK","address":"11440 W I-40 Service Road","name":""},
  {"lat":35.526205,"lon":-98.701475,"city":"Weatherford","state":"OK","address":"525 E Main Street","name":""},
  {"lat":41.311937,"lon":-81.807084,"city":"Strongsville","state":"OH","address":"15471 Royalton Road","name":""},
  {"lat":40.900469,"lon":-80.694868,"city":"Columbiana","state":"OH","address":"150 E State Route 14","name":""},
  {"lat":40.373364,"lon":-80.621022,"city":"Steubenville","state":"OH","address":"200 Franciscan Square","name":""},
  {"lat":41.020645,"lon":-80.630275,"city":"Poland","state":"OH","address":"7400 Tiffany S","name":""},
  {"lat":39.63247,"lon":-84.228705,"city":"Miamisburg","state":"OH","address":"300 Prestige Place","name":""},
  {"lat":39.206583,"lon":-84.372573,"city":"Cincinnati","state":"OH","address":"5900 E Galbraith Road","name":""},
  {"lat":39.259695,"lon":-84.791965,"city":"Harrison","state":"OH","address":"391 Comfort Drive","name":""},
  {"lat":41.397005,"lon":-82.653185,"city":"Sandusky","state":"OH","address":"6011 Milan Road","name":""},
  {"lat":41.666456,"lon":-81.338886,"city":"Mentor","state":"OH","address":"8434 Mentor Avenue","name":""},
  {"lat":40.880935,"lon":-81.434635,"city":"North Canton","state":"OH","address":"6889 Sunset Strip Avenue NW","name":""},
  {"lat":48.183275,"lon":-103.629495,"city":"Williston","state":"ND","address":"4201 4th Avenue West","name":""},
  {"lat":40.798045,"lon":-81.936815,"city":"Wooster","state":"OH","address":"243 E Liberty","name":""},
  {"lat":46.85318,"lon":-96.860463,"city":"Fargo","state":"ND","address":"1767 44th Street S","name":""},
  {"lat":35.85663,"lon":-78.704125,"city":"Raleigh","state":"NC","address":"6209 Glenwood Avenue","name":""},
  {"lat":35.087342,"lon":-80.881338,"city":"Pineville","state":"NC","address":"9825 Leitner Drive","name":""},
  {"lat":36.129881,"lon":-80.26282,"city":"Winston Salem","state":"NC","address":"3050 University Pkwy","name":""},
  {"lat":36.074175,"lon":-80.299665,"city":"Winston Salem","state":"NC","address":"3330 Silas Creek Pkwy","name":""},
  {"lat":34.247005,"lon":-77.872225,"city":"Wilmington","state":"NC","address":"5345 Market Street","name":""},
  {"lat":36.239935,"lon":-80.816235,"city":"Jonesville","state":"NC","address":"1713 N.C. Highway 67","name":""},
  {"lat":35.40603,"lon":-80.853425,"city":"Huntersville","state":"NC","address":"13830 Statesville Road","name":""},
  {"lat":35.724165,"lon":-78.644725,"city":"Garner","state":"NC","address":"1595 Mechanical Boulevard","name":""},
  {"lat":35.385975,"lon":-77.948115,"city":"Goldsboro","state":"NC","address":"909 N Spence Avenue","name":""},
  {"lat":35.60282,"lon":-77.332291,"city":"Greenville","state":"NC","address":"2310 Greenville Boulevard NE","name":""},
  {"lat":35.36696,"lon":-83.256446,"city":"Dillsboro","state":"NC","address":"248 WBI Drive","name":""},
  {"lat":34.241375,"lon":-77.951815,"city":"Wilmington","state":"NC","address":"503 Nutt Street","name":""},
  {"lat":36.071045,"lon":-79.493355,"city":"Burlington","state":"NC","address":"770 Huffman Mill Road","name":""},
  {"lat":34.209425,"lon":-78.028165,"city":"Leland","state":"NC","address":"1120 Towne Lake Drive","name":""},
  {"lat":42.162397,"lon":-76.841365,"city":"Horseheads","state":"NY","address":"2671 Corning Road","name":""},
  {"lat":40.71817,"lon":-74.001287,"city":"New York City","state":"NY","address":"88 Walker Street","name":""},
  {"lat":42.398782,"lon":-77.227167,"city":"Hammondsport","state":"NY","address":"8440 State Route 54","name":""},
  {"lat":41.939045,"lon":-74.028864,"city":"Kingston","state":"NY","address":"503 Washington Avenue","name":""},
  {"lat":42.561844,"lon":-76.22577,"city":"Cortland","state":"NY","address":"3175 Fingerlake East Drive (Off Route 13 South)","name":""},
  {"lat":41.655225,"lon":-73.870825,"city":"Poughkeepsie","state":"NY","address":"50 Red Oaks Mill Road","name":""},
  {"lat":43.0058,"lon":-77.444155,"city":"Victor","state":"NY","address":"7449 State Route 96","name":""},
  {"lat":43.858065,"lon":-73.427791,"city":"Ticonderoga","state":"NY","address":"260 Burgoyne Road","name":""},
  {"lat":40.58408,"lon":-73.938501,"city":"Brooklyn","state":"NY","address":"3003 Emmons Avenue","name":""},
  {"lat":42.656506,"lon":-77.054862,"city":"Penn Yan","state":"NY","address":"142 Lake Street","name":""},
  {"lat":42.076179,"lon":-78.466764,"city":"Olean","state":"NY","address":"3051 W State Street","name":""},
  {"lat":42.734195,"lon":-73.689005,"city":"Troy","state":"NY","address":"1 4th Street","name":""},
  {"lat":44.698395,"lon":-73.491565,"city":"Plattsburgh","state":"NY","address":"446 Route 3","name":""},
  {"lat":43.459655,"lon":-76.509635,"city":"Oswego","state":"NY","address":"26 East 1st Street","name":""},
  {"lat":32.392715,"lon":-104.218748,"city":"Carlsbad","state":"NM","address":"2601 Patrick Street","name":""},
  {"lat":35.529045,"lon":-108.727675,"city":"Gallup","state":"NM","address":"910 E Aztec Avenue","name":""},
  {"lat":36.766985,"lon":-108.149775,"city":"Farmington","state":"NM","address":"4751 Cortez Way","name":""},
  {"lat":36.884595,"lon":-104.435885,"city":"Raton","state":"NM","address":"473 Clayton Road","name":""},
  {"lat":35.615318,"lon":-105.207855,"city":"Las Vegas","state":"NM","address":"2020 N Grand Avenue","name":""},
  {"lat":33.316355,"lon":-105.634845,"city":"Ruidoso","state":"NM","address":"97 Camelot Drive","name":""},
  {"lat":35.64482,"lon":-106.007487,"city":"Santa Fe","state":"NM","address":"3650 Cerrillos Road","name":""},
  {"lat":35.104475,"lon":-106.671235,"city":"Albuquerque","state":"NM","address":"1015 Rio Grande Boulevard NW","name":""},
  {"lat":40.788684,"lon":-74.046135,"city":"Secaucus","state":"NJ","address":"250 Harmon Meadow Boulevard","name":""},
  {"lat":39.933604,"lon":-75.07751,"city":"Pennsauken","state":"NJ","address":"7050 Kaighns Avenue","name":""},
  {"lat":40.704935,"lon":-74.187185,"city":"Newark","state":"NJ","address":"101 International Way","name":""},
  {"lat":40.874885,"lon":-74.300425,"city":"Fairfield","state":"NJ","address":"216 Route 46 E #234","name":""},
  {"lat":40.787801,"lon":-74.47064,"city":"Morristown","state":"NJ","address":"270 South Street","name":""},
  {"lat":43.525906,"lon":-71.469099,"city":"Laconia","state":"NH","address":"480 Main Street","name":""},
  {"lat":42.950167,"lon":-70.831791,"city":"Hampton","state":"NH","address":"815 Lafayette Road","name":""},
  {"lat":43.073347,"lon":-70.779235,"city":"Portsmouth","state":"NH","address":"580 US Highway 1 Bypass Interstate Traffic Circle","name":""},
  {"lat":42.937495,"lon":-71.415035,"city":"Manchester","state":"NH","address":"13500 S Willow Street","name":""},
  {"lat":42.921668,"lon":-72.29349,"city":"Keene","state":"NH","address":"401 Winchester Street","name":""},
  {"lat":39.533709,"lon":-119.742246,"city":"Sparks","state":"NV","address":"55 E Nugget Avenue","name":""},
  {"lat":36.059725,"lon":-115.005225,"city":"Henderson","state":"NV","address":"1553 N Boulder Highway","name":""},
  {"lat":36.242305,"lon":-115.104165,"city":"North Las Vegas","state":"NV","address":"4540 Donovan Way","name":""},
  {"lat":36.142225,"lon":-115.280835,"city":"Las Vegas","state":"NV","address":"8669 W Sahara Avenue","name":""},
  {"lat":36.00013,"lon":-115.121765,"city":"Henderson","state":"NV","address":"3041 Saint Rose Pkwy","name":""},
  {"lat":39.511405,"lon":-119.963485,"city":"Verdi","state":"NV","address":"2100 Boomtown Garson Road","name":""},
  {"lat":40.966375,"lon":-117.742495,"city":"Winnemucca","state":"NV","address":"921 W Winnemucca Boulevard","name":""},
  {"lat":40.878665,"lon":-96.686575,"city":"Lincoln","state":"NE","address":"2201 Wildcat Circle","name":""},
  {"lat":41.105725,"lon":-100.762825,"city":"North Platte","state":"NE","address":"3201 S Jeffers Street","name":""},
  {"lat":41.11202,"lon":-101.716828,"city":"Ogallala","state":"NE","address":"110 Pony Express Ln","name":""},
  {"lat":41.115065,"lon":-102.950385,"city":"Sidney","state":"NE","address":"645 Cabela Drive","name":""},
  {"lat":40.896025,"lon":-98.339135,"city":"Grand Island","state":"NE","address":"2707 S Locust Street","name":""},
  {"lat":40.666875,"lon":-99.086635,"city":"Kearney","state":"NE","address":"224 2nd Avenue S","name":""},
  {"lat":40.817995,"lon":-97.596765,"city":"York","state":"NE","address":"4619 S Lincoln Avenue","name":""},
  {"lat":41.211835,"lon":-96.082045,"city":"Omaha","state":"NE","address":"4706 S 108th Street","name":""},
  {"lat":47.498156,"lon":-111.307252,"city":"Great Falls","state":"MT","address":"600 River Drive S","name":""},
  {"lat":48.556675,"lon":-109.705705,"city":"Havre","state":"MT","address":"1425 Highway 2 NW","name":""},
  {"lat":48.210013,"lon":-114.292952,"city":"Kalispell","state":"MT","address":"255 Montclair Drive","name":""},
  {"lat":45.753845,"lon":-108.539845,"city":"Billings","state":"MT","address":"4915 Southgate Drive","name":""},
  {"lat":48.094315,"lon":-114.237585,"city":"Kalispell","state":"MT","address":"4824 US Highway 93 S","name":""},
  {"lat":48.551805,"lon":-109.663745,"city":"Havre","state":"MT","address":"1345 1st Street","name":""},
  {"lat":46.913705,"lon":-114.032125,"city":"Missoula","state":"MT","address":"5280 Grant Creek Road","name":""},
  {"lat":45.694135,"lon":-111.047725,"city":"Bozeman","state":"MT","address":"1325 N 7th Avenue","name":""},
  {"lat":38.540998,"lon":-90.446486,"city":"Fenton","state":"MO","address":"1680 Fenton Business Park Ct","name":""},
  {"lat":45.783645,"lon":-108.502975,"city":"Billings","state":"MT","address":"2511 1st Avenue N","name":""},
  {"lat":38.714103,"lon":-90.444675,"city":"Maryland Heights","state":"MO","address":"12220 Dorsett Road","name":""},
  {"lat":39.049451,"lon":-94.474255,"city":"Kansas City","state":"MO","address":"4011 Blue Ridge Cut Off","name":""},
  {"lat":37.593979,"lon":-93.405426,"city":"Bolivar","state":"MO","address":"777 E San Martin Street","name":""},
  {"lat":38.999678,"lon":-94.355359,"city":"Lee's Summit","state":"MO","address":"4825 NE Lakewood Way","name":""},
  {"lat":38.962815,"lon":-92.293495,"city":"Columbia","state":"MO","address":"2904 Clark Ln","name":""},
  {"lat":38.536855,"lon":-90.976925,"city":"Washington","state":"MO","address":"2621 E 5th Street","name":""},
  {"lat":36.891645,"lon":-89.530675,"city":"Sikeston","state":"MO","address":"120 S Interstate Drive","name":""},
  {"lat":38.770765,"lon":-90.494875,"city":"St. Charles","state":"MO","address":"1425 S 5th Street","name":""},
  {"lat":37.212925,"lon":-93.371275,"city":"Springfield","state":"MO","address":"4445 W Chestnut Expressway","name":""},
  {"lat":39.294003,"lon":-94.682409,"city":"Kansas City","state":"MO","address":"11130 N Ambassador Drive","name":""},
  {"lat":38.551519,"lon":-92.198893,"city":"Jefferson City","state":"MO","address":"1937 Christy Drive","name":""},
  {"lat":45.982175,"lon":-112.507165,"city":"Butte","state":"MT","address":"2900 Harrison Avenue","name":""},
  {"lat":36.644455,"lon":-93.220615,"city":"Branson","state":"MO","address":"403 W Main Street","name":""},
  {"lat":32.76059,"lon":-89.152516,"city":"Philadelphia","state":"MS","address":"15211 Highway 16 W","name":""},
  {"lat":31.326717,"lon":-89.355499,"city":"Hattiesburg","state":"MS","address":"132 Plaza Drive","name":""},
  {"lat":31.869915,"lon":-89.741855,"city":"Magee","state":"MS","address":"401 8th Avenue SW","name":""},
  {"lat":34.299265,"lon":-88.706735,"city":"Tupelo","state":"MS","address":"3158 N Gloster Street","name":""},
  {"lat":34.960712,"lon":-90.00914,"city":"Horn Lake","state":"MS","address":"6910 Wind Chase Drive","name":""},
  {"lat":34.929081,"lon":-89.796598,"city":"Olive Branch","state":"MS","address":"10915 Business Center Drive","name":""},
  {"lat":32.327755,"lon":-90.118635,"city":"Flowood","state":"MS","address":"1004 Top Street","name":""},
  {"lat":32.323461,"lon":-90.325146,"city":"Clinton","state":"MS","address":"493 Springridge Road","name":""},
  {"lat":32.304095,"lon":-90.168705,"city":"Jackson","state":"MS","address":"725 Larson Street","name":""},
  {"lat":47.208094,"lon":-93.529662,"city":"Grand Rapids","state":"MN","address":"2309 SW 1st Avenue","name":""},
  {"lat":34.964603,"lon":-89.851789,"city":"Olive Branch","state":"MS","address":"7904 Craft-Goodman Frontage Road","name":""},
  {"lat":44.341033,"lon":-93.949592,"city":"St. Peter","state":"MN","address":"1301 Old Minnesota Avenue","name":""},
  {"lat":45.489904,"lon":-93.237727,"city":"Isanti","state":"MN","address":"409 Main Street East","name":""},
  {"lat":45.162325,"lon":-93.234085,"city":"Blaine","state":"MN","address":"10580 Baltimore Street NE","name":""},
  {"lat":45.0604,"lon":-93.142806,"city":"Shoreview","state":"MN","address":"1000 Gramsie Road","name":""},
  {"lat":44.291615,"lon":-94.438205,"city":"New Ulm","state":"MN","address":"2101 S Broadway Street","name":""},
  {"lat":43.834794,"lon":-91.300893,"city":"La Crescent","state":"MN","address":"509 N Chestnut Street","name":""},
  {"lat":45.123995,"lon":-95.015255,"city":"Willmar","state":"MN","address":"2100 Highway 12 E","name":""},
  {"lat":43.686575,"lon":-93.356905,"city":"Albert Lea","state":"MN","address":"821 E Plaza Street","name":""},
  {"lat":45.294095,"lon":-93.797695,"city":"Monticello","state":"MN","address":"89 Chelsea Road","name":""},
  {"lat":45.561225,"lon":-94.155775,"city":"St. Cloud","state":"MN","address":"100 4th Avenue S","name":""},
  {"lat":44.973005,"lon":-93.266555,"city":"Minneapolis","state":"MN","address":"405 S 8th Street","name":""},
  {"lat":47.751365,"lon":-90.330785,"city":"Grand Marais","state":"MN","address":"108 E Highway 61 PO Box 456","name":""},
  {"lat":42.672058,"lon":-85.660232,"city":"Wayland","state":"MI","address":"396 Reno Drive","name":""},
  {"lat":42.942612,"lon":-83.725039,"city":"Flint","state":"MI","address":"6075 Hill 23 Drive","name":""},
  {"lat":46.541265,"lon":-87.419841,"city":"Marquette","state":"MI","address":"1200 Wilson Street","name":""},
  {"lat":41.934645,"lon":-84.976235,"city":"Coldwater","state":"MI","address":"630 E Chicago Street","name":""},
  {"lat":42.266185,"lon":-85.657005,"city":"Kalamazoo","state":"MI","address":"2575 S 11th Street","name":""},
  {"lat":45.776935,"lon":-84.726405,"city":"Mackinaw City","state":"MI","address":"505 S Huron Avenue","name":""},
  {"lat":45.090745,"lon":-93.006505,"city":"White Bear","state":"MN","address":"4940 State Highway 61","name":""},
  {"lat":44.762327,"lon":-85.584769,"city":"Traverse City","state":"MI","address":"305 Munson Avenue (US 31)","name":""},
  {"lat":42.570335,"lon":-70.976065,"city":"Danvers","state":"MA","address":"50 Dayton Street","name":""},
  {"lat":42.481035,"lon":-71.119485,"city":"Woburn","state":"MA","address":"1 Rainin Road","name":""},
  {"lat":42.434215,"lon":-73.311866,"city":"Pittsfield","state":"MA","address":"1350 W Housatonic Street","name":""},
  {"lat":38.075589,"lon":-75.557202,"city":"Pocomoke City","state":"MD","address":"125 Newtowne Boulevard","name":""},
  {"lat":38.384281,"lon":-75.067495,"city":"Ocean City","state":"MD","address":"6007 Coastal Highway","name":""},
  {"lat":38.788245,"lon":-76.059225,"city":"Easton","state":"MD","address":"8708 Alicia Drive","name":""},
  {"lat":42.397755,"lon":-71.258275,"city":"Waltham","state":"MA","address":"380 Winter Street","name":""},
  {"lat":38.993975,"lon":-76.932065,"city":"College Park","state":"MD","address":"8419 Baltimore Avenue","name":""},
  {"lat":39.185765,"lon":-76.756725,"city":"Elkridge","state":"MD","address":"6755 Dorsey Road","name":""},
  {"lat":39.279715,"lon":-76.547195,"city":"Baltimore","state":"MD","address":"5625 O'Donnell Street","name":""},
  {"lat":41.964619,"lon":-70.676651,"city":"Plymouth","state":"MA","address":"180 Court Street","name":""},
  {"lat":44.542705,"lon":-70.549215,"city":"Rumford","state":"ME","address":"50 Prospect Avenue","name":""},
  {"lat":43.900515,"lon":-69.910455,"city":"Brunswick","state":"ME","address":"71 Gurnet Road","name":""},
  {"lat":44.570602,"lon":-69.639635,"city":"Waterville","state":"ME","address":"375 Main Street","name":""},
  {"lat":44.343605,"lon":-69.795325,"city":"Augusta","state":"ME","address":"110 Community Drive","name":""},
  {"lat":30.19063,"lon":-92.012982,"city":"Lafayette","state":"LA","address":"125 E Kaliste Saloom Road","name":""},
  {"lat":30.198775,"lon":-93.203235,"city":"Lake Charles","state":"LA","address":"1245 E Prien Lake Road","name":""},
  {"lat":29.978568,"lon":-90.279689,"city":"Kenner","state":"LA","address":"189 W Airline Drive","name":""},
  {"lat":29.950715,"lon":-89.960225,"city":"Chalmette","state":"LA","address":"3400 Paris Road","name":""},
  {"lat":32.030565,"lon":-93.713155,"city":"Mansfield","state":"LA","address":"611 Jenkins Street","name":""},
  {"lat":32.538995,"lon":-92.625415,"city":"Ruston","state":"LA","address":"1011 Willow Glen Boulevard","name":""},
  {"lat":30.864475,"lon":-93.287095,"city":"Deridder","state":"LA","address":"1055 N Pine Street","name":""},
  {"lat":29.951303,"lon":-90.067331,"city":"New Orleans","state":"LA","address":"114 Magazine Street","name":""},
  {"lat":29.96251,"lon":-90.066458,"city":"New Orleans","state":"LA","address":"920 N Rampart Street","name":""},
  {"lat":30.472903,"lon":-90.860535,"city":"Walker","state":"LA","address":"13600 Hartman Ln","name":""},
  {"lat":29.875165,"lon":-90.049815,"city":"Harvey","state":"LA","address":"1700 Lapalco Boulevard","name":""},
  {"lat":37.716518,"lon":-85.82638,"city":"Elizabethtown","state":"KY","address":"2014 N Mulberry Street","name":""},
  {"lat":37.727046,"lon":-87.125125,"city":"Owensboro","state":"KY","address":"1018 Goetz Drive","name":""},
  {"lat":36.930451,"lon":-86.418714,"city":"Bowling Green","state":"KY","address":"1940 Mel Browning Street","name":""},
  {"lat":38.122303,"lon":-82.629044,"city":"Louisa","state":"KY","address":"18199 Highway 23","name":""},
  {"lat":38.224505,"lon":-84.540765,"city":"Georgetown","state":"KY","address":"132 Darby Drive","name":""},
  {"lat":38.372474,"lon":-97.626483,"city":"McPherson","state":"KS","address":"200 N Champlin Street","name":""},
  {"lat":30.214201,"lon":-93.326961,"city":"Sulphur","state":"LA","address":"1200 Pintail Street","name":""},
  {"lat":37.170436,"lon":-101.325725,"city":"Hugoton","state":"KS","address":"1004 E 11th Street","name":""},
  {"lat":37.129274,"lon":-97.036469,"city":"Arkansas City","state":"KS","address":"6100 Patterson Pkwy","name":""},
  {"lat":37.674135,"lon":-97.387205,"city":"Wichita","state":"KS","address":"3800 W Kellogg Drive","name":""},
  {"lat":39.842349,"lon":-95.525624,"city":"Hiawatha","state":"KS","address":"119 E Lodge Street","name":""},
  {"lat":37.680035,"lon":-97.238055,"city":"Wichita","state":"KS","address":"8300 E Kellogg","name":""},
  {"lat":38.85771,"lon":-94.814393,"city":"Olathe","state":"KS","address":"1580 S Hamilton Circle","name":""},
  {"lat":39.120439,"lon":-94.82234,"city":"Kansas City","state":"KS","address":"10401 France Family Drive","name":""},
  {"lat":39.016337,"lon":-99.890863,"city":"Wakeeney","state":"KS","address":"525 S 1st Street","name":""},
  {"lat":38.899425,"lon":-99.315885,"city":"Hays","state":"KS","address":"1010 E 41st Street","name":""},
  {"lat":38.783075,"lon":-97.620305,"city":"Salina","state":"KS","address":"745 W Schilling Road","name":""},
  {"lat":37.754192,"lon":-100.03266,"city":"Dodge City","state":"KS","address":"506 N 14th Avenue","name":""},
  {"lat":37.60581,"lon":-99.299168,"city":"Greensburg","state":"KS","address":"515 W Kansas Avenue","name":""},
  {"lat":42.494905,"lon":-92.339839,"city":"Waterloo","state":"IA","address":"205 W 4th Street Building A","name":""},
  {"lat":41.281745,"lon":-95.912355,"city":"Carter Lake","state":"IA","address":"2510 Abbott Plz","name":""},
  {"lat":37.649042,"lon":-98.715665,"city":"Pratt","state":"KS","address":"112 NE State Road 61","name":""},
  {"lat":37.977955,"lon":-100.839941,"city":"Garden City","state":"KS","address":"2412 E Kansas Avenue","name":""},
  {"lat":41.653016,"lon":-93.503935,"city":"Altoona","state":"IA","address":"300 34th Avenue NW","name":""},
  {"lat":42.00005,"lon":-93.639005,"city":"Ames","state":"IA","address":"2500 University Boulevard","name":""},
  {"lat":41.603285,"lon":-93.779475,"city":"Clive","state":"IA","address":"1450 NW 118th Street","name":""},
  {"lat":41.594435,"lon":-90.573375,"city":"Davenport","state":"IA","address":"100 W 76th Street","name":""},
  {"lat":42.491245,"lon":-90.709155,"city":"Dubuque","state":"IA","address":"3100 Dodge St, Highway 20 W","name":""},
  {"lat":39.615528,"lon":-86.075846,"city":"Greenwood","state":"IN","address":"1281 South Park Drive","name":""},
  {"lat":40.413096,"lon":-86.815591,"city":"Lafayette","state":"IN","address":"312 Meijer Drive","name":""},
  {"lat":41.22873,"lon":-85.795607,"city":"Warsaw","state":"IN","address":"3825 Lake City Highway","name":""},
  {"lat":42.028565,"lon":-91.619935,"city":"Cedar Rapids","state":"IA","address":"90 Twixt Town Road NE","name":""},
  {"lat":39.88329,"lon":-86.26685,"city":"Indianapolis","state":"IN","address":"7220 Woodland Drive","name":""},
  {"lat":40.078745,"lon":-86.908603,"city":"Crawfordsville","state":"IN","address":"2600 Industrial Boulevard","name":""},
  {"lat":38.546595,"lon":-86.608545,"city":"French Lick","state":"IN","address":"613 S Arnold F Habig Boulevard","name":""},
  {"lat":39.444445,"lon":-87.125805,"city":"Brazil","state":"IN","address":"3882 N State Road 59","name":""},
  {"lat":41.718265,"lon":-86.182155,"city":"Mishawaka","state":"IN","address":"445 W University Drive","name":""},
  {"lat":40.055815,"lon":-85.650065,"city":"Anderson","state":"IN","address":"2114 E 59th Street","name":""},
  {"lat":39.831983,"lon":-84.822573,"city":"Richmond","state":"IN","address":"533 W Eaton Pike","name":""},
  {"lat":39.920985,"lon":-86.227816,"city":"Indianapolis","state":"IN","address":"9320 Michigan Road","name":""},
  {"lat":41.757807,"lon":-85.428201,"city":"Howe","state":"IN","address":"8080 N State Road 9","name":""},
  {"lat":40.74168,"lon":-86.775984,"city":"Monticello","state":"IN","address":"304 S 6th Street","name":""},
  {"lat":42.074749,"lon":-88.288733,"city":"West Dundee","state":"IL","address":"2175 Marriott Drive","name":""},
  {"lat":41.579906,"lon":-87.633663,"city":"South Holland","state":"IL","address":"17345 Halsted Street","name":""},
  {"lat":41.170797,"lon":-87.847839,"city":"Bourbonnais","state":"IL","address":"62 Ken Hayes Drive","name":""},
  {"lat":38.73545,"lon":-88.096451,"city":"Olney","state":"IL","address":"367 N West Street","name":""},
  {"lat":41.582189,"lon":-88.164169,"city":"Joliet","state":"IL","address":"3231 Norman Avenue","name":""},
  {"lat":40.491094,"lon":-88.953691,"city":"Bloomington","state":"IL","address":"604 1/2 IAA Drive","name":""},
  {"lat":38.534947,"lon":-89.157562,"city":"Centralia","state":"IL","address":"8145 Jolliff Bridge Road","name":""},
  {"lat":38.745975,"lon":-90.072915,"city":"Pontoon Beach","state":"IL","address":"4 Regency Pkwy","name":""},
  {"lat":38.554145,"lon":-89.811905,"city":"Mascoutah","state":"IL","address":"9730 Hayden Drive","name":""},
  {"lat":41.933175,"lon":-87.884555,"city":"Franklin Park","state":"IL","address":"3001 N Mannheim Road","name":""},
  {"lat":40.671522,"lon":-89.576307,"city":"East Peoria","state":"IL","address":"300 Eastlight Ct","name":""},
  {"lat":40.137752,"lon":-88.252237,"city":"Champaign","state":"IL","address":"516 W Marketview Drive","name":""},
  {"lat":41.777275,"lon":-87.872955,"city":"Countryside","state":"IL","address":"6251 Joliet Road","name":""},
  {"lat":38.918345,"lon":-90.162945,"city":"Alton","state":"IL","address":"1900 Homer Adams Pkwy","name":""},
  {"lat":41.871615,"lon":-87.893635,"city":"Hillside","state":"IL","address":"4400 Frontage Road","name":""},
  {"lat":41.944134,"lon":-87.645429,"city":"Chicago","state":"IL","address":"3434 N Broadway Avenue","name":""},
  {"lat":48.312419,"lon":-116.547372,"city":"Ponderay","state":"ID","address":"477326 Highway 95","name":""},
  {"lat":43.583841,"lon":-116.572251,"city":"Nampa","state":"ID","address":"205 3rd Street South","name":""},
  {"lat":44.895979,"lon":-116.094917,"city":"McCall","state":"ID","address":"211 S 3rd Street","name":""},
  {"lat":42.587018,"lon":-114.460703,"city":"Twin Falls","state":"ID","address":"1377 Blue Lakes Boulevard N","name":""},
  {"lat":47.700005,"lon":-116.793117,"city":"Coeur D'Alene","state":"ID","address":"506 W Appleway Avenue","name":""},
  {"lat":43.661705,"lon":-116.664365,"city":"Caldwell","state":"ID","address":"908 Specht Avenue","name":""},
  {"lat":43.595645,"lon":-116.392255,"city":"Meridian","state":"ID","address":"1019 S Progress Avenue","name":""},
  {"lat":43.679287,"lon":-114.361905,"city":"Ketchum","state":"ID","address":"180 S Main Street","name":""},
  {"lat":43.503099,"lon":-112.050849,"city":"Idaho Falls","state":"ID","address":"900 Lindsay Boulevard","name":""},
  {"lat":48.697023,"lon":-116.308794,"city":"Bonners Ferry","state":"ID","address":"7169 Plaza Street","name":""},
  {"lat":42.564475,"lon":-113.791405,"city":"Burley","state":"ID","address":"800 N Overland Avenue","name":""},
  {"lat":46.733275,"lon":-117.023325,"city":"Moscow","state":"ID","address":"1516 Pullman Road","name":""},
  {"lat":31.06768,"lon":-81.405305,"city":"Jekyll Island","state":"GA","address":"700 N Beachview Drive","name":""},
  {"lat":33.91323,"lon":-84.378133,"city":"Sandy Springs","state":"GA","address":"5793 Roswell Road NE","name":""},
  {"lat":34.768403,"lon":-85.002695,"city":"Dalton","state":"GA","address":"715 College Drive","name":""},
  {"lat":33.518953,"lon":-82.03771,"city":"Augusta","state":"GA","address":"1062 Claussen Road","name":""},
  {"lat":32.551225,"lon":-83.688637,"city":"Warner Robins","state":"GA","address":"1056 GA Highway 96","name":""},
  {"lat":34.026657,"lon":-84.335503,"city":"Roswell","state":"GA","address":"907 Holcomb Bridge Road","name":""},
  {"lat":31.165955,"lon":-81.399645,"city":"St. Simons Island","state":"GA","address":"301 Main Street","name":""},
  {"lat":32.008213,"lon":-81.278007,"city":"Savannah","state":"GA","address":"17 Gateway Boulevard E","name":""},
  {"lat":34.226418,"lon":-83.868477,"city":"Oakwood","state":"GA","address":"4535 Oakwood Road","name":""},
  {"lat":30.896705,"lon":-83.353094,"city":"Valdosta","state":"GA","address":"4025 Northlake Drive","name":""},
  {"lat":31.244563,"lon":-81.505189,"city":"Brunswick","state":"GA","address":"126 Venture Drive","name":""},
  {"lat":33.542102,"lon":-84.578538,"city":"Fairburn","state":"GA","address":"1005 Oakley Industrial Boulevard","name":""},
  {"lat":30.790105,"lon":-81.652236,"city":"Kingsland","state":"GA","address":"1375 Hospitality Avenue","name":""},
  {"lat":30.840512,"lon":-83.942022,"city":"Thomasville","state":"GA","address":"133 Liberty Street","name":""},
  {"lat":31.193397,"lon":-82.320425,"city":"Waycross","state":"GA","address":"2570 Memorial Drive","name":""},
  {"lat":31.926002,"lon":-81.336692,"city":"Richmond Hill","state":"GA","address":"4564 US Highway 17","name":""},
  {"lat":33.425594,"lon":-84.17715,"city":"McDonough","state":"GA","address":"805 Industrial Boulevard","name":""},
  {"lat":33.654003,"lon":-84.397259,"city":"Hapeville","state":"GA","address":"301 N Central Avenue","name":""},
  {"lat":27.993501,"lon":-81.687287,"city":"Winter Haven","state":"FL","address":"5801 Roosevelt Drive","name":""},
  {"lat":30.190459,"lon":-85.641312,"city":"Panama City","state":"FL","address":"2338 Mercedes Avenue","name":""},
  {"lat":30.177641,"lon":-82.688564,"city":"Lake City","state":"FL","address":"350 SW Florida Gateway Drive","name":""},
  {"lat":26.034677,"lon":-80.165116,"city":"Hollywood","state":"FL","address":"2601 N 29th Avenue","name":""},
  {"lat":29.916826,"lon":-81.414989,"city":"St. Augustine","state":"FL","address":"2465 State Road 16","name":""},
  {"lat":28.346079,"lon":-81.489599,"city":"Kissimmee","state":"FL","address":"3484 Polynesian Isle Boulevard","name":""},
  {"lat":29.473757,"lon":-81.181609,"city":"Palm Coast","state":"FL","address":"200 Flagler Plaza Drive","name":""},
  {"lat":29.238262,"lon":-81.013483,"city":"Daytona Beach","state":"FL","address":"730 N Atlantic Avenue","name":""},
  {"lat":28.573794,"lon":-81.206974,"city":"Orlando","state":"FL","address":"12101 Challenger Pkwy","name":""},
  {"lat":30.484375,"lon":-84.313121,"city":"Tallahassee","state":"FL","address":"2727 Graves Road","name":""},
  {"lat":25.639885,"lon":-80.420438,"city":"Miami","state":"FL","address":"13700 SW 139th Ct","name":""},
  {"lat":30.622336,"lon":-81.645303,"city":"Yulee","state":"FL","address":"462577 State Road 200","name":""},
  {"lat":28.765152,"lon":-81.282467,"city":"Sanford","state":"FL","address":"3401 S Orlando Drive","name":""},
  {"lat":26.841879,"lon":-80.061435,"city":"Palm Beach Gardens","state":"FL","address":"11360 US Highway 1","name":""},
  {"lat":25.8086,"lon":-80.285442,"city":"Miami","state":"FL","address":"131 Fairway Drive","name":""},
  {"lat":30.398319,"lon":-83.357315,"city":"Madison","state":"FL","address":"167 SE Bandit Street","name":""},
  {"lat":28.829692,"lon":-81.888123,"city":"Leesburg","state":"FL","address":"1321 N 14th Street","name":""},
  {"lat":30.307251,"lon":-81.843869,"city":"Jacksonville","state":"FL","address":"525 Chaffee Point Boulevard","name":""},
  {"lat":30.522443,"lon":-87.311855,"city":"Pensacola","state":"FL","address":"2390 W Detroit Boulevard","name":""},
  {"lat":25.771281,"lon":-80.262721,"city":"Miami","state":"FL","address":"4100 Flagler Street","name":""},
  {"lat":25.813267,"lon":-80.122852,"city":"Miami Beach","state":"FL","address":"4101 Collins Avenue","name":""},
  {"lat":25.688135,"lon":-80.394395,"city":"Kendall","state":"FL","address":"8560 SW 124th Avenue","name":""},
  {"lat":27.46088,"lon":-82.58364,"city":"Bradenton","state":"FL","address":"2215 Cortez Road W","name":""},
  {"lat":25.888702,"lon":-80.16444,"city":"North Miami","state":"FL","address":"12210 Biscayne Boulevard","name":""},
  {"lat":26.302945,"lon":-80.121675,"city":"Deerfield Beach","state":"FL","address":"1050 E Newport Center Drive","name":""},
  {"lat":27.492499,"lon":-82.475242,"city":"Bradenton","state":"FL","address":"648 67th Street Circle E","name":""},
  {"lat":25.809342,"lon":-80.367758,"city":"Miami","state":"FL","address":"3875 NW 107th Avenue","name":""},
  {"lat":25.985699,"lon":-80.164438,"city":"Hallandale Beach","state":"FL","address":"101 Ansin Boulevard","name":""},
  {"lat":27.824988,"lon":-80.476047,"city":"Sebastian","state":"FL","address":"1655 US Highway 1","name":""},
  {"lat":28.481168,"lon":-81.456848,"city":"Orlando","state":"FL","address":"5618 Vineland Road","name":""},
  {"lat":28.012901,"lon":-82.792247,"city":"Dunedin","state":"FL","address":"150 Marina Plz","name":""},
  {"lat":26.108122,"lon":-80.107048,"city":"Fort Lauderdale","state":"FL","address":"1180 Seabreeze Boulevard","name":""},
  {"lat":26.455824,"lon":-81.960128,"city":"Fort Myers Beach","state":"FL","address":"684 Estero Boulevard","name":""},
  {"lat":27.109055,"lon":-82.385595,"city":"Venice","state":"FL","address":"400 Commercial Ct","name":""},
  {"lat":39.638835,"lon":-75.650845,"city":"Bear","state":"DE","address":"875 Pulaski Highway","name":""},
  {"lat":41.163109,"lon":-73.237594,"city":"Fairfield","state":"CT","address":"100 Kings Highway Cutoff","name":""},
  {"lat":41.591137,"lon":-72.75793,"city":"Berlin","state":"CT","address":"2253 Berlin Turnpike","name":""},
  {"lat":39.731979,"lon":-105.167879,"city":"Golden","state":"CO","address":"15059 W Colfax Avenue","name":""},
  {"lat":38.878175,"lon":-104.837534,"city":"Colorado Springs","state":"CO","address":"3150 N Chestnut Street","name":""},
  {"lat":40.264443,"lon":-103.772262,"city":"Fort Morgan","state":"CO","address":"1410 Barlow Road","name":""},
  {"lat":39.660447,"lon":-106.82531,"city":"Eagle","state":"CO","address":"200 Loren Ln","name":""},
  {"lat":39.29044,"lon":-102.279446,"city":"Burlington","state":"CO","address":"605 S Lincoln Street","name":""},
  {"lat":38.936074,"lon":-104.814346,"city":"Colorado Springs","state":"CO","address":"7265 Commerce Center Drive","name":""},
  {"lat":40.076192,"lon":-104.647676,"city":"Hudson","state":"CO","address":"301 E Bison Highway","name":""},
  {"lat":38.323105,"lon":-104.618108,"city":"Pueblo","state":"CO","address":"4727 N Elizabeth Street","name":""},
  {"lat":40.383095,"lon":-105.500925,"city":"Estes Park","state":"CO","address":"1260 Big Thompson Avenue","name":""},
  {"lat":39.411175,"lon":-104.868811,"city":"Castle Rock","state":"CO","address":"595 Genoa Way","name":""},
  {"lat":40.509885,"lon":-107.576895,"city":"Craig","state":"CO","address":"262 Commerce Street (Hwy 13)","name":""},
  {"lat":37.267388,"lon":-107.88112,"city":"Durango","state":"CO","address":"400 E 2nd Avenue","name":""},
  {"lat":40.406615,"lon":-104.996515,"city":"Loveland","state":"CO","address":"5542 E US Highway 34","name":""},
  {"lat":39.959964,"lon":-105.163158,"city":"Louisville","state":"CO","address":"960 W Dillon Road","name":""},
  {"lat":39.701624,"lon":-104.827788,"city":"Aurora","state":"CO","address":"800 S Abilene Street","name":""},
  {"lat":34.106452,"lon":-117.385929,"city":"Rialto","state":"CA","address":"841 W Foothill Boulevard","name":""},
  {"lat":33.820052,"lon":-116.406216,"city":"Cathedral City","state":"CA","address":"31450 Bob Hope Drive","name":""},
  {"lat":34.855754,"lon":-117.085565,"city":"Barstow","state":"CA","address":"2565 Commerce Parkway","name":""},
  {"lat":33.498669,"lon":-117.152649,"city":"Temecula","state":"CA","address":"41841 Moreno Road","name":""},
  {"lat":36.136326,"lon":-120.332031,"city":"Coalinga","state":"CA","address":"1786 Jayne Avenue","name":""},
  {"lat":34.067463,"lon":-117.322189,"city":"Colton","state":"CA","address":"250 N 9th Street","name":""},
  {"lat":33.974747,"lon":-118.126223,"city":"Commerce","state":"CA","address":"7272 E Gage Avenue","name":""},
  {"lat":33.900847,"lon":-118.308761,"city":"Gardena","state":"CA","address":"14400 S Western Avenue","name":""},
  {"lat":35.140547,"lon":-119.46158,"city":"Taft","state":"CA","address":"203 S 6th Street","name":""},
  {"lat":38.006275,"lon":-121.752311,"city":"Oakley","state":"CA","address":"5549 Bridgehead Road","name":""},
  {"lat":34.063334,"lon":-118.293016,"city":"Los Angeles","state":"CA","address":"603 S New Hampshire Avenue","name":""},
  {"lat":33.74811,"lon":-117.009058,"city":"Hemet","state":"CA","address":"3510 W Florida Avenue","name":""},
  {"lat":39.321165,"lon":-120.161785,"city":"Truckee","state":"CA","address":"11331 Brockway Road","name":""},
  {"lat":32.779903,"lon":-116.991568,"city":"La Mesa","state":"CA","address":"9550 Murray Drive","name":""},
  {"lat":38.588577,"lon":-121.288796,"city":"Rancho Cordova","state":"CA","address":"10713 White Rock Road","name":""},
  {"lat":36.764303,"lon":-119.719556,"city":"Fresno","state":"CA","address":"1551 N Peach Avenue","name":""},
  {"lat":33.202117,"lon":-117.384659,"city":"Oceanside","state":"CA","address":"909 N Coast Highway","name":""},
  {"lat":33.465853,"lon":-117.689679,"city":"Dana Point","state":"CA","address":"34280 Pacific Coast Highway","name":""},
  {"lat":37.785278,"lon":-122.245274,"city":"Oakland","state":"CA","address":"1717 Embarcadero","name":""},
  {"lat":33.625713,"lon":-117.715859,"city":"Lake Forest","state":"CA","address":"23192 Lake Center Drive","name":""},
  {"lat":38.746649,"lon":-121.266579,"city":"Roseville","state":"CA","address":"130 N Sunrise Avenue","name":""},
  {"lat":39.926723,"lon":-122.199223,"city":"Corning","state":"CA","address":"910 Highway 99 W","name":""},
  {"lat":33.861388,"lon":-117.87208,"city":"Placentia","state":"CA","address":"118 E Orangethorpe Avenue","name":""},
  {"lat":37.997994,"lon":-121.304242,"city":"Stockton","state":"CA","address":"111 E March Ln","name":""},
  {"lat":32.658983,"lon":-117.109722,"city":"National City","state":"CA","address":"800 Bay Marina Drive","name":""},
  {"lat":35.602385,"lon":-119.345354,"city":"Wasco","state":"CA","address":"1704 Highway 46","name":""},
  {"lat":36.809181,"lon":-119.780113,"city":"Fresno","state":"CA","address":"480 E Shaw Avenue","name":""},
  {"lat":33.775952,"lon":-117.890996,"city":"Orange","state":"CA","address":"720 The City Drive S","name":""},
  {"lat":38.479181,"lon":-122.735599,"city":"Santa Rosa","state":"CA","address":"870 Hopper Avenue","name":""},
  {"lat":37.021474,"lon":-121.570403,"city":"Gilroy","state":"CA","address":"375 Leavesley Road","name":""},
  {"lat":33.837871,"lon":-118.348094,"city":"Torrance","state":"CA","address":"3531 Torrance Boulevard","name":""},
  {"lat":40.623097,"lon":-122.368053,"city":"Redding","state":"CA","address":"1080 Twin View Boulevard","name":""},
  {"lat":32.977842,"lon":-115.515236,"city":"Brawley","state":"CA","address":"1562 E Main Street","name":""},
  {"lat":33.65653,"lon":-117.295442,"city":"Lake Elsinore","state":"CA","address":"31781 Casino Drive","name":""},
  {"lat":37.715595,"lon":-121.702762,"city":"Livermore","state":"CA","address":"7600 Southfront Road","name":""},
  {"lat":34.178274,"lon":-118.878759,"city":"Thousand Oaks","state":"CA","address":"75 W Thousand Oaks Boulevard","name":""},
  {"lat":35.132466,"lon":-118.454822,"city":"Tehachapi","state":"CA","address":"420 W Tehachapi Boulevard","name":""},
  {"lat":37.700873,"lon":-121.904977,"city":"Pleasanton","state":"CA","address":"5375 Owens Ct","name":""},
  {"lat":33.768227,"lon":-118.186231,"city":"Long Beach","state":"CA","address":"517 E 1st Street","name":""},
  {"lat":34.151926,"lon":-118.342386,"city":"Burbank","state":"CA","address":"3910 W Riverside Drive","name":""},
  {"lat":33.457649,"lon":-117.670806,"city":"Dana Point","state":"CA","address":"34744 Pacific Coast Highway","name":""},
  {"lat":33.72091,"lon":-116.36082,"city":"Palm Desert","state":"CA","address":"74695 Highway 111","name":""},
  {"lat":34.584039,"lon":-118.141413,"city":"Palmdale","state":"CA","address":"600 W Palmdale Boulevard","name":""},
  {"lat":37.466444,"lon":-121.174781,"city":"Patterson","state":"CA","address":"2959 Speno Drive","name":""},
  {"lat":34.171081,"lon":-118.466432,"city":"Sherman Oaks","state":"CA","address":"5525 Sepulveda Boulevard","name":""},
  {"lat":37.343824,"lon":-121.928511,"city":"San Jose","state":"CA","address":"2118 The Alameda","name":""},
  {"lat":35.373646,"lon":-119.009033,"city":"Bakersfield","state":"CA","address":"700 Truxtun Avenue","name":""},
  {"lat":36.971212,"lon":-121.965223,"city":"Capitola","state":"CA","address":"1435 41ST AVE","name":""},
  {"lat":40.775554,"lon":-124.190878,"city":"Eureka","state":"CA","address":"3500 Broadway","name":""},
  {"lat":38.584044,"lon":-122.575596,"city":"Calistoga","state":"CA","address":"1830 Lincoln Avenue","name":""},
  {"lat":37.772341,"lon":-120.832747,"city":"Oakdale","state":"CA","address":"1450 E F Street","name":""},
  {"lat":37.447005,"lon":-122.172414,"city":"Menlo Park","state":"CA","address":"15 El Camino Real","name":""},
  {"lat":33.710732,"lon":-117.853979,"city":"Santa Ana","state":"CA","address":"2700 Hotel Ter","name":""},
  {"lat":33.820351,"lon":-116.545069,"city":"Palm Springs","state":"CA","address":"222 S Indian Canyon Drive","name":""},
  {"lat":37.426975,"lon":-121.914565,"city":"Milpitas","state":"CA","address":"400 Valley Way","name":""},
  {"lat":38.544195,"lon":-121.742385,"city":"Davis","state":"CA","address":"234 D Street","name":""},
  {"lat":38.459538,"lon":-121.839877,"city":"Dixon","state":"CA","address":"1345 Commercial Way","name":""},
  {"lat":34.441383,"lon":-119.81994,"city":"Goleta","state":"CA","address":"5620 Calle Real","name":""},
  {"lat":33.945671,"lon":-118.365771,"city":"Inglewood","state":"CA","address":"5005 W Century Boulevard","name":""},
  {"lat":34.105263,"lon":-117.566351,"city":"Rancho Cucamonga","state":"CA","address":"8179 Spruce Avenue","name":""},
  {"lat":37.467881,"lon":-122.208838,"city":"Redwood City","state":"CA","address":"25 5th Avenue","name":""},
  {"lat":37.797789,"lon":-121.193013,"city":"Manteca","state":"CA","address":"1415 E Yosemite Avenue","name":""},
  {"lat":33.797707,"lon":-117.914789,"city":"Anaheim","state":"CA","address":"2040 S Harbor Boulevard","name":""},
  {"lat":36.975079,"lon":-122.018911,"city":"Santa Cruz","state":"CA","address":"500 Ocean Street","name":""},
  {"lat":38.050536,"lon":-122.533157,"city":"Novato","state":"CA","address":"215 Alameda Del Prado","name":""},
  {"lat":38.059949,"lon":-122.149549,"city":"Benicia","state":"CA","address":"1955 E 2nd Street","name":""},
  {"lat":32.696009,"lon":-117.173551,"city":"Coronado","state":"CA","address":"275 Orange Avenue","name":""},
  {"lat":33.994626,"lon":-117.891074,"city":"Rowland Heights","state":"CA","address":"18880 Gale Avenue","name":""},
  {"lat":38.709547,"lon":-120.837756,"city":"Placerville","state":"CA","address":"6850 Green Leaf Drive","name":""},
  {"lat":34.072458,"lon":-117.874919,"city":"West Covina","state":"CA","address":"3275 E Garvey Avenue N","name":""},
  {"lat":32.7533,"lon":-117.194264,"city":"San Diego","state":"CA","address":"4041 Harney Street","name":""},
  {"lat":33.809458,"lon":-117.914976,"city":"Anaheim","state":"CA","address":"1544 S Harbor Boulevard","name":""},
  {"lat":34.142962,"lon":-118.228399,"city":"Los Angeles","state":"CA","address":"2911 Colorado Boulevard","name":""},
  {"lat":34.97068,"lon":-120.43596,"city":"Santa Maria","state":"CA","address":"1725 N Broadway","name":""},
  {"lat":37.063374,"lon":-122.004194,"city":"Scotts Valley","state":"CA","address":"6020 Scotts Valley Drive","name":""},
  {"lat":37.482515,"lon":-119.963844,"city":"Mariposa","state":"CA","address":"4999 Highway 140","name":""},
  {"lat":41.750775,"lon":-124.182465,"city":"Crescent City","state":"CA","address":"655 US Highway 101 S","name":""},
  {"lat":34.402036,"lon":-119.525906,"city":"Carpinteria","state":"CA","address":"4558 Carpinteria Avenue","name":""},
  {"lat":40.101907,"lon":-123.794409,"city":"Garberville","state":"CA","address":"701 Redwood Drive","name":""},
  {"lat":33.663836,"lon":-117.895782,"city":"Costa Mesa","state":"CA","address":"2642 Newport Boulevard","name":""},
  {"lat":33.816528,"lon":-118.379042,"city":"Redondo Beach","state":"CA","address":"1850 S. Pacific Coast Highway","name":""},
  {"lat":37.665968,"lon":-122.105962,"city":"Hayward","state":"CA","address":"360 W A Street","name":""},
  {"lat":37.335373,"lon":-119.646249,"city":"Oakhurst","state":"CA","address":"40530 Highway 41","name":""},
  {"lat":37.978063,"lon":-120.334279,"city":"Sonora","state":"CA","address":"19551 Hess Avenue","name":""},
  {"lat":33.808314,"lon":-117.914995,"city":"Anaheim","state":"CA","address":"1630 S Harbor Boulevard","name":""},
  {"lat":34.0951,"lon":-118.372691,"city":"Los Angeles","state":"CA","address":"8400 Sunset Boulevard","name":""},
  {"lat":38.280992,"lon":-122.273707,"city":"Napa","state":"CA","address":"100 Soscol Avenue","name":""},
  {"lat":32.719768,"lon":-117.167783,"city":"San Diego","state":"CA","address":"555 W Ash Street","name":""},
  {"lat":34.065149,"lon":-117.611438,"city":"Ontario","state":"CA","address":"209 N Vineyard Avenue","name":""},
  {"lat":33.895208,"lon":-118.352135,"city":"Lawndale","state":"CA","address":"15000 Hawthorne Boulevard","name":""},
  {"lat":35.263403,"lon":-120.677716,"city":"San Luis Obispo","state":"CA","address":"214 Madonna Road","name":""},
  {"lat":37.643377,"lon":-122.404189,"city":"South San Francisco","state":"CA","address":"380 S Airport Boulevard","name":""},
  {"lat":36.593662,"lon":-121.892188,"city":"Monterey","state":"CA","address":"825 Abrego Street","name":""},
  {"lat":40.573745,"lon":-122.358532,"city":"Redding","state":"CA","address":"2300 Hilltop Drive","name":""},
  {"lat":32.713725,"lon":-117.227105,"city":"San Diego","state":"CA","address":"2051 Shelter Island Drive","name":""},
  {"lat":41.309816,"lon":-122.317336,"city":"Mount Shasta","state":"CA","address":"111 Morgan Way","name":""},
  {"lat":33.155453,"lon":-117.350585,"city":"Carlsbad","state":"CA","address":"3180 Carlsbad Boulevard","name":""},
  {"lat":37.532505,"lon":-122.000615,"city":"Fremont","state":"CA","address":"5400 Mowry Avenue","name":""},
  {"lat":34.430174,"lon":-119.721225,"city":"Santa Barbara","state":"CA","address":"2220 Bath Street","name":""},
  {"lat":33.803039,"lon":-117.924555,"city":"Anaheim","state":"CA","address":"1110 W Katella Avenue","name":""},
  {"lat":34.44069,"lon":-119.748825,"city":"Santa Barbara","state":"CA","address":"3850 State Street","name":""},
  {"lat":35.641197,"lon":-120.687443,"city":"Paso Robles","state":"CA","address":"1135 24th Street","name":""},
  {"lat":40.800955,"lon":-124.174189,"city":"Eureka","state":"CA","address":"232 W 5th Street","name":""},
  {"lat":33.803054,"lon":-117.927517,"city":"Anaheim","state":"CA","address":"1176 W Katella Avenue","name":""},
  {"lat":35.807987,"lon":-90.674529,"city":"Jonesboro","state":"AR","address":"2911 Gilmore Drive","name":""},
  {"lat":34.806805,"lon":-91.888415,"city":"Lonoke","state":"AR","address":"102 Dee Dee Ln","name":""},
  {"lat":35.251527,"lon":-91.693554,"city":"Searcy","state":"AR","address":"501 Willow Street","name":""},
  {"lat":34.778347,"lon":-92.265937,"city":"North Little Rock","state":"AR","address":"2500 Main Street","name":""},
  {"lat":33.472694,"lon":-94.035029,"city":"Texarkana","state":"AR","address":"5219 Cross Roads Pkwy","name":""},
  {"lat":36.335725,"lon":-94.204619,"city":"Bentonville","state":"AR","address":"501 SE Walton Boulevard","name":""},
  {"lat":35.209544,"lon":-90.208155,"city":"Marion","state":"AR","address":"100 Hannah Ln","name":""},
  {"lat":33.387756,"lon":-111.787267,"city":"Mesa","state":"AZ","address":"1563 S Gilbert Road","name":""},
  {"lat":32.881293,"lon":-111.704474,"city":"Casa Grande","state":"AZ","address":"1918 E Florence Boulevard","name":""},
  {"lat":33.635418,"lon":-112.348127,"city":"Surprise","state":"AZ","address":"13337 W Grand Avenue","name":""},
  {"lat":33.711359,"lon":-112.104726,"city":"Phoenix","state":"AZ","address":"2108 West Whispering Wind Drive","name":""},
  {"lat":32.833993,"lon":-109.700273,"city":"Safford","state":"AZ","address":"450 E Entertainment Avenue","name":""},
  {"lat":32.669747,"lon":-114.4479,"city":"Yuma","state":"AZ","address":"10731 E South Frontage Road","name":""},
  {"lat":33.279409,"lon":-111.964054,"city":"Chandler","state":"AZ","address":"7101 W Sundust Road","name":""},
  {"lat":33.621745,"lon":-111.917515,"city":"Scottsdale","state":"AZ","address":"7515 E Butherus Drive","name":""},
  {"lat":35.019736,"lon":-110.672627,"city":"Winslow","state":"AZ","address":"816 Transcon Ln","name":""},
  {"lat":33.5027,"lon":-111.922455,"city":"Scottsdale","state":"AZ","address":"7320 E Camelback Road","name":""},
  {"lat":35.243775,"lon":-112.210875,"city":"Williams","state":"AZ","address":"2600 W Route 66","name":""},
  {"lat":31.55645,"lon":-110.306599,"city":"Sierra Vista","state":"AZ","address":"260 N Garden Avenue","name":""},
  {"lat":36.920373,"lon":-111.462542,"city":"Page","state":"AZ","address":"208 N Lake Powell Boulevard","name":""},
  {"lat":34.871985,"lon":-111.758287,"city":"Sedona","state":"AZ","address":"400 N State Route 89A","name":""},
  {"lat":35.211316,"lon":-114.016694,"city":"Kingman","state":"AZ","address":"2815 E Andy Devine Avenue","name":""},
  {"lat":35.212248,"lon":-114.014997,"city":"Kingman","state":"AZ","address":"2930 E. Andy Devine Avenue","name":""},
  {"lat":64.842669,"lon":-147.770433,"city":"Fairbanks","state":"AK","address":"1908 Chena Landing Loop","name":""},
  {"lat":64.83755,"lon":-147.823539,"city":"Fairbanks","state":"AK","address":"1255 TVSA Way","name":""},
  {"lat":30.677998,"lon":-88.129107,"city":"Mobile","state":"AL","address":"600 West Interstate 65 Service Road S","name":""},
  {"lat":33.416501,"lon":-86.691153,"city":"Birmingham","state":"AL","address":"800 Corporate Rdg","name":""},
  {"lat":34.697957,"lon":-87.637608,"city":"Tuscumbia","state":"AL","address":"1934 Highway 20","name":""},
  {"lat":34.674684,"lon":-86.755528,"city":"Madison","state":"AL","address":"9035 Madison Boulevard","name":""},
  {"lat":33.365395,"lon":-87.004275,"city":"Bessemer","state":"AL","address":"5041 Academy Ln","name":""},
  {"lat":30.667174,"lon":-87.854544,"city":"Daphne","state":"AL","address":"8931 Sawwood Street","name":""},
  {"lat":31.32692,"lon":-85.836034,"city":"Enterprise","state":"AL","address":"715 Boll Weevil Circle","name":""},
  {"lat":34.493089,"lon":-87.724631,"city":"Russellville","state":"AL","address":"13770 Highway 43","name":""},
  {"lat":32.499211,"lon":-87.8472,"city":"Demopolis","state":"AL","address":"662 US Highway 80 W","name":""},
  {"lat":33.999066,"lon":-86.092819,"city":"Gadsden","state":"AL","address":"205 Enterprise Drive","name":""},
  {"lat":33.567763,"lon":-86.516583,"city":"Leeds","state":"AL","address":"1949 Village Drive","name":""},
  {"lat":33.332535,"lon":-86.780379,"city":"Pelham","state":"AL","address":"100 Bishop Circle","name":""}]}