{"key":"biggby_coffee","displayName":"Biggby Coffee","category":"coffee","useLocationName":false,"source":"osm","locations":[
  {"lat":42.67022,"lon":-83.23331,"city":"","state":"","address":"","name":""},
  {"lat":42.24257,"lon":-85.58994,"city":"","state":"","address":"","name":""},
  {"lat":42.99203,"lon":-84.54569,"city":"","state":"","address":"1077 US 127 Business (St. Johns, MI)","name":""},
  {"lat":42.3039,"lon":-83.25177,"city":"","state":"","address":"","name":""},
  {"lat":42.73974,"lon":-84.62138,"city":"","state":"","address":"536 Elmwood Drive","name":""},
  {"lat":42.32643,"lon":-83.2879,"city":"","state":"","address":"","name":""},
  {"lat":42.2723,"lon":-85.62958,"city":"","state":"","address":"","name":""},
  {"lat":42.26063,"lon":-85.18926,"city":"","state":"","address":"","name":""},
  {"lat":41.05624,"lon":-83.59314,"city":"","state":"","address":"","name":""},
  {"lat":42.79839,"lon":-83.70528,"city":"","state":"","address":"","name":""},
  {"lat":42.5156,"lon":-83.61699,"city":"","state":"","address":"","name":""},
  {"lat":39.0369,"lon":-84.56076,"city":"","state":"","address":"","name":""},
  {"lat":46.55082,"lon":-87.45596,"city":"","state":"","address":"","name":""},
  {"lat":42.45579,"lon":-83.33619,"city":"","state":"","address":"22370 Middlebelt Road","name":""},
  {"lat":42.27968,"lon":-83.7798,"city":"","state":"","address":"2550 West Stadium Boulevard","name":""},
  {"lat":43.11752,"lon":-85.60296,"city":"","state":"","address":"","name":""},
  {"lat":47.1217,"lon":-88.56361,"city":"","state":"","address":"","name":""},
  {"lat":42.99841,"lon":-84.14589,"city":"","state":"","address":"","name":""},
  {"lat":41.1012,"lon":-85.05666,"city":"","state":"","address":"","name":""},
  {"lat":42.97185,"lon":-85.90489,"city":"","state":"","address":"","name":""},
  {"lat":43.1925,"lon":-86.26395,"city":"","state":"","address":"","name":""},
  {"lat":41.29644,"lon":-84.36133,"city":"","state":"","address":"","name":""},
  {"lat":42.68386,"lon":-84.43166,"city":"","state":"","address":"","name":""},
  {"lat":42.32252,"lon":-83.48835,"city":"","state":"","address":"","name":""},
  {"lat":42.28748,"lon":-83.83399,"city":"","state":"","address":"","name":""},
  {"lat":43.62015,"lon":-84.21824,"city":"","state":"","address":"","name":""},
  {"lat":42.19701,"lon":-85.62824,"city":"","state":"","address":"","name":""},
  {"lat":42.29183,"lon":-85.58272,"city":"","state":"","address":"","name":""},
  {"lat":42.45039,"lon":-85.67154,"city":"","state":"","address":"","name":""},
  {"lat":43.02286,"lon":-83.5164,"city":"","state":"","address":"","name":""},
  {"lat":42.99121,"lon":-83.63467,"city":"","state":"","address":"","name":""},
  {"lat":42.94498,"lon":-83.66383,"city":"","state":"","address":"","name":""},
  {"lat":42.98477,"lon":-83.77152,"city":"","state":"","address":"","name":""},
  {"lat":43.17665,"lon":-83.77852,"city":"","state":"","address":"","name":""},
  {"lat":43.45322,"lon":-83.97598,"city":"","state":"","address":"","name":""},
  {"lat":43.39418,"lon":-84.6653,"city":"","state":"","address":"","name":""},
  {"lat":43.03682,"lon":-85.6164,"city":"","state":"","address":"","name":""},
  {"lat":42.60359,"lon":-83.44758,"city":"","state":"","address":"","name":""},
  {"lat":42.53314,"lon":-83.14381,"city":"","state":"","address":"","name":""},
  {"lat":41.53834,"lon":-83.63775,"city":"","state":"","address":"","name":""},
  {"lat":42.88235,"lon":-85.74398,"city":"","state":"","address":"","name":""},
  {"lat":43.22199,"lon":-85.57229,"city":"","state":"","address":"","name":""},
  {"lat":42.67195,"lon":-83.03453,"city":"","state":"","address":"","name":""},
  {"lat":42.76026,"lon":-84.51939,"city":"","state":"","address":"","name":""},
  {"lat":42.25981,"lon":-83.20724,"city":"","state":"","address":"","name":""},
  {"lat":40.00229,"lon":-85.73104,"city":"","state":"","address":"","name":""},
  {"lat":39.1888,"lon":-84.60042,"city":"","state":"","address":"","name":""},
  {"lat":42.27695,"lon":-84.45233,"city":"","state":"","address":"","name":""},
  {"lat":42.6485,"lon":-85.31228,"city":"","state":"","address":"","name":""},
  {"lat":42.85924,"lon":-85.72376,"city":"","state":"","address":"","name":""},
  {"lat":41.72389,"lon":-85.9806,"city":"","state":"","address":"","name":""},
  {"lat":43.83624,"lon":-84.7665,"city":"","state":"","address":"","name":""},
  {"lat":42.82705,"lon":-86.09696,"city":"","state":"","address":"","name":""},
  {"lat":42.79652,"lon":-86.07811,"city":"","state":"","address":"","name":""},
  {"lat":42.35326,"lon":-83.05557,"city":"","state":"","address":"","name":""},
  {"lat":41.72453,"lon":-86.1839,"city":"","state":"","address":"","name":""},
  {"lat":38.19379,"lon":-85.21008,"city":"","state":"","address":"","name":""},
  {"lat":39.0857,"lon":-84.71154,"city":"","state":"","address":"","name":""},
  {"lat":39.71171,"lon":-86.38124,"city":"","state":"","address":"","name":""},
  {"lat":43.15853,"lon":-86.20641,"city":"","state":"","address":"","name":""},
  {"lat":44.26704,"lon":-86.2971,"city":"","state":"","address":"","name":""},
  {"lat":42.51863,"lon":-85.83815,"city":"","state":"","address":"","name":""},
  {"lat":38.97435,"lon":-84.65993,"city":"","state":"","address":"","name":""},
  {"lat":41.54899,"lon":-83.59702,"city":"","state":"","address":"","name":""},
  {"lat":42.6435,"lon":-84.07388,"city":"","state":"","address":"","name":""},
  {"lat":44.72731,"lon":-85.18171,"city":"","state":"","address":"556 South Cedar Street","name":""},
  {"lat":39.66994,"lon":-84.22152,"city":"","state":"","address":"","name":""},
  {"lat":42.98501,"lon":-85.64014,"city":"","state":"","address":"","name":""},
  {"lat":42.36111,"lon":-83.41652,"city":"","state":"","address":"","name":""},
  {"lat":41.16278,"lon":-81.47763,"city":"","state":"","address":"","name":""},
  {"lat":42.84933,"lon":-85.80323,"city":"","state":"","address":"","name":""},
  {"lat":42.6787,"lon":-86.17707,"city":"","state":"","address":"","name":""},
  {"lat":39.89218,"lon":-86.04666,"city":"","state":"","address":"","name":""},
  {"lat":43.3374,"lon":-83.7377,"city":"","state":"","address":"","name":""},
  {"lat":42.95576,"lon":-85.6661,"city":"","state":"","address":"","name":""},
  {"lat":42.32473,"lon":-83.40134,"city":"","state":"","address":"","name":""},
  {"lat":42.2569,"lon":-83.22423,"city":"","state":"","address":"17410 Ecorse Road","name":""},
  {"lat":41.88561,"lon":-87.63607,"city":"","state":"","address":"","name":""},
  {"lat":42.74128,"lon":-84.73819,"city":"","state":"","address":"","name":""},
  {"lat":39.08049,"lon":-84.48119,"city":"","state":"","address":"","name":""},
  {"lat":42.44858,"lon":-83.65101,"city":"","state":"","address":"","name":""},
  {"lat":41.69113,"lon":-83.70406,"city":"","state":"","address":"","name":""},
  {"lat":42.91147,"lon":-85.56813,"city":"","state":"","address":"","name":""},
  {"lat":41.69157,"lon":-86.89423,"city":"","state":"","address":"","name":""},
  {"lat":42.72603,"lon":-84.64187,"city":"","state":"","address":"6333 West Saint Joseph Highway","name":""},
  {"lat":42.69043,"lon":-84.56801,"city":"","state":"","address":"4230 South Martin Luther King Jr Boulevard","name":""},
  {"lat":41.58347,"lon":-83.61907,"city":"","state":"","address":"","name":""},
  {"lat":41.71605,"lon":-86.25075,"city":"","state":"","address":"","name":""},
  {"lat":42.49194,"lon":-83.47012,"city":"","state":"","address":"","name":""},
  {"lat":42.78274,"lon":-85.5056,"city":"","state":"","address":"","name":""},
  {"lat":41.0733,"lon":-85.217,"city":"","state":"","address":"","name":""},
  {"lat":41.59803,"lon":-85.86235,"city":"","state":"","address":"","name":""},
  {"lat":41.68017,"lon":-86.17902,"city":"","state":"","address":"","name":""},
  {"lat":42.40243,"lon":-86.25875,"city":"","state":"","address":"343 Blue Star Memorial Hwy","name":""},
  {"lat":42.96717,"lon":-83.82931,"city":"","state":"","address":"","name":""},
  {"lat":43.95508,"lon":-86.39301,"city":"","state":"","address":"","name":""},
  {"lat":42.9451,"lon":-83.72748,"city":"","state":"","address":"","name":""},
  {"lat":41.65233,"lon":-85.70417,"city":"","state":"","address":"","name":""},
  {"lat":41.11724,"lon":-81.58754,"city":"","state":"","address":"","name":""},
  {"lat":42.3417,"lon":-85.15482,"city":"","state":"","address":"","name":""},
  {"lat":40.55762,"lon":-84.5518,"city":"","state":"","address":"","name":""},
  {"lat":39.0963,"lon":-84.26363,"city":"","state":"","address":"","name":""},
  {"lat":42.22635,"lon":-83.28716,"city":"","state":"","address":"25700 Goddard Road","name":""},
  {"lat":42.34521,"lon":-85.23403,"city":"","state":"","address":"","name":""},
  {"lat":43.05962,"lon":-83.8084,"city":"Flushing","state":"","address":"","name":""},
  {"lat":42.64055,"lon":-84.51538,"city":"Holt","state":"","address":"2006 Cedar Street","name":""},
  {"lat":42.29691,"lon":-85.6454,"city":"Kalamazoo Township","state":"","address":"4560 West Main Street","name":""},
  {"lat":43.65832,"lon":-84.24764,"city":"Midland","state":"","address":"6615 Eastman Avenue","name":""},
  {"lat":43.04301,"lon":-87.90981,"city":"Milwaukee","state":"","address":"920 North Water Street","name":""},
  {"lat":43.43614,"lon":-84.03018,"city":"Saginaw","state":"","address":"5775 State Street","name":""},
  {"lat":29.26235,"lon":-81.1085,"city":"Ormond Beach","state":"FL","address":"1340 West Granada Boulevard","name":""},
  {"lat":39.89694,"lon":-85.9756,"city":"Indianapolis","state":"IN","address":"7829 Sunnyside Road","name":""},
  {"lat":39.6651,"lon":-86.07854,"city":"Indianapolis","state":"IN","address":"5255 East Southport Road","name":""},
  {"lat":41.60045,"lon":-86.73298,"city":"La Porte","state":"IN","address":"1222 West State Road 2","name":""},
  {"lat":41.21771,"lon":-86.69745,"city":"North Judson","state":"IN","address":"5900 South Range Road","name":""},
  {"lat":41.87441,"lon":-84.0349,"city":"Adrian","state":"MI","address":"1441 US 223","name":""},
  {"lat":42.27727,"lon":-83.21406,"city":"Allen Park","state":"MI","address":"23190 West Outer Drive","name":""},
  {"lat":45.0607,"lon":-83.43194,"city":"Alpena","state":"MI","address":"224 East Chisholm Street","name":""},
  {"lat":45.07957,"lon":-83.45119,"city":"Alpena","state":"MI","address":"320 Johnson Street","name":""},
  {"lat":42.23058,"lon":-83.70039,"city":"Ann Arbor","state":"MI","address":"3980 Platt Road","name":""},
  {"lat":42.70401,"lon":-83.28573,"city":"Auburn Hills","state":"MI","address":"4211 Joslyn Road","name":""},
  {"lat":42.31085,"lon":-85.12908,"city":"Battle Creek","state":"MI","address":"1125 East Michigan Avenue","name":""},
  {"lat":42.50327,"lon":-83.19615,"city":"Berkley","state":"MI","address":"3600 12 Mile Road","name":""},
  {"lat":42.14777,"lon":-83.26548,"city":"Brownstown Township","state":"MI","address":"21469 Telegraph Road","name":""},
  {"lat":42.27513,"lon":-83.47779,"city":"Canton","state":"MI","address":"44532 Michigan Avenue","name":""},
  {"lat":43.04604,"lon":-85.65782,"city":"Comstock Park","state":"MI","address":"4575 West River Drive Northeast","name":""},
  {"lat":42.3069,"lon":-83.1887,"city":"Dearborn","state":"MI","address":"3389 Greenfield Road","name":""},
  {"lat":42.73653,"lon":-84.48801,"city":"East Lansing","state":"MI","address":"300 West Grand River Avenue","name":""},
  {"lat":42.7722,"lon":-84.41667,"city":"East Lansing","state":"MI","address":"7265 Saginaw Highway","name":""},
  {"lat":42.46076,"lon":-83.14369,"city":"Ferndale","state":"MI","address":"750 West 9 Mile Road","name":""},
  {"lat":42.11211,"lon":-83.28402,"city":"Flat Rock","state":"MI","address":"26614 Telegraph Road","name":""},
  {"lat":45.02774,"lon":-84.69183,"city":"Gaylord","state":"MI","address":"1004 West Main Street","name":""},
  {"lat":42.74123,"lon":-84.73401,"city":"Grand Ledge","state":"MI","address":"914 Charlevoix Street","name":""},
  {"lat":42.96604,"lon":-85.6715,"city":"Grand Rapids","state":"MI","address":"146 Monroe Center Street Northwest","name":""},
  {"lat":42.85477,"lon":-85.76151,"city":"Grandville","state":"MI","address":"6066 Wilson Avenue Southwest","name":""},
  {"lat":42.90996,"lon":-85.76111,"city":"Grandville","state":"MI","address":"3910 Chicago Drive Southwest","name":""},
  {"lat":42.74763,"lon":-84.40758,"city":"Haslett","state":"MI","address":"1602 Haslett Road","name":""},
  {"lat":42.78902,"lon":-86.10319,"city":"Holland","state":"MI","address":"225 College Avenue","name":""},
  {"lat":42.76116,"lon":-86.11718,"city":"Holland","state":"MI","address":"","name":""},
  {"lat":42.8547,"lon":-85.85997,"city":"Hudsonville","state":"MI","address":"4676 32nd Avenue","name":""},
  {"lat":42.20044,"lon":-84.43775,"city":"Jackson","state":"MI","address":"2003 Horton Road","name":""},
  {"lat":42.90667,"lon":-85.79248,"city":"Jenison","state":"MI","address":"7589 Cottonwood Drive","name":""},
  {"lat":42.32801,"lon":-85.5138,"city":"Kalamazoo","state":"MI","address":"5913 Gull Road","name":""},
  {"lat":42.73328,"lon":-84.54502,"city":"Lansing","state":"MI","address":"500 East Michigan Avenue","name":""},
  {"lat":42.73399,"lon":-84.50213,"city":"Lansing","state":"MI","address":"3335 East Michigan Avenue","name":""},
  {"lat":42.74061,"lon":-84.68021,"city":"Lansing","state":"MI","address":"8741 West Saginaw Highway","name":""},
  {"lat":42.6822,"lon":-84.5139,"city":"Lansing","state":"MI","address":"2546 East Jolly Road","name":""},
  {"lat":42.66709,"lon":-84.53947,"city":"Lansing","state":"MI","address":"6264 South Pennsylvania Avenue","name":""},
  {"lat":42.49113,"lon":-83.10715,"city":"Madison Heights","state":"MI","address":"222 West 11 Mile Road","name":""},
  {"lat":42.58897,"lon":-84.45832,"city":"Mason","state":"MI","address":"661 North Cedar Street","name":""},
  {"lat":41.93023,"lon":-83.41172,"city":"Monroe","state":"MI","address":"559 North Telegraph Road","name":""},
  {"lat":43.6031,"lon":-84.76807,"city":"Mount Pleasant","state":"MI","address":"210 South Mission Street","name":""},
  {"lat":43.23461,"lon":-86.20222,"city":"Muskegon","state":"MI","address":"1684 East Apple Avenue","name":""},
  {"lat":43.40527,"lon":-85.79852,"city":"Newaygo","state":"MI","address":"176 River Valley","name":""},
  {"lat":42.71937,"lon":-84.42096,"city":"Okemos","state":"MI","address":"4756 Marsh Road","name":""},
  {"lat":42.35943,"lon":-83.46425,"city":"Plymouth","state":"MI","address":"400 West Ann Arbor Road","name":""},
  {"lat":42.39492,"lon":-83.48345,"city":"Plymouth Township","state":"MI","address":"44601 5 Mile Road","name":""},
  {"lat":46.4779,"lon":-84.35456,"city":"Sault Ste Marie","state":"MI","address":"2505 Ashmun Street","name":""},
  {"lat":42.19085,"lon":-83.21991,"city":"Southgate","state":"MI","address":"16215 Dix-Toledo Highway","name":""},
  {"lat":42.20323,"lon":-83.18105,"city":"Southgate","state":"MI","address":"14440 Fort Street","name":""},
  {"lat":42.20837,"lon":-84.53625,"city":"Spring Arbor","state":"MI","address":"7851 Spring Arbor Road","name":""},
  {"lat":42.54681,"lon":-82.99029,"city":"Sterling Heights","state":"MI","address":"34255 Schoenherr Road","name":""},
  {"lat":42.02764,"lon":-86.51561,"city":"Stevensville","state":"MI","address":"4933 Red Arrow Highway","name":""},
  {"lat":44.75448,"lon":-85.57267,"city":"Traverse City","state":"MI","address":"748 Munson Avenue","name":""},
  {"lat":44.77629,"lon":-85.64288,"city":"Traverse City","state":"MI","address":"13936 South West Bay Shore Drive","name":""},
  {"lat":44.73372,"lon":-85.59704,"city":"Traverse City","state":"MI","address":"1100 West South Airport Road","name":""},
  {"lat":44.67163,"lon":-85.65752,"city":"Traverse City","state":"MI","address":"4041 US-31 South","name":""},
  {"lat":42.14132,"lon":-83.21129,"city":"Trenton","state":"MI","address":"3580 West Road","name":""},
  {"lat":42.97109,"lon":-85.77694,"city":"Walker","state":"MI","address":"355 Wilson Avenue Northwest","name":""},
  {"lat":42.6736,"lon":-85.65438,"city":"Wayland","state":"MI","address":"1114 West Superior Street","name":""},
  {"lat":42.65721,"lon":-83.46906,"city":"White Lake","state":"MI","address":"9228 Highland Road","name":""},
  {"lat":43.4088,"lon":-86.32696,"city":"Whitehall","state":"MI","address":"1315 East Colby Street","name":""},
  {"lat":35.85493,"lon":-78.64138,"city":"Raleigh","state":"NC","address":"5424 Six Forks Road","name":""},
  {"lat":38.96411,"lon":-84.09003,"city":"Bethel","state":"OH","address":"615 West Plane Street","name":""},
  {"lat":41.37513,"lon":-83.64819,"city":"Bowling Green","state":"OH","address":"215 East Wooster Street","name":""},
  {"lat":39.15851,"lon":-84.4063,"city":"Cincinnati","state":"OH","address":"4795 Red Bank Expressway","name":""},
  {"lat":39.16281,"lon":-84.42035,"city":"Cincinnati","state":"OH","address":"4916 Barrow Avenue","name":""},
  {"lat":41.48461,"lon":-81.59012,"city":"Cleveland","state":"OH","address":"13201 Shaker Square","name":""},
  {"lat":39.14266,"lon":-84.36063,"city":"Columbia Township","state":"OH","address":"7390 Wooster Pike","name":""},
  {"lat":41.4008,"lon":-82.11729,"city":"Elyria","state":"OH","address":"615 Griswold Road","name":""},
  {"lat":41.05901,"lon":-83.66271,"city":"Findlay","state":"OH","address":"West Trenton Avenue","name":""},
  {"lat":39.70328,"lon":-84.12636,"city":"Kettering","state":"OH","address":"2061 East Dorothy Lane","name":""},
  {"lat":40.73104,"lon":-84.07743,"city":"Lima","state":"OH","address":"1519 Harding Highway","name":""},
  {"lat":39.227,"lon":-84.25485,"city":"Loveland","state":"OH","address":"732 Middleton Way","name":""},
  {"lat":41.41943,"lon":-81.9172,"city":"North Olmsted","state":"OH","address":"26625 Brookpark Road","name":""},
  {"lat":40.55506,"lon":-84.38268,"city":"Saint Marys","state":"OH","address":"488 Fortman Drive","name":""},
  {"lat":41.48687,"lon":-81.53524,"city":"Shaker Heights","state":"OH","address":"20609 Fairmount Boulevard","name":""},
  {"lat":41.57294,"lon":-84.13615,"city":"Wauseon","state":"OH","address":"480 Airport Highway","name":""},
  {"lat":42.90487,"lon":-88.03843,"city":"Franklin","state":"WI","address":"7700 South Lovers Lane Road","name":""}
]}