{"key":"bjs","displayName":"BJ's Wholesale","category":"grocery","useLocationName":false,"locations":[
  {"lat":38.79116,"lon":-77.60647,"city":"Gainesville","state":"VA","address":"5100 Wellington Rd.","name":""},
  {"lat":36.85572,"lon":-76.20492,"city":"Norfolk","state":"VA","address":"5820 E. Virginia Beach Blvd.","name":""},
  {"lat":37.50116,"lon":-77.70649,"city":"Midlothian","state":"VA","address":"12201 Bridgewood Crossing Drive","name":""},
  {"lat":38.29143,"lon":-77.52662,"city":"Fredericksburg","state":"VA","address":"3985 Plank Rd.","name":""},
  {"lat":38.87461,"lon":-77.15064,"city":"Falls Church","state":"VA","address":"6607 Wilson Blvd.","name":""},
  {"lat":38.85601,"lon":-77.39649,"city":"Fairfax","state":"VA","address":"13053 Fair Lakes Shopping Ctr","name":""},
  {"lat":38.81211,"lon":-77.13167,"city":"Alexandria","state":"VA","address":"101 S. Van Dorn St.","name":""},
  {"lat":32.42736,"lon":-96.83698,"city":"Waxahachie","state":"TX","address":"2180 N US Highway 77","name":""},
  {"lat":32.68983,"lon":-97.01937,"city":"Grand Prairie","state":"TX","address":"1021 Ikea Way","name":""},
  {"lat":32.74454,"lon":-96.41769,"city":"Forney","state":"TX","address":"11150 E US Highway 80","name":""},
  {"lat":35.87659,"lon":-83.57019,"city":"Sevierville","state":"TN","address":"124 Allensville Road","name":""},
  {"lat":32.82345,"lon":-96.62459,"city":"Mesquite","state":"TX","address":"4355 Childress Ave","name":""},
  {"lat":35.73721,"lon":-83.9923,"city":"Maryville","state":"TN","address":"101 Foothills Mall Dr","name":""},
  {"lat":36.30541,"lon":-86.69749,"city":"Goodlettsville","state":"TN","address":"800 Rivergate Parkway","name":""},
  {"lat":35.12938,"lon":-85.24034,"city":"Chattanooga","state":"TN","address":"401 Northgate Mall Drive","name":""},
  {"lat":33.96066,"lon":-80.38653,"city":"Sumter","state":"SC","address":"1475 Alice Dr.","name":""},
  {"lat":33.74656,"lon":-78.96404,"city":"Myrtle Beach","state":"SC","address":"136 Las Palmas Drive","name":""},
  {"lat":36.16902,"lon":-86.51711,"city":"Mount Juliet","state":"TN","address":"181 Adams Lane","name":""},
  {"lat":41.51828,"lon":-71.29489,"city":"Middletown","state":"RI","address":"173 E. Main Rd.","name":""},
  {"lat":41.81623,"lon":-71.50215,"city":"Johnston","state":"RI","address":"200 Stonehill Dr.","name":""},
  {"lat":41.66165,"lon":-71.55095,"city":"Coventry","state":"RI","address":"790 Ctr of New England Blvd","name":""},
  {"lat":40.99671,"lon":-75.24421,"city":"Stroudsburg","state":"PA","address":"159 Pocono Commons Dr.","name":""},
  {"lat":39.91861,"lon":-75.1868,"city":"Philadelphia","state":"PA","address":"2300 W. Oregon Ave.","name":""},
  {"lat":40.36086,"lon":-80.12458,"city":"Bridgeville","state":"PA","address":"4000 Victoria St.","name":""},
  {"lat":40.54889,"lon":-80.0204,"city":"Pittsburgh","state":"PA","address":"6720 Northway Mall Drive","name":""},
  {"lat":40.37434,"lon":-75.93,"city":"Reading","state":"PA","address":"550 Madison Ave.","name":""},
  {"lat":40.09885,"lon":-75.02049,"city":"Philadelphia","state":"PA","address":"2044 Red Lion Rd.","name":""},
  {"lat":40.13065,"lon":-75.45223,"city":"Oaks","state":"PA","address":"200-C Mill Rd.","name":""},
  {"lat":40.18572,"lon":-74.8672,"city":"Fairless Hills","state":"PA","address":"350 Commerce Blvd.","name":""},
  {"lat":40.04422,"lon":-76.39162,"city":"Lancaster","state":"PA","address":"110 Centerville Rd.","name":""},
  {"lat":40.01656,"lon":-75.68357,"city":"Downingtown","state":"PA","address":"1008 E. Lancaster Ave.","name":""},
  {"lat":40.63772,"lon":-75.43481,"city":"Allentown","state":"PA","address":"1785 Airport Rd. South","name":""},
  {"lat":41.6279,"lon":-81.42648,"city":"Willoughby","state":"OH","address":"36595 Euclid Ave.","name":""},
  {"lat":41.44185,"lon":-81.49764,"city":"Warrensville Heights","state":"OH","address":"4365 Richmond Rd.","name":""},
  {"lat":40.24925,"lon":-75.24809,"city":"Lansdale","state":"PA","address":"640 Cowpath Rd.","name":""},
  {"lat":40.88133,"lon":-81.44093,"city":"North Canton","state":"OH","address":"6924 Frank Ave. NW","name":""},
  {"lat":40.07946,"lon":-82.85167,"city":"New Albany","state":"OH","address":"5900 N. Hamilton Rd.","name":""},
  {"lat":41.37513,"lon":-81.78495,"city":"Middleburg Heights","state":"OH","address":"6944 W. 130th St.","name":""},
  {"lat":40.17474,"lon":-83.01969,"city":"Lewis Center","state":"OH","address":"8425 Orange Centre Drive","name":""},
  {"lat":41.46236,"lon":-82.05157,"city":"Avon","state":"OH","address":"38292 Colorado Ave.","name":""},
  {"lat":35.1697,"lon":-79.42099,"city":"Southern Pines","state":"NC","address":"205 Southern Rd","name":""},
  {"lat":35.5212,"lon":-78.28054,"city":"Selma","state":"NC","address":"370 Trinity Springs Ln","name":""},
  {"lat":35.87367,"lon":-78.58364,"city":"Raleigh","state":"NC","address":"6301 Triangle Plantation Dr.","name":""},
  {"lat":35.07436,"lon":-80.87926,"city":"Pineville","state":"NC","address":"11715 Carolina Place Pkwy.","name":""},
  {"lat":35.59928,"lon":-80.8615,"city":"Mooresville","state":"NC","address":"141 Gallery Center Dr.","name":""},
  {"lat":35.06196,"lon":-78.9661,"city":"Fayetteville","state":"NC","address":"5200 Red Tip Rd.","name":""},
  {"lat":41.11642,"lon":-81.48507,"city":"Akron","state":"OH","address":"1677 Home Ave.","name":""},
  {"lat":35.36569,"lon":-80.71408,"city":"Concord","state":"NC","address":"7905 Lyles Ln.","name":""},
  {"lat":35.75341,"lon":-78.74154,"city":"Cary","state":"NC","address":"2370 Walnut St.","name":""},
  {"lat":36.06905,"lon":-79.51614,"city":"Burlington","state":"NC","address":"1433 Boone Station Dr.","name":""},
  {"lat":41.29069,"lon":-73.82718,"city":"Yorktown Heights","state":"NY","address":"3303 Crompond Rd.","name":""},
  {"lat":40.77809,"lon":-73.55884,"city":"Westbury","state":"NY","address":"6000 Brush Hollow Rd.","name":""},
  {"lat":43.20835,"lon":-77.46296,"city":"Webster","state":"NY","address":"950 Ridge Rd.","name":""},
  {"lat":41.56723,"lon":-73.90776,"city":"Wappingers Falls","state":"NY","address":"1404 US Route 9","name":""},
  {"lat":42.48593,"lon":-76.48882,"city":"Ithaca","state":"NY","address":"40 Graham Rd. West","name":""},
  {"lat":43.08908,"lon":-77.6297,"city":"Rochester","state":"NY","address":"400 Jay Scutti Blvd.","name":""},
  {"lat":42.78992,"lon":-78.81521,"city":"Blasdell","state":"NY","address":"4408 Milestrip Rd.","name":""},
  {"lat":41.09933,"lon":-73.95635,"city":"West Nyack","state":"NY","address":"1050 Palisades Center Dr.","name":""},
  {"lat":40.81191,"lon":-73.15781,"city":"Islandia","state":"NY","address":"1000 Old Nichols Rd.","name":""},
  {"lat":41.04187,"lon":-73.79867,"city":"White Plains","state":"NY","address":"399 Tarrytown Road","name":""},
  {"lat":43.1812,"lon":-77.68627,"city":"Rochester","state":"NY","address":"300 Bellwood Dr.","name":""},
  {"lat":40.73354,"lon":-73.60797,"city":"Garden City","state":"NY","address":"711 Stewart Ave.","name":""},
  {"lat":40.65227,"lon":-73.57137,"city":"Freeport","state":"NY","address":"100 Mill Rd.","name":""},
  {"lat":40.75693,"lon":-73.83435,"city":"Flushing","state":"NY","address":"131-07 40th Rd., Ste. A100","name":""},
  {"lat":40.74705,"lon":-73.42353,"city":"Farmingdale","state":"NY","address":"50 Daniel St.","name":""},
  {"lat":43.06108,"lon":-76.06612,"city":"East Syracuse","state":"NY","address":"Two Chevy Dr.","name":""},
  {"lat":40.89981,"lon":-73.08021,"city":"East Setauket","state":"NY","address":"4000 Nesconset Hwy. Rte. 347","name":""},
  {"lat":40.76341,"lon":-73.3066,"city":"Deer Park","state":"NY","address":"1900 The Arches Cir.","name":""},
  {"lat":40.84095,"lon":-73.29011,"city":"Commack","state":"NY","address":"2 Veteran's Memorial Highway","name":""},
  {"lat":40.78169,"lon":-73.83219,"city":"College Point","state":"NY","address":"13705 20th Ave.","name":""},
  {"lat":43.186,"lon":-76.22243,"city":"Clay","state":"NY","address":"4145 State Route 31","name":""},
  {"lat":42.98702,"lon":-78.69677,"city":"Williamsville","state":"NY","address":"5183 Transit Rd.","name":""},
  {"lat":40.6453,"lon":-73.913,"city":"Brooklyn","state":"NY","address":"900 Remsen Ave.","name":""},
  {"lat":40.59277,"lon":-73.99683,"city":"Brooklyn","state":"NY","address":"1752 Shore Parkway","name":""},
  {"lat":40.65082,"lon":-73.87352,"city":"Brooklyn","state":"NY","address":"339 Gateway Dr.","name":""},
  {"lat":40.88408,"lon":-73.90027,"city":"The Bronx","state":"NY","address":"184 West 237th St.","name":""},
  {"lat":40.81647,"lon":-73.9309,"city":"The Bronx","state":"NY","address":"610 Exterior St.","name":""},
  {"lat":40.78733,"lon":-72.95027,"city":"Bellport","state":"NY","address":"790 Sunrise Hwy S Service Rd","name":""},
  {"lat":43.01038,"lon":-78.21024,"city":"Batavia","state":"NY","address":"8330 Lewiston Rd.","name":""},
  {"lat":42.95685,"lon":-76.54197,"city":"Auburn","state":"NY","address":"11 Plaza Dr.","name":""},
  {"lat":42.98074,"lon":-78.8207,"city":"Amherst","state":"NY","address":"3056 Sheridan Dr.","name":""},
  {"lat":42.07995,"lon":-78.4659,"city":"Olean","state":"NY","address":"1899 Cinema Dr.","name":""},
  {"lat":42.70746,"lon":-73.82149,"city":"Albany","state":"NY","address":"1440 Central Ave.","name":""},
  {"lat":40.82526,"lon":-74.42686,"city":"Whippany","state":"NJ","address":"831 State Route 10","name":""},
  {"lat":40.88888,"lon":-74.25514,"city":"Wayne","state":"NJ","address":"300 Willowbrook Mall","name":""},
  {"lat":40.64278,"lon":-74.41348,"city":"Watchung","state":"NJ","address":"1601 US Highway 22","name":""},
  {"lat":39.83658,"lon":-74.92527,"city":"Voorhees","state":"NJ","address":"152 Route 73","name":""},
  {"lat":39.43123,"lon":-75.0402,"city":"Vineland","state":"NJ","address":"3849 S. Delsea Drive","name":""},
  {"lat":39.97376,"lon":-74.2406,"city":"Toms River","state":"NJ","address":"941 Route 37 W","name":""},
  {"lat":40.8794,"lon":-74.64278,"city":"Ledgewood","state":"NJ","address":"One Howard Blvd.","name":""},
  {"lat":40.98907,"lon":-74.32181,"city":"Riverdale","state":"NJ","address":"110 State Rte. 23","name":""},
  {"lat":40.91694,"lon":-74.07235,"city":"Paramus","state":"NJ","address":"30 S State Rte. 17","name":""},
  {"lat":40.44585,"lon":-74.29966,"city":"Old Bridge","state":"NJ","address":"1007 U.S. Highway 9","name":""},
  {"lat":40.26146,"lon":-74.04152,"city":"Oakhurst","state":"NJ","address":"1904 State Route 35","name":""},
  {"lat":40.43162,"lon":-74.51591,"city":"North Brunswick","state":"NJ","address":"2451 U.S. Highway 1 South","name":""},
  {"lat":40.8125,"lon":-74.01488,"city":"North Bergen","state":"NJ","address":"2100 88th St.","name":""},
  {"lat":39.45404,"lon":-74.63161,"city":"Mays Landing","state":"NJ","address":"200 Wrangleboro Rd.","name":""},
  {"lat":39.94828,"lon":-74.97329,"city":"Maple Shade","state":"NJ","address":"131 East Kings Highway","name":""},
  {"lat":39.70175,"lon":-74.27729,"city":"Manahawkin","state":"NJ","address":"321 Martin Truex Jr. Blvd.","name":""},
  {"lat":40.63681,"lon":-74.23433,"city":"Linden","state":"NJ","address":"1001 E. Edgar Rd.","name":""},
  {"lat":40.76018,"lon":-74.16028,"city":"Kearny","state":"NJ","address":"180 Passaic Ave.","name":""},
  {"lat":40.72296,"lon":-74.04058,"city":"Jersey City","state":"NJ","address":"396 Luis Munoz Marin Blvd.","name":""},
  {"lat":40.12902,"lon":-74.21805,"city":"Howell","state":"NJ","address":"5371 Route 9 North","name":""},
  {"lat":40.19924,"lon":-74.63692,"city":"Hamilton","state":"NJ","address":"900 Marketplace Blvd.","name":""},
  {"lat":40.53109,"lon":-74.85707,"city":"Flemington","state":"NJ","address":"186 State Route 31","name":""},
  {"lat":40.51775,"lon":-74.36876,"city":"Edison","state":"NJ","address":"1000 US Highway 1","name":""},
  {"lat":40.82532,"lon":-74.09606,"city":"East Rutherford","state":"NJ","address":"300 Route 17 North","name":""},
  {"lat":39.82872,"lon":-75.09253,"city":"Deptford","state":"NJ","address":"1910 Deptford Center Rd.","name":""},
  {"lat":43.62668,"lon":-72.32424,"city":"Lebanon","state":"NH","address":"262 Plainfield Rd.","name":""},
  {"lat":43.4588,"lon":-71.55866,"city":"Tilton","state":"NH","address":"119 Laconia Rd.","name":""},
  {"lat":42.89174,"lon":-70.87537,"city":"Seabrook","state":"NH","address":"30 Perkins Ave","name":""},
  {"lat":42.76506,"lon":-71.21263,"city":"Salem","state":"NH","address":"70 Cluff Rd.","name":""},
  {"lat":43.09033,"lon":-70.79136,"city":"Portsmouth","state":"NH","address":"1801 Woodbury Ave.","name":""},
  {"lat":42.72804,"lon":-71.44974,"city":"Nashua","state":"NH","address":"8 Sexton Ave.","name":""},
  {"lat":42.9601,"lon":-71.44245,"city":"Manchester","state":"NH","address":"200 John E. Devine Drive","name":""},
  {"lat":42.19465,"lon":-83.24643,"city":"Taylor","state":"MI","address":"15523 Racho Road","name":""},
  {"lat":42.50609,"lon":-83.10751,"city":"Madison Heights","state":"MI","address":"29101 John R Road","name":""},
  {"lat":42.72241,"lon":-84.65203,"city":"Lansing","state":"MI","address":"825 N. Marketplace Blvd.","name":""},
  {"lat":42.63142,"lon":-82.84436,"city":"Chesterfield","state":"MI","address":"45101 Towne Center Blvd","name":""},
  {"lat":42.32486,"lon":-83.4725,"city":"Canton","state":"MI","address":"43690 Ford Rd.","name":""},
  {"lat":42.20441,"lon":-70.95157,"city":"Weymouth","state":"MA","address":"622 Washington St., Rte. 53","name":""},
  {"lat":42.36883,"lon":-71.21608,"city":"Waltham","state":"MA","address":"66 Seyon St.","name":""},
  {"lat":41.95872,"lon":-71.11901,"city":"Taunton","state":"MA","address":"2085 Bay St.","name":""},
  {"lat":42.15093,"lon":-71.06591,"city":"Stoughton","state":"MA","address":"901 Technology Center Dr.","name":""},
  {"lat":42.49966,"lon":-71.12032,"city":"Stoneham","state":"MA","address":"85 Cedar St.","name":""},
  {"lat":42.09061,"lon":-72.56726,"city":"Springfield","state":"MA","address":"1655 Boston Rd.","name":""},
  {"lat":41.92055,"lon":-71.35845,"city":"South Attleboro","state":"MA","address":"287 Washington St.","name":""},
  {"lat":41.79817,"lon":-71.33743,"city":"Seekonk","state":"MA","address":"175 Highland Ave.","name":""},
  {"lat":42.42265,"lon":-71.00425,"city":"Revere","state":"MA","address":"5 Ward St.","name":""},
  {"lat":42.23971,"lon":-71.00596,"city":"Quincy","state":"MA","address":"30 Liberty St.","name":""},
  {"lat":42.2323,"lon":-71.01209,"city":"Quincy","state":"MA","address":"200 Crown Colony Dr.","name":""},
  {"lat":41.92877,"lon":-70.65356,"city":"Plymouth","state":"MA","address":"105 Shops at 5 Way","name":""},
  {"lat":42.46709,"lon":-73.19393,"city":"Pittsfield","state":"MA","address":"495 Hubbard Ave.","name":""},
  {"lat":42.16305,"lon":-71.19856,"city":"Norwood","state":"MA","address":"1412-1420 Boston Providence Turnpike","name":""},
  {"lat":42.29022,"lon":-71.67279,"city":"Northboro","state":"MA","address":"6102 Shops Way","name":""},
  {"lat":41.64083,"lon":-71.00291,"city":"North Dartmouth","state":"MA","address":"460 State Rd.","name":""},
  {"lat":42.41266,"lon":-71.07937,"city":"Medford","state":"MA","address":"278 Middlesex Ave.","name":""},
  {"lat":42.54726,"lon":-71.75595,"city":"Leominster","state":"MA","address":"115 Erdman Way","name":""},
  {"lat":41.66625,"lon":-70.28962,"city":"Hyannis","state":"MA","address":"590 Iyannough Road (Route 132)","name":""},
  {"lat":41.67712,"lon":-70.30646,"city":"Hyannis","state":"MA","address":"420 Attucks Ln.","name":""},
  {"lat":42.39627,"lon":-71.60093,"city":"Hudson","state":"MA","address":"1 Highland Commons West","name":""},
  {"lat":42.75717,"lon":-71.11847,"city":"Haverhill","state":"MA","address":"25 Shelley Rd.","name":""},
  {"lat":42.58835,"lon":-72.62243,"city":"Greenfield","state":"MA","address":"42 Colrain Rd.","name":""},
  {"lat":42.09177,"lon":-71.43403,"city":"Franklin","state":"MA","address":"100 Corporate Dr.","name":""},
  {"lat":42.30708,"lon":-71.39899,"city":"Framingham","state":"MA","address":"26 Whittier St.","name":""},
  {"lat":42.24083,"lon":-71.17642,"city":"Dedham","state":"MA","address":"688 Providence Hwy.","name":""},
  {"lat":42.55015,"lon":-70.92918,"city":"Danvers","state":"MA","address":"6 Hutchinson Dr.","name":""},
  {"lat":42.17617,"lon":-72.57666,"city":"Chicopee","state":"MA","address":"650 Memorial Dr.","name":""},
  {"lat":42.18273,"lon":-71.85436,"city":"Auburn","state":"MA","address":"782 Washington St.","name":""},
  {"lat":42.1829,"lon":-71.85254,"city":"Auburn","state":"MA","address":"777 Washington St.","name":""},
  {"lat":41.91656,"lon":-71.36034,"city":"Attleboro","state":"MA","address":"463 Washington St.","name":""},
  {"lat":39.5645,"lon":-76.96636,"city":"Westminster","state":"MD","address":"820 Market St.","name":""},
  {"lat":38.6139,"lon":-76.93186,"city":"Waldorf","state":"MD","address":"1000 St. Nicholas Dr.","name":""},
  {"lat":39.12351,"lon":-76.58702,"city":"Pasadena","state":"MD","address":"8139 Ritchie Highway","name":""},
  {"lat":39.41036,"lon":-76.77482,"city":"Owings Mills","state":"MD","address":"55 Music Fair Rd.","name":""},
  {"lat":38.29795,"lon":-76.51167,"city":"California","state":"MD","address":"44950 Worth Ave","name":""},
  {"lat":38.78293,"lon":-76.08868,"city":"Easton","state":"MD","address":"28410 Marlboro Ave.","name":""},
  {"lat":39.1966,"lon":-76.8203,"city":"Columbia","state":"MD","address":"6345 Dobbin Road","name":""},
  {"lat":39.18523,"lon":-76.8179,"city":"Columbia","state":"MD","address":"9011 Snowden River Pkwy.","name":""},
  {"lat":38.86643,"lon":-76.85085,"city":"Capitol Heights","state":"MD","address":"1781 Ritchie Station Ct.","name":""},
  {"lat":39.28084,"lon":-76.55636,"city":"Baltimore","state":"MD","address":"4701 O'Donnell St.","name":""},
  {"lat":38.94349,"lon":-76.71171,"city":"Bowie","state":"MD","address":"16520 Ball Park Rd.","name":""},
  {"lat":39.46098,"lon":-76.31753,"city":"Abingdon","state":"MD","address":"413 Constant Friendship Blvd.","name":""},
  {"lat":39.37965,"lon":-76.50091,"city":"Baltimore","state":"MD","address":"4201 Wholesale Club Dr.","name":""},
  {"lat":43.68692,"lon":-70.32057,"city":"Portland","state":"ME","address":"513 Warren Ave.","name":""},
  {"lat":44.84361,"lon":-68.74096,"city":"Bangor","state":"ME","address":"110 Longview Dr.","name":""},
  {"lat":44.12,"lon":-70.23416,"city":"Auburn","state":"ME","address":"110 Mt. Auburn Ave.","name":""},
  {"lat":38.13952,"lon":-85.67009,"city":"Louisville","state":"KY","address":"4807 Outer Loop","name":""},
  {"lat":40.04809,"lon":-86.02081,"city":"Noblesville","state":"IN","address":"13210 Tegler Drive","name":""},
  {"lat":39.9974,"lon":-86.12298,"city":"Carmel","state":"IN","address":"14400 Lowes Way","name":""},
  {"lat":34.08135,"lon":-84.54145,"city":"Woodstock","state":"GA","address":"105 Long Dr.","name":""},
  {"lat":32.61446,"lon":-83.72574,"city":"Warner Robins","state":"GA","address":"6201 Watson Blvd.","name":""},
  {"lat":33.38874,"lon":-84.76233,"city":"Newnan","state":"GA","address":"331 Newnan Crossing Bypass","name":""},
  {"lat":33.4475,"lon":-84.1399,"city":"McDonough","state":"GA","address":"245 Hwy 81 West","name":""},
  {"lat":33.65574,"lon":-84.5042,"city":"East Point","state":"GA","address":"3585 N. Commerce Dr.","name":""},
  {"lat":34.18759,"lon":-84.13293,"city":"Cumming","state":"GA","address":"1725 Marketplace Blvd.","name":""},
  {"lat":33.6401,"lon":-83.98371,"city":"Conyers","state":"GA","address":"1800 Dogwood Dr. SE","name":""},
  {"lat":26.71022,"lon":-80.07579,"city":"West Palm Beach","state":"FL","address":"777 Executive Center Drive","name":""},
  {"lat":25.6838,"lon":-80.45766,"city":"Miami","state":"FL","address":"16200 SW 88th St.","name":""},
  {"lat":28.02609,"lon":-82.56516,"city":"Tampa","state":"FL","address":"7651 W. Waters Ave.","name":""},
  {"lat":28.11461,"lon":-82.37809,"city":"Tampa","state":"FL","address":"6290 Commerce Palms Blvd.","name":""},
  {"lat":30.08506,"lon":-81.47384,"city":"Saint Johns","state":"FL","address":"115 Beachwalk Blvd","name":""},
  {"lat":27.39641,"lon":-82.45238,"city":"Hialeah","state":"FL","address":"8085 Cooper Creek Blvd.","name":""},
  {"lat":28.81188,"lon":-81.32617,"city":"Sanford","state":"FL","address":"W State Rd. 46 and Upsala Rd.","name":""},
  {"lat":26.68649,"lon":-80.20205,"city":"Royal Palm Beach","state":"FL","address":"500 N State Road 7","name":""},
  {"lat":29.10892,"lon":-81.02509,"city":"Port Orange","state":"FL","address":"1800 Dunlawton Ave.","name":""},
  {"lat":27.01079,"lon":-82.13439,"city":"Fort Myers","state":"FL","address":"19150 Quesada Ave","name":""},
  {"lat":30.49725,"lon":-87.22338,"city":"Pensacola","state":"FL","address":"7005 North Davis Highway","name":""},
  {"lat":26.00747,"lon":-80.3297,"city":"Pembroke Pines","state":"FL","address":"13700 Pines Blvd.","name":""},
  {"lat":26.31837,"lon":-80.20634,"city":"Parkland","state":"FL","address":"5901 W Hillsboro Blvd.","name":""},
  {"lat":29.47531,"lon":-81.19792,"city":"Palm Coast","state":"FL","address":"5857 State Route 100","name":""},
  {"lat":28.54652,"lon":-81.20689,"city":"Orlando","state":"FL","address":"12190 Lake Underhill Rd.","name":""},
  {"lat":28.49503,"lon":-81.42884,"city":"Orlando","state":"FL","address":"4697 Millenia Plaza Way","name":""},
  {"lat":30.15358,"lon":-81.74905,"city":"Orange Park","state":"FL","address":"560 Blanding Blvd.","name":""},
  {"lat":30.47285,"lon":-81.64357,"city":"Jacksonville","state":"FL","address":"12884 City Center Boulevard","name":""},
  {"lat":25.93008,"lon":-80.29363,"city":"Hialeah","state":"FL","address":"17250 NW 57th Ave.","name":""},
  {"lat":28.36127,"lon":-80.6925,"city":"Melbourne","state":"FL","address":"415 East Merritt Ave.","name":""},
  {"lat":28.03544,"lon":-80.64067,"city":"Melbourne","state":"FL","address":"1155 Palm Bay Rd. NE","name":""},
  {"lat":28.95919,"lon":-81.96049,"city":"Lady Lake","state":"FL","address":"13585 NE 86th Path","name":""},
  {"lat":28.34165,"lon":-81.41533,"city":"Kissimmee","state":"FL","address":"1100 W Osceola Pkwy.","name":""},
  {"lat":25.70298,"lon":-80.38209,"city":"Miami","state":"FL","address":"7007 SW 117th Ave.","name":""},
  {"lat":27.25483,"lon":-80.27867,"city":"Stuart","state":"FL","address":"4150 NW Federal Hwy.","name":""},
  {"lat":30.2256,"lon":-81.58878,"city":"Jacksonville","state":"FL","address":"8046 Philips Hwy.","name":""},
  {"lat":30.31899,"lon":-81.48853,"city":"Jacksonville","state":"FL","address":"12200 Atlantic Blvd.","name":""},
  {"lat":25.46234,"lon":-80.47628,"city":"Homestead","state":"FL","address":"650 SE 8th St.","name":""},
  {"lat":26.0448,"lon":-80.16009,"city":"Hollywood","state":"FL","address":"4000 Oakwood Blvd.","name":""},
  {"lat":25.85991,"lon":-80.32751,"city":"Hialeah","state":"FL","address":"8005 NW 95th St.","name":""},
  {"lat":26.60792,"lon":-81.81145,"city":"Fort Myers","state":"FL","address":"9372 6 Mile Cypress Parkway","name":""},
  {"lat":26.1896,"lon":-80.15505,"city":"Fort Lauderdale","state":"FL","address":"5100 NW. 9th Ave.","name":""},
  {"lat":26.45969,"lon":-80.12456,"city":"Delray Beach","state":"FL","address":"14595 S. Military Trail","name":""},
  {"lat":28.23723,"lon":-81.6393,"city":"Davenport","state":"FL","address":"6360 Grandview Parkway","name":""},
  {"lat":25.58939,"lon":-80.35973,"city":"Cutler Bay","state":"FL","address":"10425 Marlin Rd.","name":""},
  {"lat":25.74799,"lon":-80.30852,"city":"Miami","state":"FL","address":"7050 Coral Way","name":""},
  {"lat":26.24039,"lon":-80.24457,"city":"Coral Springs","state":"FL","address":"620 Riverside Dr.","name":""},
  {"lat":28.53602,"lon":-81.73667,"city":"Clermont","state":"FL","address":"2577 S. Hwy. 27","name":""},
  {"lat":28.01906,"lon":-82.73878,"city":"Clearwater","state":"FL","address":"26996 US Highway 19 N Clearwater","name":""},
  {"lat":28.66121,"lon":-81.33913,"city":"Casselberry","state":"FL","address":"108 SR. 436","name":""},
  {"lat":26.67152,"lon":-81.93379,"city":"Cape Coral","state":"FL","address":"1929 NE Pine Island Rd.","name":""},
  {"lat":28.53602,"lon":-82.51057,"city":"Brooksville","state":"FL","address":"13085 Cortez Blvd","name":""},
  {"lat":26.52737,"lon":-80.09385,"city":"Boynton Beach","state":"FL","address":"1540 W Boynton Beach Blvd.","name":""},
  {"lat":39.6584,"lon":-75.73577,"city":"Newark","state":"DE","address":"100 Pencader Plaza","name":""},
  {"lat":39.66866,"lon":-75.59948,"city":"New Castle","state":"DE","address":"124 Sunset Blvd.","name":""},
  {"lat":38.57257,"lon":-75.28621,"city":"Millsboro","state":"DE","address":"26676 Centerview Dr.","name":""},
  {"lat":39.73836,"lon":-75.60947,"city":"Wilmington","state":"DE","address":"2131 Kirkwood Hwy.","name":""},
  {"lat":41.7223,"lon":-72.23855,"city":"Willimantic","state":"CT","address":"1589 Main St.","name":""},
  {"lat":41.73949,"lon":-72.71932,"city":"West Hartford","state":"CT","address":"507 New Park Ave.","name":""},
  {"lat":41.37475,"lon":-72.16115,"city":"Waterford","state":"CT","address":"125 Cross Rd.","name":""},
  {"lat":41.53874,"lon":-72.99871,"city":"Waterbury","state":"CT","address":"344 Reidville Dr.","name":""},
  {"lat":41.49366,"lon":-72.80925,"city":"Wallingford","state":"CT","address":"1046 N. Colony Rd.","name":""},
  {"lat":41.81671,"lon":-73.09207,"city":"Torrington","state":"CT","address":"1280 East Main St.","name":""},
  {"lat":41.20037,"lon":-73.11443,"city":"Stratford","state":"CT","address":"955 Ferry Blvd.","name":""},
  {"lat":41.63437,"lon":-72.87492,"city":"Southington","state":"CT","address":"75 Spring St.","name":""},
  {"lat":41.35798,"lon":-72.87178,"city":"North Haven","state":"CT","address":"555 Universal Dr. N","name":""},
  {"lat":41.79579,"lon":-72.54753,"city":"Manchester","state":"CT","address":"1046 Tolland Turnpike","name":""},
  {"lat":41.16143,"lon":-73.23057,"city":"Fairfield","state":"CT","address":"40 Black Rock Tpke.","name":""},
  {"lat":41.33115,"lon":-73.0807,"city":"Derby","state":"CT","address":"20 Division St.","name":""},
  {"lat":41.4353,"lon":-73.41115,"city":"Brookfield","state":"CT","address":"106 Federal Rd.","name":""},
  {"lat":34.67083,"lon":-86.75049,"city":"Madison","state":"AL","address":"165 Graphics Drive","name":""},
  {"lat":30.36337,"lon":-87.68019,"city":"Foley","state":"AL","address":"McKenzie Street South","name":""},
  {"lat":35.69222,"lon":-78.58085,"city":"Garner","state":"NC","address":"255 Shenstone Blvd.","name":""},
  {"lat":35.90234,"lon":-78.78943,"city":"Raleigh","state":"NC","address":"8811 Brier Creek Pkwy.","name":""},
  {"lat":39.93898,"lon":-77.63316,"city":"Chambersburg","state":"PA","address":"540 Gateway Ave.","name":""},
  {"lat":40.24042,"lon":-76.98315,"city":"Mechanicsburg","state":"PA","address":"5415 Carlisle Pike","name":""},
  {"lat":40.09583,"lon":-75.30745,"city":"Conshohocken","state":"PA","address":"300 Alan Wood Rd.","name":""},
  {"lat":40.45956,"lon":-75.36824,"city":"Quakertown","state":"PA","address":"616 N. West End Blvd.","name":""},
  {"lat":39.91023,"lon":-75.33003,"city":"Springfield","state":"PA","address":"1260 E. Woodland Ave.","name":""},
  {"lat":40.21791,"lon":-75.13987,"city":"Warrington","state":"PA","address":"200 Easton Rd.","name":""},
  {"lat":39.96487,"lon":-76.77654,"city":"York","state":"PA","address":"02250 York Crossing Dr.","name":""},
  {"lat":41.82433,"lon":-71.50108,"city":"Johnston","state":"RI","address":"1450 Hartford Ave.","name":""},
  {"lat":41.7174,"lon":-71.47697,"city":"Warwick","state":"RI","address":"375 East Avenue","name":""},
  {"lat":33.03555,"lon":-80.1482,"city":"Summerville","state":"SC","address":"1035 Jockey Court","name":""},
  {"lat":35.98284,"lon":-86.57757,"city":"La Vergne","state":"TN","address":"543 Industrial Blvd.","name":""},
  {"lat":32.644,"lon":-97.417,"city":"SW Fort Worth","state":"TX","address":"7241 Harris Pkwy","name":""},
  {"lat":36.8254,"lon":-76.40594,"city":"Chesapeake","state":"VA","address":"2301 Taylor Rd.","name":""},
  {"lat":38.29525,"lon":-77.51697,"city":"Fredericksburg","state":"VA","address":"3303 Plank Road","name":""},
  {"lat":37.03614,"lon":-76.39569,"city":"Hampton","state":"VA","address":"2000 Power Plant Parkway","name":""},
  {"lat":37.60096,"lon":-77.35168,"city":"Mechanicsville","state":"VA","address":"7260 Bell Creek Rd.","name":""},
  {"lat":37.60139,"lon":-77.57053,"city":"Richmond","state":"VA","address":"1320 Starling Dr.","name":""},
  {"lat":37.31664,"lon":-79.95993,"city":"Roanoke","state":"VA","address":"1419 Hershberger Road, NW","name":""},
  {"lat":36.84025,"lon":-76.10107,"city":"Virginia Beach","state":"VA","address":"3712 Virginia Beach Blvd.","name":""},
  {"lat":38.64985,"lon":-77.3136,"city":"Woodbridge","state":"VA","address":"14123 Noblewood Plaza","name":""},
  {"lat":42.12624,"lon":-75.97212,"city":"Johnson City","state":"NY","address":"315 Reynolds Rd.","name":""},
  {"lat":40.7258,"lon":-73.50235,"city":"Levittown","state":"NY","address":"3635 Hempstead Tpke.","name":""},
  {"lat":40.75199,"lon":-73.9159,"city":"Long Island City","state":"NY","address":"34-60 48th Street","name":""},
  {"lat":44.94564,"lon":-74.84379,"city":"Massena","state":"NY","address":"6100 St. Lawrence Centre","name":""},
  {"lat":40.71253,"lon":-73.89621,"city":"Queens","state":"NY","address":"66-26 Metropolitan Ave.","name":""},
  {"lat":41.31886,"lon":-74.1453,"city":"Monroe","state":"NY","address":"232 Larkin Dr.","name":""},
  {"lat":41.50324,"lon":-74.0634,"city":"Newburgh","state":"NY","address":"401 Auto Park Place","name":""},
  {"lat":42.44616,"lon":-75.05546,"city":"Oneonta","state":"NY","address":"756 State Highway 28","name":""},
  {"lat":40.89286,"lon":-73.82022,"city":"Pelham","state":"NY","address":"825 Pelham Pkwy.","name":""},
  {"lat":40.935,"lon":-72.66321,"city":"Riverhead","state":"NY","address":"607 Old Country Rd.","name":""},
  {"lat":42.80723,"lon":-73.99238,"city":"Rotterdam","state":"NY","address":"70 W Campbell Rd.","name":""},
  {"lat":43.1049,"lon":-73.74108,"city":"Saratoga Springs","state":"NY","address":"3067 Route 50","name":""},
  {"lat":40.53069,"lon":-74.23018,"city":"Staten Island","state":"NY","address":"85 Bricktown Way","name":""},
  {"lat":43.11665,"lon":-75.21459,"city":"Utica","state":"NY","address":"400 River Rd.","name":""},
  {"lat":40.66203,"lon":-73.71457,"city":"Valley Stream","state":"NY","address":"125 Green Acres Rd.","name":""},
  {"lat":43.02614,"lon":-77.43946,"city":"Victor","state":"NY","address":"50 Eastview Mall Dr.","name":""}]}