{"key":"blue_bottle","displayName":"Blue Bottle Coffee","category":"coffee","useLocationName":false,"locations":[
  {"lat":37.441944,"lon":-122.171949,"city":"Palo Alto","state":"CA","address":"660 Stanford Shopping Center, #650B","name":""},
  {"lat":34.035837,"lon":-118.691277,"city":"Malibu","state":"CA","address":"23401 Civic Center Way, Suite 2A","name":""},
  {"lat":40.738631,"lon":-73.987119,"city":"New York City","state":"NY","address":"257 Park Ave South","name":""},
  {"lat":42.363312,"lon":-71.087597,"city":"Cambridge","state":"MA","address":"88 Ames St, Suite R120","name":""},
  {"lat":34.14321,"lon":-118.392135,"city":"Studio City","state":"CA","address":"11962 Ventura Blvd","name":""},
  {"lat":32.951628,"lon":-117.235727,"city":"San Diego","state":"CA","address":"3725 Paseo Place, Suite 1060","name":""},
  {"lat":40.752552,"lon":-74.000941,"city":"New York City","state":"NY","address":"20 Hudson Yards, #228","name":""},
  {"lat":33.617677,"lon":-117.928008,"city":"Newport Beach","state":"CA","address":"3366 Via Lido","name":""},
  {"lat":34.16719,"lon":-118.58945,"city":"Woodland Hills","state":"CA","address":"20929 Ventura Blvd, Space 26","name":""},
  {"lat":38.903861,"lon":-77.034682,"city":"Washington","state":"DC","address":"1100 15th St NW, Space #6","name":""},
  {"lat":37.787046,"lon":-122.398814,"city":"San Francisco","state":"CA","address":"168 2nd Street","name":""},
  {"lat":34.00268,"lon":-118.48426,"city":"Santa Monica","state":"CA","address":"2439 Main St","name":""},
  {"lat":37.825859,"lon":-122.253395,"city":"Oakland","state":"CA","address":"4001 Piedmont Ave","name":""},
  {"lat":34.145391,"lon":-118.150278,"city":"Pasadena","state":"CA","address":"18 S Fair Oaks","name":""},
  {"lat":40.77935,"lon":-73.980825,"city":"New York City","state":"NY","address":"279 Amsterdam Ave","name":""},
  {"lat":42.347312,"lon":-71.0819,"city":"Boston","state":"MA","address":"800 Boylston Street, Suite 25","name":""},
  {"lat":34.059003,"lon":-118.418866,"city":"Los Angeles","state":"CA","address":"10250 Santa Monica Blvd, #1765","name":""},
  {"lat":38.90804,"lon":-77.00005,"city":"Washington","state":"DC","address":"1250 4th St NE","name":""},
  {"lat":38.89729,"lon":-77.006203,"city":"Washington","state":"DC","address":"50 Massachusetts Ave NE, Unit M160","name":""},
  {"lat":42.371464,"lon":-71.116848,"city":"Cambridge","state":"MA","address":"40 Bow St","name":""},
  {"lat":40.717281,"lon":-73.961627,"city":"Brooklyn","state":"NY","address":"76 N. 4th Street, Store A","name":""},
  {"lat":34.07593,"lon":-118.383301,"city":"Los Angeles","state":"CA","address":"116 N Robertson Blvd, Plaza B","name":""},
  {"lat":40.759793,"lon":-73.975358,"city":"New York City","state":"NY","address":"10 E 53rd Street, Entrance is on 52nd St","name":""},
  {"lat":37.5407,"lon":-122.298336,"city":"San Mateo","state":"CA","address":"3081 Delaware Street","name":""},
  {"lat":34.086413,"lon":-118.361152,"city":"Los Angeles","state":"CA","address":"830 N. Fairfax Ave, Suite 1","name":""},
  {"lat":40.752507,"lon":-73.978396,"city":"New York City","state":"NY","address":"60 E 42nd Street, Suite 140","name":""},
  {"lat":40.710668,"lon":-74.012146,"city":"New York City","state":"NY","address":"150 Greenwich St, NW corner of Tower 4","name":""},
  {"lat":38.904386,"lon":-77.065438,"city":"Washington","state":"DC","address":"1046 Potomac Street NW","name":""},
  {"lat":33.981979,"lon":-118.405837,"city":"Los Angeles","state":"CA","address":"12105 W Waterfront Drive, Suite C4-108C","name":""},
  {"lat":37.801247,"lon":-122.273948,"city":"Oakland","state":"CA","address":"480 9th Street","name":""},
  {"lat":37.792362,"lon":-122.435477,"city":"San Francisco","state":"CA","address":"2453 Fillmore Street","name":""},
  {"lat":37.795928,"lon":-122.39372,"city":"San Francisco","state":"CA","address":"1 Ferry Building, #7","name":""},
  {"lat":34.065835,"lon":-118.398791,"city":"Beverly Hills","state":"CA","address":"132 South Beverly Drive","name":""},
  {"lat":34.109521,"lon":-118.287185,"city":"Los Angeles","state":"CA","address":"2066 Hillhurst Avenue","name":""},
  {"lat":34.05075,"lon":-118.247947,"city":"Los Angeles","state":"CA","address":"300 South Broadway","name":""},
  {"lat":37.782429,"lon":-122.393248,"city":"San Francisco","state":"CA","address":"2 South Park","name":""},
  {"lat":37.872109,"lon":-122.267578,"city":"Berkeley","state":"CA","address":"2118 University Avenue","name":""},
  {"lat":34.027694,"lon":-118.389585,"city":"Culver City","state":"CA","address":"8830 Washington Boulevard, Suite #103","name":""},
  {"lat":37.796027,"lon":-122.394219,"city":"San Francisco","state":"CA","address":"1 Ferry Building, Kiosk #4, Suite 56","name":""},
  {"lat":34.076381,"lon":-118.370245,"city":"Los Angeles","state":"CA","address":"8301 Beverly Boulevard","name":""},
  {"lat":37.791434,"lon":-122.400981,"city":"San Francisco","state":"CA","address":"115 Sansome Street","name":""},
  {"lat":37.776225,"lon":-122.423337,"city":"San Francisco","state":"CA","address":"315 Linden St.","name":""},
  {"lat":37.447595,"lon":-122.159606,"city":"Palo Alto","state":"CA","address":"456 University Avenue","name":""},
  {"lat":37.775953,"lon":-122.38859,"city":"San Francisco","state":"CA","address":"300 Toni Stone Crossing, STE E","name":""},
  {"lat":37.326298,"lon":-121.946332,"city":"Santa Clara","state":"CA","address":"2855 Stevens Creek Blvd, Space 9225","name":""},
  {"lat":40.752966,"lon":-73.984234,"city":"New York City","state":"NY","address":"54 W 40th St.","name":""},
  {"lat":36.064733,"lon":-115.277196,"city":"Las Vegas","state":"NV","address":"6815 Tom Rodriguez Street, #105","name":""},
  {"lat":33.991866,"lon":-118.470354,"city":"Venice","state":"CA","address":"1103 Abbot Kinney Blvd","name":""},
  {"lat":40.746799,"lon":-73.988777,"city":"New York City","state":"NY","address":"1227 Broadway","name":""},
  {"lat":41.890374,"lon":-87.623673,"city":"Chicago","state":"IL","address":"435 Michigan Ave, Unit 114","name":""},
  {"lat":42.350788,"lon":-71.045616,"city":"Boston","state":"MA","address":"113 Autumn Lane","name":""},
  {"lat":34.039103,"lon":-118.232473,"city":"Los Angeles","state":"CA","address":"582 Mateo St.","name":""},
  {"lat":40.72163,"lon":-74.0101,"city":"New York City","state":"NY","address":"408 Greenwich St","name":""},
  {"lat":37.22311,"lon":-121.98177,"city":"Los Gatos","state":"CA","address":"29 University Ave","name":""},
  {"lat":37.77397,"lon":-122.4188,"city":"San Francisco","state":"CA","address":"55 S Van Ness Ave","name":""},
  {"lat":40.75099,"lon":-73.99061,"city":"New York City","state":"NY","address":"1 Penn Plaza, Entrance on 34th St","name":""},
  {"lat":32.87247,"lon":-117.20849,"city":"San Diego","state":"CA","address":"4577 La Jolla Village Dr, #1210","name":""},
  {"lat":34.01677,"lon":-118.49479,"city":"Santa Monica","state":"CA","address":"415 Santa Monica Blvd","name":""},
  {"lat":41.887762,"lon":-87.636934,"city":"Chicago","state":"IL","address":"313 W Wolf Point Plaza, Ste 120","name":""},
  {"lat":40.687265,"lon":-73.98975,"city":"Brooklyn","state":"NY","address":"85 Dean St.","name":""},
  {"lat":37.797561,"lon":-122.404163,"city":"San Francisco","state":"CA","address":"909 Montgomery St, #105","name":""},
  {"lat":37.790483,"lon":-122.396439,"city":"San Francisco","state":"CA","address":"250 Howard St, Suite 3A","name":""},
  {"lat":40.75148,"lon":-73.99582,"city":"New York City","state":"NY","address":"441 8th Ave","name":""},
  {"lat":37.77101,"lon":-122.39117,"city":"San Francisco","state":"CA","address":"1385 4th St","name":""},
  {"lat":42.322965,"lon":-71.168719,"city":"Chestnut Hill","state":"MA","address":"33 Boylston St, Ste 3300","name":""},
  {"lat":37.5663,"lon":-122.32292,"city":"San Mateo","state":"CA","address":"201 South B St, Suite A","name":""},
  {"lat":34.063924,"lon":-118.298112,"city":"Los Angeles","state":"CA","address":"555 S Alexandria Ave","name":""},
  {"lat":40.80652,"lon":-73.96549,"city":"New York City","state":"NY","address":"2901 Broadway","name":""},
  {"lat":40.759369,"lon":-73.9786,"city":"New York City","state":"NY","address":"1 Rockefeller Plaza","name":""},
  {"lat":40.706533,"lon":-74.011138,"city":"New York City","state":"NY","address":"22 Broad St","name":""},
  {"lat":32.71571,"lon":-117.16376,"city":"San Diego","state":"CA","address":"180 Broadway, Suite 101","name":""},
  {"lat":42.350872,"lon":-71.078745,"city":"Boston","state":"MA","address":"163 Newbury Street","name":""},
  {"lat":40.762878,"lon":-73.978722,"city":"New York City","state":"NY","address":"1345 Avenue of the Americas","name":""},
  {"lat":37.320054,"lon":-121.947862,"city":"San Jose","state":"CA","address":"368 Santana Row, Suite 1020","name":""},
  {"lat":37.789767,"lon":-122.403672,"city":"San Francisco","state":"CA","address":"199 Sutter Street","name":""},
  {"lat":37.78718,"lon":-122.40357,"city":"San Francisco","state":"CA","address":"705 Market St","name":""},
  {"lat":40.71825,"lon":-74.002033,"city":"New York City","state":"NY","address":"396 Broadway","name":""}]}