{"key":"boston_pizza","displayName":"Boston Pizza","category":"restaurant","useLocationName":false,"locations":[
  {"lat":48.449059,"lon":-123.49512,"city":"Victoria","state":"BC","address":"2755 Veterans Memorial Parkway","name":""},
  {"lat":54.407105,"lon":-110.205396,"city":"Cold Lake","state":"AB","address":"4308-50th Street","name":""},
  {"lat":55.189674,"lon":-118.794188,"city":"Grande Prairie","state":"AB","address":"12117 100th Street","name":""},
  {"lat":56.237332,"lon":-117.290208,"city":"Peace River","state":"AB","address":"9602 100th Street","name":""},
  {"lat":56.729007,"lon":-111.3879,"city":"Fort McMurray","state":"AB","address":"10202 MacDonald Avenue","name":""},
  {"lat":53.586505,"lon":-116.420916,"city":"Edson","state":"AB","address":"4523 4th Avenue","name":""},
  {"lat":51.457716,"lon":-112.704876,"city":"Drumheller","state":"AB","address":"500-680 2nd Street SE","name":""},
  {"lat":53.395697,"lon":-117.602511,"city":"Hinton","state":"AB","address":"100-506 Carmichael Lane","name":""},
  {"lat":54.141485,"lon":-115.678065,"city":"Whitecourt","state":"AB","address":"3836 Keppler Street","name":""},
  {"lat":55.278787,"lon":-114.772477,"city":"Slave Lake","state":"AB","address":"604 Main Street, SW","name":""},
  {"lat":48.454465,"lon":-123.371631,"city":"Victoria","state":"BC","address":"#102 - 3510 Blanshard Street","name":""},
  {"lat":51.194634,"lon":-114.490124,"city":"Cochrane","state":"AB","address":"15 West Side Drive","name":""},
  {"lat":51.154234,"lon":-114.061372,"city":"Calgary","state":"AB","address":"600-388 Country Hills Blvd","name":""},
  {"lat":52.472887,"lon":-113.718504,"city":"Lacombe","state":"AB","address":"5846 Highway 2-A","name":""},
  {"lat":51.177016,"lon":-115.570817,"city":"Banff","state":"AB","address":"201 - 225 Banff Ave.","name":""},
  {"lat":49.785119,"lon":-112.129105,"city":"Taber","state":"AB","address":"14 - 6200 46 Avenue","name":""},
  {"lat":56.754835,"lon":-111.46241,"city":"Fort McMurray","state":"AB","address":"110 Millennium Drive","name":""},
  {"lat":52.325082,"lon":-112.736637,"city":"Stettler","state":"AB","address":"6711 - 50th Ave","name":""},
  {"lat":52.310506,"lon":-114.072704,"city":"Sylvan Lake","state":"AB","address":"61 BEJU IND. DR","name":""},
  {"lat":55.17141,"lon":-118.834199,"city":"Grande Prairie","state":"AB","address":"11250 Westgate Drive","name":""},
  {"lat":49.319959,"lon":-124.305522,"city":"Parksville","state":"BC","address":"430 East Island Highway","name":""},
  {"lat":50.987304,"lon":-114.044229,"city":"Calgary","state":"AB","address":"7 Heritage Gate SE","name":""},
  {"lat":50.96124,"lon":-114.12087,"city":"Calgary","state":"AB","address":"2580 Southland Drive SW","name":""},
  {"lat":51.037048,"lon":-113.390163,"city":"Strathmore","state":"AB","address":"#114 - 800 Pine Road","name":""},
  {"lat":50.570779,"lon":-113.845696,"city":"High River","state":"AB","address":"1508 13 Ave SE","name":""},
  {"lat":52.360992,"lon":-114.906731,"city":"Rocky Mountain House","state":"AB","address":"4402 41st Avenue","name":""},
  {"lat":52.301088,"lon":-113.814372,"city":"Red Deer","state":"AB","address":"7494 50th Avenue","name":""},
  {"lat":50.961585,"lon":-114.072294,"city":"Calgary","state":"AB","address":"10456 Southport Road SW.","name":""},
  {"lat":51.04128,"lon":-114.135466,"city":"Calgary","state":"AB","address":"1313 33rd Street, SW","name":""},
  {"lat":51.12694,"lon":-114.197846,"city":"Calgary","state":"AB","address":"140 Crowfoot Crescent, NW","name":""},
  {"lat":52.250971,"lon":-113.813553,"city":"Red Deer","state":"AB","address":"3215 Gaetz Avenue","name":""},
  {"lat":51.047574,"lon":-113.994218,"city":"Calgary","state":"AB","address":"2836 Memorial Drive, SE","name":""},
  {"lat":51.125281,"lon":-114.072109,"city":"Calgary","state":"AB","address":"8108 Beddington Blvd. NW","name":""},
  {"lat":49.266124,"lon":-124.786108,"city":"Port Alberni","state":"BC","address":"Unit # 100 - 3550 Johnston Road","name":""},
  {"lat":51.0974,"lon":-115.357838,"city":"Canmore","state":"AB","address":"1704 Bow Valley Trail","name":""},
  {"lat":50.977103,"lon":-114.015706,"city":"Calgary","state":"AB","address":"700-8338 18th Street SE","name":""},
  {"lat":50.903047,"lon":-114.065512,"city":"Calgary","state":"AB","address":"235 Shawville Blvd SE","name":""},
  {"lat":51.106491,"lon":-114.158901,"city":"Calgary","state":"AB","address":"703 - 5005 Dalhousie Drive NW","name":""},
  {"lat":50.931887,"lon":-113.97036,"city":"Calgary","state":"AB","address":"220-4307 130th Avenue SE","name":""},
  {"lat":50.715708,"lon":-113.980503,"city":"Okotoks","state":"AB","address":"10 Southridge Drive","name":""},
  {"lat":49.672097,"lon":-112.799597,"city":"Lethbridge","state":"AB","address":"2041 Mayor Magrath Drive South","name":""},
  {"lat":53.543093,"lon":-113.610703,"city":"Edmonton","state":"AB","address":"180 Mayfield Common","name":""},
  {"lat":53.518173,"lon":-113.510839,"city":"Edmonton","state":"AB","address":"10854 82nd Avenue","name":""},
  {"lat":53.54103,"lon":-113.420578,"city":"Edmonton","state":"AB","address":"5515 101 Avenue","name":""},
  {"lat":53.570325,"lon":-113.392376,"city":"Edmonton","state":"AB","address":"3303 118th Avenue","name":""},
  {"lat":53.599452,"lon":-113.492991,"city":"Edmonton","state":"AB","address":"9703 137th Ave","name":""},
  {"lat":49.736539,"lon":-123.133134,"city":"Squamish","state":"BC","address":"40167 Glenalder Place","name":""},
  {"lat":53.653134,"lon":-113.62898,"city":"St Albert","state":"AB","address":"#80 - 585 St. Albert Trail","name":""},
  {"lat":53.542362,"lon":-113.910289,"city":"Spruce Grove","state":"AB","address":"201 Calahoo Road","name":""},
  {"lat":53.513316,"lon":-113.330139,"city":"Sherwood Park","state":"AB","address":"967 Ordze Road","name":""},
  {"lat":53.452729,"lon":-113.484215,"city":"Edmonton","state":"AB","address":"9804 22nd Avenue","name":""},
  {"lat":53.264766,"lon":-113.559572,"city":"Leduc","state":"AB","address":"5309 50th Avenue","name":""},
  {"lat":52.969929,"lon":-113.389709,"city":"Wetaskiwin","state":"AB","address":"5527 A 49th Avenue","name":""},
  {"lat":53.018025,"lon":-112.84342,"city":"Camrose","state":"AB","address":"6046 48th Avenue","name":""},
  {"lat":50.585869,"lon":-111.898158,"city":"Brooks","state":"AB","address":"1323 Second Street West","name":""},
  {"lat":53.277873,"lon":-110.035693,"city":"Lloydminster","state":"AB","address":"6303 44th Street","name":""},
  {"lat":49.223766,"lon":-122.67073,"city":"Pitt Meadows","state":"BC","address":"Unit 510 - 19800 Lougheed Hwy","name":""},
  {"lat":53.705644,"lon":-113.193932,"city":"Fort Saskatchewan","state":"AB","address":"8751 94th Street","name":""},
  {"lat":53.524876,"lon":-113.615593,"city":"Edmonton","state":"AB","address":"17002 90th Avenue","name":""},
  {"lat":49.999455,"lon":-110.652311,"city":"Medicine Hat","state":"AB","address":"#500 - 1751 Strachan Rd. SE","name":""},
  {"lat":53.599626,"lon":-113.530107,"city":"Edmonton","state":"AB","address":"12104 137th Ave","name":""},
  {"lat":52.677462,"lon":-113.592425,"city":"Ponoka","state":"AB","address":"4820 60th Street","name":""},
  {"lat":53.562217,"lon":-113.551512,"city":"Edmonton","state":"AB","address":"11320 Groat Road","name":""},
  {"lat":53.453822,"lon":-113.513625,"city":"Edmonton","state":"AB","address":"11023 23rd Avenue","name":""},
  {"lat":53.454505,"lon":-113.422975,"city":"Edmonton","state":"AB","address":"5228 23rd Avenue","name":""},
  {"lat":53.540944,"lon":-113.503319,"city":"Edmonton","state":"AB","address":"10620 Jasper Avenue","name":""},
  {"lat":49.161943,"lon":-122.887739,"city":"Surrey","state":"BC","address":"12060 Nordel Way","name":""},
  {"lat":53.542403,"lon":-113.978256,"city":"Stony Plain","state":"AB","address":"70 Boulder Blvd.","name":""},
  {"lat":53.626919,"lon":-113.491714,"city":"Edmonton","state":"AB","address":"16521 97th Street NW","name":""},
  {"lat":53.230659,"lon":-114.977615,"city":"Drayton Valley","state":"AB","address":"5645 50th Street","name":""},
  {"lat":53.475788,"lon":-113.573082,"city":"Edmonton","state":"AB","address":"378 Bulyea Rd","name":""},
  {"lat":53.523609,"lon":-113.615491,"city":"Edmonton","state":"AB","address":"1678-8882 170th Street","name":""},
  {"lat":51.791559,"lon":-114.106602,"city":"Olds","state":"AB","address":"4520 46 Street","name":""},
  {"lat":53.507309,"lon":-113.444552,"city":"Edmonton","state":"AB","address":"7641 Argyll Road","name":""},
  {"lat":49.168937,"lon":-122.665157,"city":"Langley","state":"BC","address":"20090 - 91A Avenue","name":""},
  {"lat":53.625345,"lon":-113.61573,"city":"St Albert","state":"AB","address":"200 St. Albert Road","name":""},
  {"lat":53.991867,"lon":-111.273323,"city":"St Paul","state":"AB","address":"5009 42nd Street","name":""},
  {"lat":58.506967,"lon":-117.140056,"city":"High Level","state":"AB","address":"9506 114th Ave","name":""},
  {"lat":53.485572,"lon":-113.49489,"city":"Edmonton","state":"AB","address":"4804 Calgary Trail NW","name":""},
  {"lat":54.152055,"lon":-113.830389,"city":"Westlock","state":"AB","address":"11303 - 100 Street","name":""},
  {"lat":53.544896,"lon":-113.319218,"city":"Sherwood Park","state":"AB","address":"11 Broadway Blvd","name":""},
  {"lat":53.599039,"lon":-113.40689,"city":"Edmonton","state":"AB","address":"13803 42nd Street NW","name":""},
  {"lat":52.843405,"lon":-110.859318,"city":"Wainwright","state":"AB","address":"617 14th Ave","name":""},
  {"lat":53.362578,"lon":-113.415175,"city":"Beaumont","state":"AB","address":"6210 50th St","name":""},
  {"lat":53.496313,"lon":-113.664812,"city":"Edmonton","state":"AB","address":"6238 199th Street NW","name":""},
  {"lat":48.781962,"lon":-123.696215,"city":"Duncan","state":"BC","address":"5845 Trans Canada Hwy.","name":""},
  {"lat":49.120931,"lon":-122.734838,"city":"Surrey","state":"BC","address":"600-6486 176th St","name":""},
  {"lat":50.404983,"lon":-104.621081,"city":"Regina","state":"SK","address":"4657 Rae Street","name":""},
  {"lat":52.172926,"lon":-106.650774,"city":"Saskatoon","state":"SK","address":"826 51st Street","name":""},
  {"lat":52.114934,"lon":-106.633665,"city":"Saskatoon","state":"SK","address":"Unit 10 - 1519 8th Street East","name":""},
  {"lat":50.446407,"lon":-104.545781,"city":"Regina","state":"SK","address":"2660 Star Lite Dr E","name":""},
  {"lat":50.485203,"lon":-104.618151,"city":"Regina","state":"SK","address":"545 Albert Street N.","name":""},
  {"lat":50.411191,"lon":-105.535719,"city":"Moose Jaw","state":"SK","address":"1650 Main Street North","name":""},
  {"lat":51.210143,"lon":-102.449726,"city":"Yorkton","state":"SK","address":"226 Broadway St. SE.","name":""},
  {"lat":53.183599,"lon":-105.760001,"city":"Prince Albert","state":"SK","address":"3250 2nd Ave., West","name":""},
  {"lat":50.304292,"lon":-107.780392,"city":"Swift Current","state":"SK","address":"1601 North Service Road East","name":""},
  {"lat":49.258751,"lon":-123.032061,"city":"Vancouver","state":"BC","address":"2850 Bentall Street","name":""},
  {"lat":50.496558,"lon":-104.642999,"city":"Regina","state":"SK","address":"4303 Rochdale Blvd","name":""},
  {"lat":52.760968,"lon":-108.276653,"city":"North Battleford","state":"SK","address":"Unit 34 - 11434 Railway Avenue","name":""},
  {"lat":49.147651,"lon":-102.991746,"city":"Estevan","state":"SK","address":"102 Souris Avenue","name":""},
  {"lat":52.2019,"lon":-105.1231,"city":"Humboldt","state":"SK","address":"2331 Quill Center","name":""},
  {"lat":52.150072,"lon":-106.569119,"city":"Saskatoon","state":"SK","address":"515 Nelson Road","name":""},
  {"lat":52.101393,"lon":-106.567364,"city":"Saskatoon","state":"SK","address":"329 Herold Road","name":""},
  {"lat":49.662493,"lon":-103.856011,"city":"Weyburn","state":"SK","address":"35 Riverview Drive","name":""},
  {"lat":50.44468,"lon":-104.4119,"city":"Emerald Park","state":"SK","address":"22 Great Plains Road","name":""},
  {"lat":52.853313,"lon":-104.590913,"city":"Melfort","state":"SK","address":"No. 260 Stonegate 500 Highway 6 South","name":""},
  {"lat":49.19147,"lon":-122.945495,"city":"New Westminster","state":"BC","address":"Unit P100-805 Boyd Street","name":""},
  {"lat":52.12646,"lon":-106.7589,"city":"Saskatoon","state":"SK","address":"107 Betts Avenue","name":""},
  {"lat":52.282579,"lon":-106.670112,"city":"Martensville","state":"SK","address":"631 Centennial Dr","name":""},
  {"lat":51.4678,"lon":-109.1567,"city":"Kindersley","state":"SK","address":"1412 12th Ave West","name":""},
  {"lat":54.124682,"lon":-108.452559,"city":"Meadow Lake","state":"SK","address":"717 9th Street","name":""},
  {"lat":52.086133,"lon":-106.645896,"city":"Saskatoon","state":"SK","address":"#130 – 3055 Clarence Avenue South","name":""},
  {"lat":50.418747,"lon":-104.513338,"city":"Regina","state":"SK","address":"#10 - 3795 Chuka Blvd","name":""},
  {"lat":49.197849,"lon":-122.976299,"city":"Burnaby","state":"BC","address":"5801 Marine Way","name":""},
  {"lat":49.313098,"lon":-123.081908,"city":"North Vancouver","state":"BC","address":"88 Chesterfield Ave","name":""},
  {"lat":51.121538,"lon":-113.946202,"city":"Calgary","state":"AB","address":"80 Saddletowne Circle NE","name":""},
  {"lat":51.048759,"lon":-113.828039,"city":"Chestermere","state":"AB","address":"#200 - 196 Chestermere Station Way","name":""},
  {"lat":52.016129,"lon":-113.950566,"city":"Innisfail","state":"AB","address":"5014 - 40th Ave","name":""},
  {"lat":53.503816,"lon":-112.081724,"city":"Vegreville","state":"AB","address":"6601 Highway 16A West","name":""},
  {"lat":53.34944,"lon":-110.859441,"city":"Vermilion","state":"AB","address":"#100-5208 46th Ave","name":""},
  {"lat":50.064942,"lon":-110.732614,"city":"Medicine Hat","state":"AB","address":"2500 Box Springs Blvd","name":""},
  {"lat":51.205493,"lon":-113.995756,"city":"Rocky View","state":"AB","address":"261055 CrossIron Blvd","name":""},
  {"lat":51.162782,"lon":-114.12714,"city":"Calgary","state":"AB","address":"12286 Symons Valley Road NW","name":""},
  {"lat":51.000279,"lon":-114.074815,"city":"Calgary","state":"AB","address":"232 - 6455 Macleod Trail SW","name":""},
  {"lat":56.237703,"lon":-120.848807,"city":"Fort St John","state":"BC","address":"9508 Alaska Road North","name":""},
  {"lat":53.564959,"lon":-113.503387,"city":"Edmonton","state":"AB","address":"11440-106th Street","name":""},
  {"lat":54.76295,"lon":-112.00829,"city":"Lac La Biche","state":"AB","address":"14068 Stanley Drive","name":""},
  {"lat":49.49779,"lon":-113.9473,"city":"Pincher Creek","state":"AB","address":"1130 Table Mountain Street","name":""},
  {"lat":53.352556,"lon":-113.729661,"city":"Devon","state":"AB","address":"135-180 Miquelon Ave","name":""},
  {"lat":53.424955,"lon":-113.485362,"city":"Edmonton","state":"AB","address":"9630 Ellerslie Road SW","name":""},
  {"lat":53.628788,"lon":-113.5429,"city":"Edmonton","state":"AB","address":"12788 167 Ave Edmonton","name":""},
  {"lat":53.542906,"lon":-113.934536,"city":"Spruce Grove","state":"AB","address":"112 205 Jennifer Heil Way","name":""},
  {"lat":52.3833,"lon":-113.8,"city":"Blackfalds","state":"AB","address":"#100 - 37 Cottonwood Drive","name":""},
  {"lat":53.616365,"lon":-113.394289,"city":"Edmonton","state":"AB","address":"15541 37st, NW","name":""},
  {"lat":52.211379,"lon":-113.816299,"city":"Red Deer County","state":"AB","address":"122 Leva Avenue","name":""},
  {"lat":55.763795,"lon":-120.244838,"city":"Dawson Creek","state":"BC","address":"1525 Alaska Ave","name":""},
  {"lat":54.2667,"lon":-110.75,"city":"Bonnyville","state":"AB","address":"5406 EastPointe Way","name":""},
  {"lat":49.671845,"lon":-112.90543,"city":"Lethbridge","state":"AB","address":"#10-14 Aquitania Blvd W","name":""},
  {"lat":53.308403,"lon":-113.584664,"city":"Edmonton","state":"AB","address":"1000 Airport Rd","name":""},
  {"lat":53.436709,"lon":-113.607083,"city":"Edmonton","state":"AB","address":"6254 Currents Drive","name":""},
  {"lat":54.71905,"lon":-113.241996,"city":"Athabasca","state":"AB","address":"2201 48th Ave","name":""},
  {"lat":50.877894,"lon":-113.960803,"city":"Calgary","state":"AB","address":"200 – 19587 Seton Cres SE","name":""},
  {"lat":51.062288,"lon":-114.210606,"city":"Calgary","state":"AB","address":"305, 8560 8A Ave SW","name":""},
  {"lat":53.545641,"lon":-113.494661,"city":"Edmonton","state":"AB","address":"10111 104 ave Unit 120","name":""},
  {"lat":51.08637,"lon":-114.1538,"city":"Calgary","state":"AB","address":"Unit G1, 3625 Shaganappi Trail N.W.","name":""},
  {"lat":51.06642,"lon":-114.098706,"city":"Calgary","state":"AB","address":"#1652, 1632 14th Ave","name":""},
  {"lat":51.300556,"lon":-114.011667,"city":"Airdrie","state":"AB","address":"#400-300 Veterans Blvd","name":""},
  {"lat":53.79623,"lon":-113.63485,"city":"Morinville","state":"AB","address":"9140 100 Street","name":""},
  {"lat":53.91752,"lon":-122.782172,"city":"Prince George","state":"BC","address":"102-841 West Central Street","name":""},
  {"lat":51.13695,"lon":-100.062797,"city":"Dauphin","state":"MB","address":"D24 - 1450 Main Street South","name":""},
  {"lat":49.827436,"lon":-99.952531,"city":"Brandon","state":"MB","address":"#2, 1140 Richmond Ave","name":""},
  {"lat":49.793684,"lon":-97.157549,"city":"Winnipeg","state":"MB","address":"2729 Pembina Hwy","name":""},
  {"lat":49.87512,"lon":-97.258096,"city":"Winnipeg","state":"MB","address":"2517 Portage Avenue","name":""},
  {"lat":49.898811,"lon":-97.07043,"city":"Winnipeg","state":"MB","address":"210-1615 Regent Ave. W.","name":""},
  {"lat":49.823092,"lon":-97.202785,"city":"Winnipeg","state":"MB","address":"1630 Kenaston Blvd","name":""},
  {"lat":53.880992,"lon":-122.770137,"city":"Prince George","state":"BC","address":"2500 Vance Road","name":""},
  {"lat":49.971187,"lon":-98.317868,"city":"Portage la Prairie","state":"MB","address":"2180 Saskatchewan Avenue","name":""},
  {"lat":49.837957,"lon":-97.094158,"city":"Winnipeg","state":"MB","address":"1919 Abinojii Mikanah","name":""},
  {"lat":49.950837,"lon":-97.149558,"city":"Winnipeg","state":"MB","address":"Unit A-2211 McPhillips Street","name":""},
  {"lat":50.156012,"lon":-96.897886,"city":"Selkirk","state":"MB","address":"1018 Manitoba Ave","name":""},
  {"lat":55.744049,"lon":-97.848552,"city":"Thompson","state":"MB","address":"4 Moak Crescent","name":""},
  {"lat":49.854381,"lon":-97.163956,"city":"Winnipeg","state":"MB","address":"1160 Taylor Avenue","name":""},
  {"lat":49.193621,"lon":-98.106214,"city":"Morden","state":"MB","address":"215 La Verendrye Boulevard","name":""},
  {"lat":49.88386,"lon":-97.201447,"city":"Winnipeg","state":"MB","address":"690 St. James Street","name":""},
  {"lat":49.890444,"lon":-97.14268,"city":"Winnipeg","state":"MB","address":"66-333 St. Mary Avenue","name":""},
  {"lat":49.94684,"lon":-97.08475,"city":"Winnipeg","state":"MB","address":"1475 Henderson Hwy","name":""},
  {"lat":49.5372,"lon":-96.6822,"city":"Steinbach","state":"MB","address":"182 PTH 12 North","name":""},
  {"lat":49.856621,"lon":-100.921735,"city":"Virden","state":"MB","address":"290 Frontage Road W","name":""},
  {"lat":49.888827,"lon":-99.950835,"city":"Brandon","state":"MB","address":"2040 Marshall Lane","name":""},
  {"lat":50.226643,"lon":-99.478527,"city":"Neepawa","state":"MB","address":"500 PTH #5 Hwy. Box 4021","name":""},
  {"lat":49.85905,"lon":-97.26371,"city":"Winnipeg","state":"MB","address":"3894 Grant Ave","name":""},
  {"lat":49.034436,"lon":-123.089637,"city":"Tsawwassen","state":"BC","address":"Restaurant 3 - 5000 Canoe Pass Way","name":""},
  {"lat":49.032361,"lon":-119.462712,"city":"Osoyoos","state":"BC","address":"#238-15 Park Place","name":""},
  {"lat":52.13634,"lon":-122.135189,"city":"Williams Lake","state":"BC","address":"285 Donald Road","name":""},
  {"lat":49.778979,"lon":-94.484978,"city":"Kenora","state":"ON","address":"223 Main Street","name":""},
  {"lat":48.380801,"lon":-89.281972,"city":"Thunder Bay","state":"ON","address":"217 W. Arthur Street","name":""},
  {"lat":48.420734,"lon":-89.238498,"city":"Thunder Bay","state":"ON","address":"505 Memorial Avenue","name":""},
  {"lat":43.731277,"lon":-81.691071,"city":"Goderich","state":"ON","address":"490 Huron Road","name":""},
  {"lat":44.329915,"lon":-78.342044,"city":"Peterborough","state":"ON","address":"1164 Chemong Rd","name":""},
  {"lat":45.050138,"lon":-79.29267,"city":"Bracebridge","state":"ON","address":"10 Depot Drive","name":""},
  {"lat":44.265773,"lon":-76.501452,"city":"Kingston","state":"ON","address":"95 Dalton Avenue","name":""},
  {"lat":48.47707,"lon":-81.361289,"city":"Timmins","state":"ON","address":"856 Riverside Drive","name":""},
  {"lat":44.574556,"lon":-80.918023,"city":"Owen Sound","state":"ON","address":"1606 16th Street East","name":""},
  {"lat":44.279666,"lon":-78.344674,"city":"Peterborough","state":"ON","address":"821 Rye Street","name":""},
  {"lat":44.501667,"lon":-80.228898,"city":"Collingwood","state":"ON","address":"390 First Street","name":""},
  {"lat":46.333398,"lon":-79.467714,"city":"North Bay","state":"ON","address":"50 Josephine St.","name":""},
  {"lat":44.609243,"lon":-79.45238,"city":"Orillia","state":"ON","address":"3300 Monarch Drive","name":""},
  {"lat":43.971139,"lon":-78.20012,"city":"Cobourg","state":"ON","address":"1111 Elgin Street","name":""},
  {"lat":44.1513,"lon":-79.8744,"city":"Alliston","state":"ON","address":"27 Young St","name":""},
  {"lat":46.503722,"lon":-80.938343,"city":"Sudbury","state":"ON","address":"120 Donna Drive","name":""},
  {"lat":44.612825,"lon":-75.686965,"city":"Brockville","state":"ON","address":"2000 Parkedale Avenue","name":""},
  {"lat":44.918493,"lon":-79.387651,"city":"Gravenhurst","state":"ON","address":"1100 Bay Street","name":""},
  {"lat":45.453075,"lon":-75.511129,"city":"Orleans","state":"ON","address":"3884 Innes Road","name":""},
  {"lat":45.273707,"lon":-75.74828,"city":"Barrhaven","state":"ON","address":"1681 Greenbank Road","name":""},
  {"lat":45.533839,"lon":-75.305226,"city":"Rockland","state":"ON","address":"3002 Richelieu Street","name":""},
  {"lat":45.379664,"lon":-75.748403,"city":"Ottawa","state":"ON","address":"1640 Carling Avenue","name":""},
  {"lat":45.02864,"lon":-74.75311,"city":"Cornwall","state":"ON","address":"1234 Brookdale Ave","name":""},
  {"lat":45.334165,"lon":-75.725604,"city":"Nepean","state":"ON","address":"521 West Hunt Club Road","name":""},
  {"lat":45.426939,"lon":-75.638785,"city":"Ottawa","state":"ON","address":"1055 St. Laurent Blvd.","name":""},
  {"lat":45.308647,"lon":-75.913065,"city":"Kanata","state":"ON","address":"135 Roland Michener Drive","name":""},
  {"lat":45.381672,"lon":-75.628786,"city":"Ottawa","state":"ON","address":"2980 Conroy Road","name":""},
  {"lat":44.33316,"lon":-79.689832,"city":"Barrie","state":"ON","address":"481 Bryne Drive","name":""},
  {"lat":44.733214,"lon":-79.871187,"city":"Midland","state":"ON","address":"16835 Heritage Drive","name":""},
  {"lat":45.817998,"lon":-77.077756,"city":"Pembroke","state":"ON","address":"1108B Pembroke Street East","name":""},
  {"lat":44.248732,"lon":-76.568162,"city":"Kingston","state":"ON","address":"755 Gardiners Road","name":""},
  {"lat":44.186686,"lon":-77.403242,"city":"Belleville","state":"ON","address":"180 Bell Blvd.","name":""},
  {"lat":43.354383,"lon":-79.80044,"city":"Burlington","state":"ON","address":"3120 South Service Road","name":""},
  {"lat":43.94083,"lon":-78.844077,"city":"Oshawa","state":"ON","address":"951 Taunton Road East","name":""},
  {"lat":43.50738,"lon":-79.667716,"city":"Oakville","state":"ON","address":"2011 Winston Park Drive","name":""},
  {"lat":43.8531,"lon":-79.25494,"city":"Markham","state":"ON","address":"7680 Markham Rd.","name":""},
  {"lat":43.757504,"lon":-79.466,"city":"North York","state":"ON","address":"180 Rimrock Road","name":""},
  {"lat":43.820469,"lon":-79.324656,"city":"Markham","state":"ON","address":"7020 Warden Ave","name":""},
  {"lat":43.796481,"lon":-79.203454,"city":"Scarborough","state":"ON","address":"25 Cinemart Drive","name":""},
  {"lat":54.781894,"lon":-127.165282,"city":"Smithers","state":"BC","address":"1492 Main Street","name":""},
  {"lat":43.775297,"lon":-79.263123,"city":"Scarborough","state":"ON","address":"400 Progress Ave.","name":""},
  {"lat":43.863007,"lon":-79.016075,"city":"Ajax","state":"ON","address":"8 Salem Rd.","name":""},
  {"lat":43.829283,"lon":-79.53939,"city":"Vaughan","state":"ON","address":"3255 Rutherford Road","name":""},
  {"lat":43.536572,"lon":-79.8731,"city":"Milton","state":"ON","address":"1085 Maple Avenue","name":""},
  {"lat":43.91548,"lon":-78.956761,"city":"Whitby","state":"ON","address":"20 Taunton Road East","name":""},
  {"lat":43.403335,"lon":-79.811423,"city":"Burlington","state":"ON","address":"4523 Dundas Street","name":""},
  {"lat":54.5208,"lon":-128.594717,"city":"Terrace","state":"BC","address":"4924 Highway 16 West","name":""},
  {"lat":43.728456,"lon":-79.287814,"city":"Scarborough","state":"ON","address":"890 Warden Avenue","name":""},
  {"lat":44.34918,"lon":-78.763754,"city":"Lindsay","state":"ON","address":"435 Kent Street West","name":""},
  {"lat":43.31901,"lon":-79.913999,"city":"Waterdown","state":"ON","address":"4 Horseshoe Crescent","name":""},
  {"lat":43.769645,"lon":-79.415447,"city":"North York","state":"ON","address":"100 - 5170 Yonge Street","name":""},
  {"lat":43.910545,"lon":-78.707726,"city":"Bowmanville","state":"ON","address":"2372 Highway 2","name":""},
  {"lat":44.169662,"lon":-81.616253,"city":"Kincardine","state":"ON","address":"4 Millenium Way","name":""},
  {"lat":48.607813,"lon":-93.420261,"city":"Fort Frances","state":"ON","address":"840 King's Highway","name":""},
  {"lat":43.644021,"lon":-79.388457,"city":"Toronto","state":"ON","address":"Unit 1C201 250 Front street","name":""},
  {"lat":43.617242,"lon":-79.543136,"city":"Etobicoke","state":"ON","address":"1602 The Queensway","name":""},
  {"lat":44.104139,"lon":-77.560643,"city":"Trenton","state":"ON","address":"227 Dundas St E","name":""},
  {"lat":45.33891,"lon":-80.038019,"city":"Parry Sound","state":"ON","address":"10 Bay street","name":""},
  {"lat":45.328272,"lon":-79.214723,"city":"Huntsville","state":"ON","address":"7 John St","name":""},
  {"lat":44.415988,"lon":-79.673862,"city":"Barrie","state":"ON","address":"447 Cundles Road East","name":""},
  {"lat":43.46636,"lon":-79.74678,"city":"Oakville","state":"ON","address":"499 Dundas Street West","name":""},
  {"lat":43.19979,"lon":-80.01609,"city":"Ancaster","state":"ON","address":"1070 Wilson Street W","name":""},
  {"lat":45.269095,"lon":-75.301844,"city":"Embrun","state":"ON","address":"767 Notre-Dame St Unit#19","name":""},
  {"lat":45.885478,"lon":-77.25654,"city":"Petawawa","state":"ON","address":"2939 Petawawa Blvd","name":""},
  {"lat":44.882564,"lon":-76.014665,"city":"Smiths Falls","state":"ON","address":"Unit 18 275 Brockville St","name":""},
  {"lat":45.47034,"lon":-76.66647,"city":"Renfrew","state":"ON","address":"435 O’Brien Rd","name":""},
  {"lat":43.847513,"lon":-79.36508,"city":"Markham","state":"ON","address":"50 E. Valhalla Dr","name":""},
  {"lat":43.775122,"lon":-79.531311,"city":"Vaughan","state":"ON","address":"3400 Steeles Ave W","name":""},
  {"lat":43.203566,"lon":-79.892627,"city":"Hamilton","state":"ON","address":"1565 Upper James Street","name":""},
  {"lat":43.104688,"lon":-79.112189,"city":"Niagara Falls","state":"ON","address":"4725 Dorchester Road Unit 16","name":""},
  {"lat":43.637884,"lon":-79.693425,"city":"Mississauga","state":"ON","address":"50 Courtney Park Drive","name":""},
  {"lat":43.611034,"lon":-79.748667,"city":"Mississauga","state":"ON","address":"6978 Financial Drive","name":""},
  {"lat":43.091841,"lon":-79.075825,"city":"Niagara Falls","state":"ON","address":"4950 Clifton Hill","name":""},
  {"lat":43.170743,"lon":-79.264707,"city":"St Catharines","state":"ON","address":"333 Ontario Street","name":""},
  {"lat":43.25748,"lon":-79.927639,"city":"Hamilton","state":"ON","address":"1563 Main Street West","name":""},
  {"lat":49.128796,"lon":-122.318211,"city":"Mission","state":"BC","address":"160-32555 London Avenue","name":""},
  {"lat":43.20555,"lon":-79.598628,"city":"Grimsby","state":"ON","address":"1 Industrial Drive","name":""},
  {"lat":43.689452,"lon":-79.587215,"city":"Etobicoke","state":"ON","address":"5 Carlson Court","name":""},
  {"lat":43.13314,"lon":-79.224478,"city":"St Catharines","state":"ON","address":"221 Glendale Avenue","name":""},
  {"lat":43.022101,"lon":-79.249852,"city":"Welland","state":"ON","address":"934 Niagara Street","name":""},
  {"lat":43.639294,"lon":-79.623545,"city":"Mississauga","state":"ON","address":"1510 Aimco Boulevard","name":""},
  {"lat":43.596278,"lon":-79.642185,"city":"Mississauga","state":"ON","address":"35 Square One Drive","name":""},
  {"lat":43.250301,"lon":-79.810972,"city":"Hamilton","state":"ON","address":"1219 Barton Street East","name":""},
  {"lat":43.088405,"lon":-79.139915,"city":"Niagara Falls","state":"ON","address":"8444 LUNDY'S LANE NIAGARA FALLS","name":""},
  {"lat":43.92243,"lon":-80.082322,"city":"Orangeville","state":"ON","address":"5 Buena Vista Drive","name":""},
  {"lat":44.078069,"lon":-79.462059,"city":"Newmarket","state":"ON","address":"18199 Yonge Street","name":""},
  {"lat":43.737984,"lon":-79.702195,"city":"Brampton","state":"ON","address":"2458 Queen Street East","name":""},
  {"lat":42.98433,"lon":-82.352288,"city":"Sarnia","state":"ON","address":"1400 Exmouth Street","name":""},
  {"lat":43.117628,"lon":-80.738491,"city":"Woodstock","state":"ON","address":"431 Norwich Ave","name":""},
  {"lat":42.846149,"lon":-80.30737,"city":"Simcoe","state":"ON","address":"9 Queensway West","name":""},
  {"lat":42.932342,"lon":-81.222151,"city":"London","state":"ON","address":"1090 Wellington Road South","name":""},
  {"lat":43.957704,"lon":-79.274673,"city":"Stouffville","state":"ON","address":"1060 Hoover Park DR","name":""},
  {"lat":44.226933,"lon":-79.464333,"city":"Keswick","state":"ON","address":"253 The Queensway South","name":""},
  {"lat":44.01211,"lon":-79.414609,"city":"Aurora","state":"ON","address":"8 First Commerce Drive","name":""},
  {"lat":44.523172,"lon":-80.007094,"city":"Wasaga Beach","state":"ON","address":"311 Main Street","name":""},
  {"lat":43.354769,"lon":-80.287282,"city":"Cambridge","state":"ON","address":"205 Franklin Boulevard","name":""},
  {"lat":49.133348,"lon":-123.095664,"city":"Richmond","state":"BC","address":"2000-11662 Steveston Hwy","name":""},
  {"lat":43.135708,"lon":-80.263083,"city":"Brantford","state":"ON","address":"50 Market Street","name":""},
  {"lat":43.013051,"lon":-81.329173,"city":"London","state":"ON","address":"1275 Fanshawe Park Road West, Building E","name":""},
  {"lat":43.682221,"lon":-79.719615,"city":"Brampton","state":"ON","address":"65 Resolution Drive","name":""},
  {"lat":44.094158,"lon":-79.130665,"city":"Uxbridge","state":"ON","address":"284 Toronto Street South","name":""},
  {"lat":43.471689,"lon":-80.449567,"city":"Kitchener","state":"ON","address":"425 Bingemans Centre Drive","name":""},
  {"lat":42.85988,"lon":-80.72702,"city":"Tillsonburg","state":"ON","address":"102 Broadway St.","name":""},
  {"lat":44.42502,"lon":-81.397767,"city":"Port Elgin","state":"ON","address":"140 Goderich Street","name":""},
  {"lat":43.550857,"lon":-79.715568,"city":"Mississauga","state":"ON","address":"2915 Eglinton Avenue West","name":""},
  {"lat":43.40812,"lon":-80.3273,"city":"Cambridge","state":"ON","address":"14 Pinebush Road","name":""},
  {"lat":42.255894,"lon":-82.964751,"city":"Windsor","state":"ON","address":"4450 Walker Road, Unit D","name":""},
  {"lat":43.502974,"lon":-80.534863,"city":"Waterloo","state":"ON","address":"597 King Street North","name":""},
  {"lat":42.278574,"lon":-82.823297,"city":"Windsor","state":"ON","address":"4 Amycroft Drive","name":""},
  {"lat":42.778837,"lon":-81.183806,"city":"St Thomas","state":"ON","address":"860 Talbot Street","name":""},
  {"lat":43.35451,"lon":-80.997103,"city":"Stratford","state":"ON","address":"729 Erie Street","name":""},
  {"lat":43.562687,"lon":-80.280664,"city":"Guelph","state":"ON","address":"35 Woodlawn Rd W","name":""},
  {"lat":42.430211,"lon":-82.218675,"city":"Chatham","state":"ON","address":"780 St. Clair Street","name":""},
  {"lat":44.109699,"lon":-79.584391,"city":"Bradford","state":"ON","address":"438 Holland Street West","name":""},
  {"lat":42.990138,"lon":-82.41152,"city":"Sarnia","state":"ON","address":"1498 Venetian Blvd","name":""},
  {"lat":49.037449,"lon":-122.268186,"city":"Abbotsford","state":"BC","address":"2060 Sumas Way","name":""},
  {"lat":49.157806,"lon":-122.780395,"city":"Surrey","state":"BC","address":"801-15980 Fraser Hwy","name":""},
  {"lat":45.560866,"lon":-73.747021,"city":"Laval","state":"QC","address":"450 Promenade Du Centropolis","name":""},
  {"lat":45.500996,"lon":-73.37524,"city":"Saint-Bruno","state":"QC","address":"1231 Boul. Des Promenades","name":""},
  {"lat":45.454506,"lon":-73.465405,"city":"Brossard","state":"QC","address":"7733 Boul. Taschereau","name":""},
  {"lat":45.75972,"lon":-74.017954,"city":"Saint-Jérôme","state":"QC","address":"1060, boul. du Grand-Héron","name":""},
  {"lat":46.863379,"lon":-71.215862,"city":"Beauport","state":"QC","address":"3485 rue Clemenceau","name":""},
  {"lat":45.448956,"lon":-73.60832,"city":"Lasalle","state":"QC","address":"6857 Boul. Newman","name":""},
  {"lat":45.612007,"lon":-73.700883,"city":"Laval","state":"QC","address":"5840 Boulevard Robert-Bourassa","name":""},
  {"lat":49.184284,"lon":-122.803236,"city":"Surrey","state":"BC","address":"15125 100th Avenue","name":""},
  {"lat":45.577367,"lon":-73.333255,"city":"Sainte-Julie","state":"QC","address":"2051 Boul. Nobel","name":""},
  {"lat":45.723025,"lon":-73.506195,"city":"Terrebonne","state":"QC","address":"1150 Yves Blais","name":""},
  {"lat":46.720208,"lon":-71.298542,"city":"Levis","state":"QC","address":"1432 Route des Rivières","name":""},
  {"lat":45.404427,"lon":-71.958106,"city":"Sherbrooke","state":"QC","address":"550 Jean-Paul Perreault","name":""},
  {"lat":45.694973,"lon":-73.936408,"city":"Mirabel","state":"QC","address":"17 545 rue Charles","name":""},
  {"lat":46.835533,"lon":-71.270613,"city":"Québec","state":"QC","address":"4500, boul. des Gradins - #400","name":""},
  {"lat":46.041506,"lon":-73.448808,"city":"Saint-Charles-Borromée","state":"QC","address":"155 de la Visitation","name":""},
  {"lat":45.474092,"lon":-75.709826,"city":"Gatineau","state":"QC","address":"61, de la Gappe Boulevard","name":""},
  {"lat":46.829846,"lon":-71.346947,"city":"Québec","state":"QC","address":"8445 Blvd de L'Ormière","name":""},
  {"lat":49.037599,"lon":-122.80116,"city":"Surrey","state":"BC","address":"1956 152nd Street","name":""},
  {"lat":45.644457,"lon":-73.835772,"city":"Sainte-Thérèse","state":"QC","address":"101, boulevard Curé-Labelle","name":""},
  {"lat":45.332406,"lon":-73.284788,"city":"Saint-Jean-Sur-Richelieu","state":"QC","address":"725 rue Gadbois","name":""},
  {"lat":45.724599,"lon":-73.619153,"city":"Mascouche","state":"QC","address":"150, Montée Masson","name":""},
  {"lat":46.78962,"lon":-71.356059,"city":"L'Ancienne-Lorette","state":"QC","address":"1345, Route de l'Aéroport","name":""},
  {"lat":45.897635,"lon":-72.522662,"city":"Drummondville","state":"QC","address":"161 Boul. St-Joseph","name":""},
  {"lat":46.108339,"lon":-70.655889,"city":"Saint-Georges","state":"QC","address":"14917, Boulevard Lacroix","name":""},
  {"lat":49.110699,"lon":-122.678011,"city":"Langley","state":"BC","address":"19700 Langley ByPass","name":""},
  {"lat":46.54903,"lon":-75.510863,"city":"Mont-Laurier","state":"QC","address":"141, Albiny-Paquette","name":""},
  {"lat":45.433765,"lon":-75.780392,"city":"Gatineau","state":"QC","address":"247 Boul des Grives local 2A","name":""},
  {"lat":46.78687,"lon":-71.27824,"city":"Sainte-Foy","state":"QC","address":"2300 Chemin Ste-Foy","name":""},
  {"lat":45.577442,"lon":-73.917335,"city":"St-Eustache","state":"QC","address":"739, boul. Arthur-Sauvé","name":""},
  {"lat":45.426763,"lon":-75.71492,"city":"Gatineau","state":"QC","address":"179, Promenade du Portage","name":""},
  {"lat":48.238955,"lon":-79.020199,"city":"Rouyn-Noranda","state":"QC","address":"152 rue Principale","name":""},
  {"lat":48.799041,"lon":-79.203228,"city":"La Sarre","state":"QC","address":"32 Route 111 est","name":""},
  {"lat":48.403424,"lon":-71.170748,"city":"Jonquière","state":"QC","address":"2673, boulevard du Royaume","name":""},
  {"lat":49.051219,"lon":-122.323388,"city":"Abbotsford","state":"BC","address":"32530 S. Fraser Way","name":""},
  {"lat":49.142607,"lon":-121.971633,"city":"Chilliwack","state":"BC","address":"45305 Luckakuck Way","name":""},
  {"lat":50.030395,"lon":-125.24522,"city":"Campbell River","state":"BC","address":"1309 North Island Hwy.","name":""},
  {"lat":62.45387,"lon":-114.366593,"city":"Yellowknife","state":"NT","address":"5102 48th Street","name":""},
  {"lat":60.729589,"lon":-135.060734,"city":"Whitehorse","state":"YT","address":"2241 2nd Avenue","name":""},
  {"lat":49.200192,"lon":-122.917122,"city":"New Westminster","state":"BC","address":"1045 Columbia Street","name":""},
  {"lat":49.13911,"lon":-122.845324,"city":"Surrey","state":"BC","address":"600-7488 King George Blvd","name":""},
  {"lat":49.18702,"lon":-122.845583,"city":"Surrey","state":"BC","address":"#1081 - 10153 King George Hwy","name":""},
  {"lat":49.263515,"lon":-123.134527,"city":"Vancouver","state":"BC","address":"190-1333 West Broadway","name":""},
  {"lat":49.675399,"lon":-124.982339,"city":"Courtenay","state":"BC","address":"2633 Cliffe Avenue","name":""},
  {"lat":49.882781,"lon":-119.432633,"city":"Kelowna","state":"BC","address":"#650 - 2339 Highway 97 N.","name":""},
  {"lat":49.477211,"lon":-119.58369,"city":"Penticton","state":"BC","address":"1900 Main Street","name":""},
  {"lat":49.828385,"lon":-119.634602,"city":"Westbank","state":"BC","address":"2563 Dobbin Rd., Hwy 97 S.","name":""},
  {"lat":50.662723,"lon":-120.348534,"city":"Kamloops","state":"BC","address":"#700 - 500 Notre Dame Drive","name":""},
  {"lat":56.435365,"lon":-111.275277,"city":"Fort McMurray","state":"AB","address":"Bay 6, 100 Real Martin Dr. Fort McMurray","name":""},
  {"lat":50.268126,"lon":-119.273777,"city":"Vernon","state":"BC","address":"3604 32nd Street","name":""},
  {"lat":49.295415,"lon":-117.653465,"city":"Castlegar","state":"BC","address":"114-1983 Columbia Avenue","name":""},
  {"lat":49.883638,"lon":-119.491906,"city":"Kelowna","state":"BC","address":"545 Harvey Ave","name":""},
  {"lat":50.700784,"lon":-119.282383,"city":"Salmon Arm","state":"BC","address":"#100-251 TransCanada Hwy. N.W.","name":""},
  {"lat":49.225518,"lon":-124.035484,"city":"Nanaimo","state":"BC","address":"2-5779 Turner Road","name":""},
  {"lat":44.648247,"lon":-63.674848,"city":"Halifax","state":"NS","address":"194A Chain Lake Drive","name":""},
  {"lat":46.111174,"lon":-64.832804,"city":"Moncton","state":"NB","address":"1380 Mountain Road","name":""},
  {"lat":44.670817,"lon":-63.529905,"city":"Dartmouth","state":"NS","address":"611 Portland Street","name":""},
  {"lat":45.939268,"lon":-66.661451,"city":"Fredericton","state":"NB","address":"1230 Prospect Street","name":""},
  {"lat":45.31267,"lon":-66.023033,"city":"Saint John","state":"NB","address":"120 McAllister Dr","name":""},
  {"lat":49.515245,"lon":-115.058484,"city":"Fernie","state":"BC","address":"1602 7th Avenue (Box 1930)","name":""},
  {"lat":44.770988,"lon":-63.690469,"city":"Lower Sackville","state":"NS","address":"710 Sackville Drive","name":""},
  {"lat":46.139687,"lon":-60.184178,"city":"Sydney","state":"NS","address":"329 Prince St","name":""},
  {"lat":44.399401,"lon":-64.536951,"city":"Bridgewater","state":"NS","address":"485 Hwy #10","name":""},
  {"lat":47.614335,"lon":-52.708853,"city":"St. John's","state":"NL","address":"415 Stavanger Drive","name":""},
  {"lat":47.036101,"lon":-65.491139,"city":"Miramichi","state":"NB","address":"98 Douglastown Blvd","name":""},
  {"lat":47.550882,"lon":-52.779553,"city":"St. John's","state":"NL","address":"F3-35 Kelsey Dr","name":""},
  {"lat":46.265126,"lon":-63.147476,"city":"Charlottetown","state":"PE","address":"700 Universtiy Ave","name":""},
  {"lat":43.8403,"lon":-66.096103,"city":"Yarmouth","state":"NS","address":"134 Starrs Rd","name":""},
  {"lat":44.649469,"lon":-63.574472,"city":"Halifax","state":"NS","address":"1858 Granville Street","name":""},
  {"lat":58.80338,"lon":-122.686727,"city":"Fort Nelson","state":"BC","address":"4501 50th Ave South","name":""},
  {"lat":45.617041,"lon":-61.986173,"city":"Antigonish","state":"NS","address":"135 Church Street","name":""},
  {"lat":45.068853,"lon":-64.442432,"city":"New Minas","state":"NS","address":"9278 Commercial Street","name":""},
  {"lat":44.706863,"lon":-63.562335,"city":"Dartmouth","state":"NS","address":"111 Shubie Drive","name":""},
  {"lat":47.372638,"lon":-68.316529,"city":"Edmundston","state":"NB","address":"164 Hebert Boulevard","name":""},
  {"lat":47.56038,"lon":-52.71147,"city":"St. John's","state":"NL","address":"367 Water St","name":""},
  {"lat":45.367821,"lon":-63.31419,"city":"Truro","state":"NS","address":"68 Robie Street","name":""},
  {"lat":45.579901,"lon":-62.669001,"city":"New Glasgow","state":"NS","address":"689 Westville Rd Highland Square Mall","name":""},
  {"lat":48.947724,"lon":-57.916239,"city":"Corner Brook","state":"NL","address":"44 Maple Valley Rd","name":""},
  {"lat":50.121878,"lon":-120.762334,"city":"Merritt","state":"BC","address":"3939 Crawford Avenue","name":""},
  {"lat":49.524442,"lon":-115.753634,"city":"Cranbrook","state":"BC","address":"510 - 1500 Cranbrook Street","name":""},
  {"lat":49.227132,"lon":-123.004549,"city":"Burnaby","state":"BC","address":"135-6200 McKay Avenue","name":""},
  {"lat":49.277493,"lon":-123.114098,"city":"Vancouver","state":"BC","address":"808 Beatty St","name":""},
  {"lat":49.256288,"lon":-122.748196,"city":"Port Coquitlam","state":"BC","address":"300 - 2325 Ottawa St.","name":""},
  {"lat":49.374491,"lon":-121.417983,"city":"Hope","state":"BC","address":"904 Old Hope Princeton Way","name":""}]}