{"key":"buca_di_beppo","displayName":"Buca di Beppo","category":"restaurant","useLocationName":false,"locations":[{"lat":41.310157,"lon":-81.816277,"city":"Strongsville","state":"OH","address":"16677 Southpark Center Strongsville OH 44136","name":""},{"lat":33.383671,"lon":-111.754339,"city":"Mesa","state":"AZ","address":"1730 South Val Vista Drive Mesa AZ 85204","name":""},{"lat":33.632417,"lon":-112.236769,"city":"Peoria","state":"AZ","address":"16091 N. Arrowhead Fountains Center Dr. Peoria AZ 85382","name":""},{"lat":37.44354,"lon":-122.160538,"city":"Palo Alto","state":"CA","address":"643 Emerson Street Palo Alto CA 94301","name":""},{"lat":34.144238,"lon":-118.152202,"city":"Pasadena","state":"CA","address":"80 West Green Street Pasadena CA 91105","name":""},{"lat":34.159281,"lon":-118.501145,"city":"Encino","state":"CA","address":"175000 Ventura Blvd Encino CA 91316","name":""},{"lat":33.820065,"lon":-118.385355,"city":"Redondo Beach","state":"CA","address":"1670 South Pacific Coast Highway Redondo Beach CA 90277","name":""},{"lat":34.107298,"lon":-117.722703,"city":"Claremont","state":"CA","address":"505 West Foothill Blvd Claremont CA 91711","name":""},{"lat":33.911851,"lon":-117.882708,"city":"Brea","state":"CA","address":"1609 East Imperial Highway Brea CA 92821","name":""},{"lat":34.13708,"lon":-118.351428,"city":"Universal City","state":"CA","address":"1000 Universal Studios Blvd. Universal City CA 91608","name":""},{"lat":38.773014,"lon":-121.263789,"city":"Roseville","state":"CA","address":"1212 Galleria Blvd Roseville CA 95678","name":""},{"lat":33.734164,"lon":-117.992794,"city":"Huntington Beach","state":"CA","address":"7979 Center Avenue Huntington Beach CA 92647","name":""},{"lat":33.791552,"lon":-117.915417,"city":"Anaheim","state":"CA","address":"11757 Harbor Boulevard Anaheim CA 92840","name":""},{"lat":32.916566,"lon":-117.11834,"city":"San Diego","state":"CA","address":"10749 Westview Parkway San Diego CA 92126","name":""},{"lat":34.418131,"lon":-118.560876,"city":"Santa Clarita","state":"CA","address":"26940 Theater Drive, Suite 100 Santa Clarita CA 91355","name":""},{"lat":34.183158,"lon":-118.87702,"city":"Thousand Oaks","state":"CA","address":"205 North Moorpark Road Thousand Oaks CA 91360","name":""},{"lat":37.289002,"lon":-121.932559,"city":"Campbell","state":"CA","address":"1875 South Bascom Avenue Campbell CA 95008","name":""},{"lat":26.079689,"lon":-80.252224,"city":"Davie","state":"FL","address":"3355 South University Drive Davie FL 33328","name":""},{"lat":28.44444,"lon":-81.392514,"city":"Orlando","state":"FL","address":"8001 S. Orange Blossom Trail #1304 Orlando FL 32809","name":""},{"lat":28.330427,"lon":-81.533576,"city":"Kissimmee","state":"FL","address":"6282 W. Irlo Bronson Memorial Hwy Kissimmee FL 34747","name":""},{"lat":41.751643,"lon":-89.862596,"city":"Lombard","state":"IL","address":"90 Yorktown Road Lombard IL 60148","name":""},{"lat":39.768051,"lon":-86.159486,"city":"Indianapolis","state":"IN","address":"35 North Illinois Street Indianapolis IN 46250","name":""},{"lat":39.627793,"lon":-86.120576,"city":"Greenwood","state":"IN","address":"659 U.S. 31 North Greenwood IN 46142","name":""},{"lat":38.216322,"lon":-85.588181,"city":"Louisville","state":"KY","address":"2051 South Hurstbourne Parkway Louisville KY 40220","name":""},{"lat":44.974081,"lon":-93.280023,"city":"Minneapolis","state":"MN","address":"1204 Harmon Place Minneapolis MN 55403","name":""},{"lat":44.897343,"lon":-93.176793,"city":"St. Paul","state":"MN","address":"2728 Gannon Road St. Paul MN 55116","name":""},{"lat":44.863014,"lon":-93.45821,"city":"Eden Prairie","state":"MN","address":"7711 Mitchell Road Eden Prairie MN 55344","name":""},{"lat":45.095144,"lon":-93.441348,"city":"Maple Grove","state":"MN","address":"12650 Elm Creek Boulevard Maple Grove MN 55369","name":""},{"lat":39.042585,"lon":-94.590629,"city":"Kansas City","state":"MO","address":"310 West 47th Street Kansas City MO 64112","name":""},{"lat":36.114953,"lon":-115.151839,"city":"Las Vegas","state":"NV","address":"412 East Flamingo Road Las Vegas NV 89169","name":""},{"lat":36.197218,"lon":-115.264154,"city":"Las Vegas","state":"NV","address":"7690 West Lake Mead Blvd. Las Vegas NV 89128","name":""},{"lat":36.098807,"lon":-115.175413,"city":"Las Vegas","state":"NV","address":"3850 Las Vegas Blvd Las Vegas NV 89109","name":""},{"lat":35.099806,"lon":-106.572419,"city":"Albuquerque","state":"NM","address":"6520 Americas Parkway N.E. Albuquerque NM 87110","name":""},{"lat":39.969303,"lon":-83.004327,"city":"Columbus","state":"OH","address":"343 North Front Street Columbus OH 43215","name":""},{"lat":39.148409,"lon":-84.443788,"city":"Norwood","state":"OH","address":"2635 Edmondson Road Norwood OH 43215","name":""},{"lat":35.963604,"lon":-86.809736,"city":"Franklin","state":"TN","address":"1722 Galleria Boulevard Franklin TN 37067","name":""},{"lat":32.872355,"lon":-96.772249,"city":"Dallas","state":"TX","address":"7843 Park Lane Dallas TX 75225","name":""},{"lat":30.181155,"lon":-95.450946,"city":"Shenandoah","state":"TX","address":"19075 I-45 South Shenandoah TX 77385","name":""},{"lat":47.625868,"lon":-122.339015,"city":"Seattle","state":"WA","address":"701 Westlake Avenue N Seattle WA 98109","name":""},{"lat":33.491963,"lon":-111.926314,"city":"Scottsdale","state":"AZ","address":"3828 North Scottsdale Road Scottsdale AZ 85251","name":""},{"lat":33.819113,"lon":-118.383858,"city":"Redondo Beach","state":"CA","address":"1670 South Pacific Coast Highway Rendondo Beach CA 90277","name":""},{"lat":33.072254,"lon":-117.266978,"city":"Carlsbad","state":"CA","address":"1921 Calle Barcelona Carlsbad CA 92009","name":""},{"lat":40.108019,"lon":-83.015866,"city":"Worthington","state":"OH","address":"60 East Wilson Bridge Road Worthington OH 43085","name":""},{"lat":41.310145,"lon":-81.816282,"city":"Strongsville","state":"OH","address":"16677 Southpark Center Strongsville OH 44136","name":""},{"lat":32.942136,"lon":-97.109172,"city":"Southlake","state":"TX","address":"2701 East State Highway 114 Southlake TX 76092","name":""},{"lat":33.096597,"lon":-96.809935,"city":"Frisco","state":"TX","address":"8580 State Hwy 121 Frisco TX 75034","name":""},{"lat":47.625941,"lon":-122.339064,"city":"Seattle","state":"WA","address":"701 Westlake Avenue N Seattle WA 98109","name":""},{"lat":32.709459,"lon":-117.16062,"city":"San Diego","state":"CA","address":"440 J Street, San Diego, CA 92101","name":""}]}