{"key":"bw_signature","displayName":"BW Signature Collection","category":"hotels","useLocationName":false,"locations":[
  {"lat":44.806605,"lon":-106.953658,"city":"Sheridan","state":"WY","address":"856 Broadway Street","name":""},
  {"lat":44.07903,"lon":-87.698121,"city":"Manitowoc","state":"WI","address":"4004 Calumet Avenue","name":""},
  {"lat":47.580074,"lon":-122.143763,"city":"Bellevue","state":"WA","address":"14632 SE Eastgate Way","name":""},
  {"lat":47.70913,"lon":-122.33219,"city":"Seattle","state":"WA","address":"2140 N Northgate Way","name":""},
  {"lat":29.559325,"lon":-95.038442,"city":"Seabrook","state":"TX","address":"2901 Nasa Pkwy","name":""},
  {"lat":30.190939,"lon":-95.193054,"city":"New Caney","state":"TX","address":"17546 US 59","name":""},
  {"lat":35.687744,"lon":-85.763081,"city":"Mcminnville","state":"TN","address":"809 Sparta Street","name":""},
  {"lat":33.703899,"lon":-78.866722,"city":"Myrtle Beach","state":"SC","address":"2400 N Ocean Boulevard","name":""},
  {"lat":34.866381,"lon":-82.379316,"city":"Greenville","state":"SC","address":"536 Wade Hampton Boulevard","name":""},
  {"lat":40.984502,"lon":-76.882297,"city":"Lewisburg","state":"PA","address":"7701 Westbranch Highway","name":""},
  {"lat":42.199442,"lon":-122.716605,"city":"Ashland","state":"OR","address":"132 N Main Street","name":""},
  {"lat":34.659786,"lon":-77.05562,"city":"Emerald Isle","state":"NC","address":"216 Islander Drive","name":""},
  {"lat":34.509039,"lon":-77.432937,"city":"N Topsail Beach","state":"NC","address":"1565 NC Highway 210","name":""},
  {"lat":40.758301,"lon":-73.941833,"city":"Long Island City","state":"NY","address":"38-04 11th Street","name":""},
  {"lat":43.119782,"lon":-77.557677,"city":"Rochester","state":"NY","address":"2323 Monroe Avenue","name":""},
  {"lat":34.948658,"lon":-104.646374,"city":"Santa Rosa","state":"NM","address":"2533 Historic Route 66","name":""},
  {"lat":39.277337,"lon":-74.571644,"city":"Ocean City","state":"NJ","address":"801 Atlantic Avenue","name":""},
  {"lat":40.3878,"lon":-74.097632,"city":"Middletown","state":"NJ","address":"750 State Route 35","name":""},
  {"lat":40.649948,"lon":-74.349117,"city":"Westfield","state":"NJ","address":"435 North Avenue W","name":""},
  {"lat":44.075017,"lon":-71.684747,"city":"Lincoln","state":"NH","address":"527 US Route 3","name":""},
  {"lat":46.126103,"lon":-112.928008,"city":"Anaconda","state":"MT","address":"100 Union Avenue","name":""},
  {"lat":37.813393,"lon":-90.446364,"city":"Farmington","state":"MO","address":"4245 Hunt Road","name":""},
  {"lat":31.553224,"lon":-91.411301,"city":"Natchez","state":"MS","address":"645 S Canal Street","name":""},
  {"lat":44.001133,"lon":-69.632268,"city":"Edgecomb","state":"ME","address":"22 Cross Road","name":""},
  {"lat":29.94922,"lon":-90.070608,"city":"New Orleans","state":"LA","address":"500 Saint Charles Avenue","name":""},
  {"lat":40.501803,"lon":-88.9036,"city":"Bloomington","state":"IL","address":"1413 Leslie Drive","name":""},
  {"lat":39.679142,"lon":-88.286068,"city":"Arcola","state":"IL","address":"917 Green Mill Road","name":""},
  {"lat":33.835938,"lon":-84.199359,"city":"Tucker","state":"GA","address":"1819 Mountain Industrial Boulevard","name":""},
  {"lat":25.795384,"lon":-80.128703,"city":"Miami Beach","state":"FL","address":"150 20th Street","name":""},
  {"lat":27.337367,"lon":-82.449825,"city":"Sarasota","state":"FL","address":"5965 Brookhill Boulevard","name":""},
  {"lat":27.336769,"lon":-82.44979,"city":"Sarasota","state":"FL","address":"5985 Brookhill Boulevard","name":""},
  {"lat":38.574987,"lon":-122.579147,"city":"Calistoga","state":"CA","address":"1010 Foothill Boulevard","name":""},
  {"lat":37.379602,"lon":-122.068548,"city":"Mountain View","state":"CA","address":"200 E El Camino Real","name":""},
  {"lat":35.291051,"lon":-120.649429,"city":"San Luis Obispo","state":"CA","address":"2074 Monterey Street","name":""},
  {"lat":37.323183,"lon":-121.936523,"city":"San Jose","state":"CA","address":"2404 Stevens Creek Boulevard","name":""},
  {"lat":35.124855,"lon":-120.576305,"city":"Arroyo Grande","state":"CA","address":"325 E Branch Street","name":""},
  {"lat":34.07387,"lon":-118.075445,"city":"Rosemead","state":"CA","address":"8832 Glendon Way","name":""},
  {"lat":36.83968,"lon":-121.532701,"city":"San Juan Bautista","state":"CA","address":"410 The Alameda","name":""},
  {"lat":37.447296,"lon":-122.429565,"city":"Half Moon Bay","state":"CA","address":"1400 Cabrillo Highway S","name":""},
  {"lat":38.955034,"lon":-119.945253,"city":"South Lake Tahoe","state":"CA","address":"4003 Lake Tahoe Boulevard","name":""},
  {"lat":34.243478,"lon":-116.881328,"city":"Big Bear Lake","state":"CA","address":"42200 Moonridge Road","name":""},
  {"lat":33.491156,"lon":-112.079145,"city":"Phoenix","state":"AZ","address":"401 W Clarendon Avenue","name":""},
  {"lat":33.452865,"lon":-112.084604,"city":"Phoenix","state":"AZ","address":"765 Grand Avenue","name":""},
  {"lat":33.602084,"lon":-111.716713,"city":"Fountain Hills","state":"AZ","address":"12800 N Saguaro Boulevard","name":""},
  {"lat":58.301248,"lon":-134.406694,"city":"Juneau","state":"AK","address":"127 N Franklin Street","name":""}]}