{"key":"candlewood_suites","displayName":"Candlewood Suites","category":"hotels","useLocationName":false,"locations":[
  {"lat":47.122628,"lon":-122.491455,"city":"Fort Lewis","state":"WA","address":"Building J0550","name":""},
  {"lat":31.829743,"lon":-106.393377,"city":"Fort Bliss","state":"TX","address":"11193 Duncan Street","name":""},
  {"lat":38.728409,"lon":-104.792252,"city":"Fort Carson","state":"CO","address":"7222 Sheridan Avenue Building 7306","name":""},
  {"lat":34.679285,"lon":-86.629347,"city":"Huntsville","state":"AL","address":"3440 Aerobee Road","name":""},
  {"lat":39.484497,"lon":-76.128925,"city":"Aberdeen Proving Ground","state":"MD","address":"6585 Lodging Lane","name":""},
  {"lat":39.098611,"lon":-96.816667,"city":"Fort Riley","state":"KS","address":"6956 Leonard Avenue","name":""},
  {"lat":31.553836,"lon":-110.353081,"city":"Fort Huachuca","state":"AZ","address":"1175 Smith Ave Building 44420","name":""},
  {"lat":37.761731,"lon":-92.1104,"city":"Fort Leonard Wood","state":"MO","address":"Building 2020 4990 Nebraska Avenue","name":""},
  {"lat":34.019366,"lon":-80.92639,"city":"Columbia","state":"SC","address":"10046 Cherbourg Street","name":""},
  {"lat":34.020107,"lon":-80.927362,"city":"Columbia","state":"SC","address":"10050 Cherbourg Street","name":""},
  {"lat":32.862222,"lon":-114.437778,"city":"Yuma Proving Ground","state":"AZ","address":"Building 540 F Street","name":""},
  {"lat":39.101377,"lon":-76.743582,"city":"Fort Meade","state":"MD","address":"4690 Cooper Avenue","name":""},
  {"lat":44.038158,"lon":-75.800829,"city":"Fort Drum","state":"NY","address":"9090 Mount Belvedere","name":""},
  {"lat":29.453474,"lon":-98.447413,"city":"Fort Sam Houston","state":"TX","address":"2800 Winfield Scott Road","name":""},
  {"lat":33.767848,"lon":-84.603288,"city":"Lithia Springs","state":"GA","address":"913 Bob Arnold Boulevard","name":""},
  {"lat":32.610839,"lon":-85.427564,"city":"Auburn","state":"AL","address":"2510 East Glenn Avenue","name":""},
  {"lat":43.589907,"lon":-116.349799,"city":"Meridian","state":"ID","address":"1855 S. Silverstone Way","name":""},
  {"lat":30.164739,"lon":-92.039891,"city":"Lafayette","state":"LA","address":"2105 Kaliste Saloom Road","name":""},
  {"lat":38.236068,"lon":-77.500927,"city":"Fredericksburg","state":"VA","address":"4821 Crossings Court","name":""},
  {"lat":31.079012,"lon":-97.369124,"city":"Temple","state":"TX","address":"1850 Scott Blvd.","name":""},
  {"lat":36.86104,"lon":-76.214799,"city":"Norfolk","state":"VA","address":"5600 Lowery Road","name":""},
  {"lat":40.772027,"lon":-74.058296,"city":"Secaucus","state":"NJ","address":"279 Secaucus Road","name":""},
  {"lat":31.507242,"lon":-97.140451,"city":"Waco","state":"TX","address":"2700 South New Road","name":""},
  {"lat":61.176665,"lon":-149.884487,"city":"Anchorage","state":"AK","address":"160 W. 48th Avenue","name":""},
  {"lat":40.673544,"lon":-99.088225,"city":"Kearney","state":"NE","address":"210 4th Avenue","name":""},
  {"lat":39.022087,"lon":-96.825004,"city":"Junction City","state":"KS","address":"100 S. Hammons Dr.","name":""},
  {"lat":39.0211,"lon":-77.4303,"city":"Sterling","state":"VA","address":"45520 Severn Way","name":""},
  {"lat":30.901319,"lon":-102.905602,"city":"Fort Stockton","state":"TX","address":"2469 W IH-10","name":""},
  {"lat":37.310418,"lon":-79.979667,"city":"Roanoke","state":"VA","address":"3315 Ordway Drive","name":""},
  {"lat":30.34792,"lon":-81.549989,"city":"Jacksonville","state":"FL","address":"2700 Jane Street","name":""},
  {"lat":34.754,"lon":-92.3893,"city":"Little Rock","state":"AR","address":"10520 W. Markham","name":""},
  {"lat":30.2301,"lon":-85.886511,"city":"Panama City Beach","state":"FL","address":"16920 Panama City Beach Pkwy","name":""},
  {"lat":37.050559,"lon":-94.47848,"city":"Joplin","state":"MO","address":"3512 South Rangeline","name":""},
  {"lat":43.51983,"lon":-96.77851,"city":"Sioux Falls","state":"SD","address":"2725 South Carolyn Avenue","name":""},
  {"lat":25.80757,"lon":-80.367694,"city":"Miami","state":"FL","address":"10505 NW 36th St.","name":""},
  {"lat":42.2689,"lon":-88.9673,"city":"Rockford","state":"IL","address":"7555 Walton Street","name":""},
  {"lat":34.977138,"lon":-120.434408,"city":"Santa Maria","state":"CA","address":"2079 N. Roemer Court","name":""},
  {"lat":44.044089,"lon":-123.04866,"city":"Eugene","state":"OR","address":"3005 Franklin Boulevard","name":""},
  {"lat":26.500102,"lon":-81.912194,"city":"Fort Myers","state":"FL","address":"9740 Commerce Center Court","name":""},
  {"lat":42.916615,"lon":-85.534233,"city":"Grand Rapids","state":"MI","address":"5401 28th Street Court Southeast","name":""},
  {"lat":36.942314,"lon":-86.418804,"city":"Bowling Green","state":"KY","address":"540 Wall Street","name":""},
  {"lat":29.493793,"lon":-98.40011,"city":"San Antonio","state":"TX","address":"6900 I-35 Frontage Rd","name":""},
  {"lat":42.367937,"lon":-122.879133,"city":"Medford","state":"OR","address":"3548 Heathrow Way","name":""},
  {"lat":46.318083,"lon":-72.584242,"city":"Trois-Rivières","state":"QC","address":"1900 Rue des Grands-Marchés","name":""},
  {"lat":32.903961,"lon":-83.682953,"city":"Macon","state":"GA","address":"3957 Riverplace Drive","name":""},
  {"lat":40.676162,"lon":-80.097928,"city":"Cranberry Township","state":"PA","address":"20036 Route 19","name":""},
  {"lat":37.0912,"lon":-88.6746,"city":"Paducah","state":"KY","address":"3940 Coleman Crossing Circle","name":""},
  {"lat":40.887886,"lon":-77.780814,"city":"Bellefonte","state":"PA","address":"132 Amberleigh Lane","name":""},
  {"lat":40.225109,"lon":-80.210712,"city":"Washington","state":"PA","address":"255 Meadowlands Boulevard","name":""},
  {"lat":37.521241,"lon":-120.887018,"city":"Turlock","state":"CA","address":"1000 Powers Ct","name":""},
  {"lat":31.313627,"lon":-92.476859,"city":"Alexandria","state":"LA","address":"2344 North MacArthur Drive","name":""},
  {"lat":34.7771,"lon":-77.3786,"city":"Jacksonville","state":"NC","address":"119 Penny Lane","name":""},
  {"lat":26.611457,"lon":-81.79998,"city":"Fort Myers","state":"FL","address":"3626 Colonial Court","name":""},
  {"lat":30.199444,"lon":-95.458056,"city":"The Woodlands","state":"TX","address":"17525 St. Lukes Way","name":""},
  {"lat":35.813029,"lon":-83.981141,"city":"Alcoa","state":"TN","address":"176 Cusick Road","name":""},
  {"lat":37.797451,"lon":-85.913782,"city":"Radcliff","state":"KY","address":"40 Bourbon Street","name":""},
  {"lat":39.036643,"lon":-94.350534,"city":"Independence","state":"MO","address":"4545 S Trace Park Court","name":""},
  {"lat":33.382929,"lon":-111.616939,"city":"Mesa","state":"AZ","address":"1748 S Crismon Rd","name":""},
  {"lat":47.590788,"lon":-52.718132,"city":"St. John's","state":"NL","address":"180 Portugal Cove Road Bldg 2","name":""},
  {"lat":40.331096,"lon":-76.791848,"city":"Harrisburg","state":"PA","address":"504 North Mountain Road","name":""},
  {"lat":42.561237,"lon":-70.979679,"city":"Danvers","state":"MA","address":"238 Andover Street","name":""},
  {"lat":33.427782,"lon":-84.186035,"city":"McDonough","state":"GA","address":"136 Highway 81 West","name":""},
  {"lat":32.613776,"lon":-83.695031,"city":"Warner Robins","state":"GA","address":"110 Willie Lee Parkway","name":""},
  {"lat":25.807599,"lon":-80.295085,"city":"Miami","state":"FL","address":"5911 NW 36th Street","name":""},
  {"lat":35.915054,"lon":-86.827805,"city":"Franklin","state":"TN","address":"1305 Murfreesboro Rd","name":""},
  {"lat":39.658262,"lon":-80.01547,"city":"Morgantown","state":"WV","address":"7200 Willie G Ave","name":""},
  {"lat":40.06901,"lon":-80.863348,"city":"St. Clairsville","state":"OH","address":"67689 Mall Ring Road","name":""},
  {"lat":48.197247,"lon":-101.304331,"city":"Minot","state":"ND","address":"900 37th Avenue SW","name":""},
  {"lat":42.852,"lon":-106.276,"city":"Casper","state":"WY","address":"4210 Hospitality Lane","name":""},
  {"lat":30.694191,"lon":-88.041653,"city":"Mobile","state":"AL","address":"121 NORTH ROYAL STREET","name":""},
  {"lat":41.249307,"lon":-76.966573,"city":"Williamsport","state":"PA","address":"1836 East Third Street","name":""},
  {"lat":30.646381,"lon":-96.302457,"city":"Bryan","state":"TX","address":"3021 Plaza Centre Court","name":""},
  {"lat":35.731011,"lon":-77.925382,"city":"Wilson","state":"NC","address":"2915 Independence Dr. West","name":""},
  {"lat":32.55028,"lon":-84.932967,"city":"Columbus","state":"GA","address":"6611 Whittlesey Boulevard","name":""},
  {"lat":41.925992,"lon":-72.670218,"city":"Windsor Locks","state":"CT","address":"149 Ella Grasso Turnpike","name":""},
  {"lat":33.805137,"lon":-117.9074,"city":"Anaheim","state":"CA","address":"1733 South Anaheim Boulevard","name":""},
  {"lat":30.384284,"lon":-86.36263,"city":"Miramar Beach","state":"FL","address":"11396 Us 98 West","name":""},
  {"lat":36.022571,"lon":-96.009614,"city":"Jenks","state":"OK","address":"219 S. Gateway Place W","name":""},
  {"lat":30.343132,"lon":-81.412876,"city":"Jacksonville","state":"FL","address":"2073 Mayport Road","name":""},
  {"lat":40.77463,"lon":-89.674571,"city":"Peoria","state":"IL","address":"5300 W. Landens Way","name":""},
  {"lat":35.642999,"lon":-86.900229,"city":"Columbia","state":"TN","address":"1530 Bear Creek Pike","name":""},
  {"lat":36.080097,"lon":-86.758788,"city":"Nashville","state":"TN","address":"4697 Trousdale Dr","name":""},
  {"lat":40.981386,"lon":-76.040049,"city":"Hazleton","state":"PA","address":"9 Bowmans Mill Road","name":""},
  {"lat":29.706685,"lon":-98.090787,"city":"New Braunfels","state":"TX","address":"1471 IH 35 North","name":""},
  {"lat":43.620615,"lon":-70.352474,"city":"Scarborough","state":"ME","address":"700 Roundwood Drive","name":""},
  {"lat":34.959078,"lon":-89.991921,"city":"Southaven","state":"MS","address":"6753 Airways Blvd","name":""},
  {"lat":35.556666,"lon":-80.853073,"city":"Mooresville","state":"NC","address":"3247 Charlotte Highway","name":""},
  {"lat":41.571183,"lon":-90.519597,"city":"Davenport","state":"IA","address":"3800 Market Square Circle","name":""},
  {"lat":29.659738,"lon":-95.157208,"city":"Pasadena","state":"TX","address":"3450 East Sam Houston Parkway South","name":""},
  {"lat":48.309374,"lon":-122.640086,"city":"Oak Harbor","state":"WA","address":"33221 State Road 20","name":""},
  {"lat":35.18776,"lon":-101.88016,"city":"Amarillo","state":"TX","address":"18 Western Plaza Drive","name":""},
  {"lat":33.003264,"lon":-96.683622,"city":"Plano","state":"TX","address":"2401 E. President George Bush Hwy","name":""},
  {"lat":40.334398,"lon":-75.943917,"city":"Reading","state":"PA","address":"55 South 3rd Avenue","name":""},
  {"lat":30.329576,"lon":-97.667013,"city":"Austin","state":"TX","address":"8000 Cross Park Drive","name":""},
  {"lat":39.370036,"lon":-77.410891,"city":"Frederick","state":"MD","address":"7310 Executive Way","name":""},
  {"lat":39.960231,"lon":-104.772544,"city":"Brighton","state":"CO","address":"2204 South Medical Center Drive","name":""},
  {"lat":31.992787,"lon":-102.158864,"city":"Midland","state":"TX","address":"5704 Deauville Boulevard","name":""},
  {"lat":41.107047,"lon":-100.761837,"city":"North Platte","state":"NE","address":"202 E. Eugene Avenue","name":""},
  {"lat":41.142305,"lon":-80.166729,"city":"Mercer","state":"PA","address":"37 Holiday Blvd","name":""},
  {"lat":30.000529,"lon":-95.42716,"city":"Houston","state":"TX","address":"16027 North Freeway","name":""},
  {"lat":41.12748,"lon":-85.154477,"city":"Fort Wayne","state":"IN","address":"5251 Distribution Drive","name":""},
  {"lat":41.467303,"lon":-87.322869,"city":"Merrillville","state":"IN","address":"8339 Ohio Street","name":""},
  {"lat":40.592901,"lon":-81.093526,"city":"Carrollton","state":"OH","address":"1296 Canton Rd NW","name":""},
  {"lat":28.835662,"lon":-97.864665,"city":"Kenedy","state":"TX","address":"304 Business Park Drive","name":""},
  {"lat":35.171579,"lon":-89.83653,"city":"Memphis","state":"TN","address":"1776 Whitten Rd","name":""},
  {"lat":33.041183,"lon":-96.707736,"city":"Plano","state":"TX","address":"3340 Premier Drive","name":""},
  {"lat":38.19684,"lon":-85.700889,"city":"Louisville","state":"KY","address":"1367 Gardiner Lane","name":""},
  {"lat":31.292341,"lon":-85.84528,"city":"Enterprise","state":"AL","address":"203 Brabham Dr","name":""},
  {"lat":35.97662,"lon":-78.54337,"city":"Wake Forest","state":"NC","address":"12050 Retail Drive","name":""},
  {"lat":29.558883,"lon":-95.3595,"city":"Pearland","state":"TX","address":"9015 Broadway","name":""},
  {"lat":33.959764,"lon":-80.397204,"city":"Sumter","state":"SC","address":"2541 Broad Street","name":""},
  {"lat":40.507687,"lon":-107.577937,"city":"Craig","state":"CO","address":"92 Commerce Street","name":""},
  {"lat":39.166671,"lon":-76.724778,"city":"Hanover","state":"MD","address":"1525 Dorsey Road","name":""},
  {"lat":37.347118,"lon":-77.357906,"city":"Chester","state":"VA","address":"225 East Hundred Road","name":""},
  {"lat":30.1836,"lon":-93.3508,"city":"Sulphur","state":"LA","address":"320 Arena Road","name":""},
  {"lat":37.462813,"lon":-77.42773,"city":"Richmond","state":"VA","address":"4301 Commerce Rd.","name":""},
  {"lat":42.542551,"lon":-83.790846,"city":"Brighton","state":"MI","address":"151 Library Drive","name":""},
  {"lat":39.7827,"lon":-86.1892,"city":"Indianapolis","state":"IN","address":"1152 N. White River Pkwy. W. Drive","name":""},
  {"lat":43.352626,"lon":-79.800323,"city":"Burlington","state":"ON","address":"3063 South Service Rd.","name":""},
  {"lat":33.232663,"lon":-86.80032,"city":"Alabaster","state":"AL","address":"1004 BALMORAL DRIVE","name":""},
  {"lat":34.7185,"lon":-86.668004,"city":"Huntsville","state":"AL","address":"219 Exchange Place NW","name":""},
  {"lat":34.064546,"lon":-117.253436,"city":"Loma Linda","state":"CA","address":"10372 Richardson Street","name":""},
  {"lat":36.314698,"lon":-86.699113,"city":"Goodlettsville","state":"TN","address":"800 Conference Drive","name":""},
  {"lat":32.377131,"lon":-104.229683,"city":"Carlsbad","state":"NM","address":"3711 San Jose Boulevard","name":""},
  {"lat":43.483942,"lon":-112.046189,"city":"Idaho Falls","state":"ID","address":"665 Pancheri Drive","name":""},
  {"lat":29.405607,"lon":-98.615837,"city":"San Antonio","state":"TX","address":"6439 US Hwy 90","name":""},
  {"lat":39.175553,"lon":-96.559181,"city":"Manhattan","state":"KS","address":"210 Blue Earth Place","name":""},
  {"lat":38.973374,"lon":-76.546531,"city":"Annapolis","state":"MD","address":"1 S Womack Dr","name":""},
  {"lat":38.954222,"lon":-94.733392,"city":"Lenexa","state":"KS","address":"9630 Rosehill Road","name":""},
  {"lat":39.651995,"lon":-75.74977,"city":"Newark","state":"DE","address":"1101 South College Ave","name":""},
  {"lat":32.917355,"lon":-97.017546,"city":"Irving","state":"TX","address":"5000 Plaza Drive","name":""},
  {"lat":41.127671,"lon":-80.770775,"city":"Austintown","state":"OH","address":"5575 Cerni Place","name":""},
  {"lat":32.676936,"lon":-97.039634,"city":"Grand Prairie","state":"TX","address":"2504 Interstate 20 West","name":""},
  {"lat":37.1108,"lon":-76.4672,"city":"Yorktown","state":"VA","address":"329 Commonwealth Drive","name":""},
  {"lat":37.600489,"lon":-77.512802,"city":"Richmond","state":"VA","address":"2100 Dickens Road","name":""},
  {"lat":36.196138,"lon":-86.797212,"city":"Nashville","state":"TN","address":"270 Venture Circle","name":""},
  {"lat":35.76535,"lon":-95.40311,"city":"Muskogee","state":"OK","address":"1601 N. 32nd Street","name":""},
  {"lat":37.52541,"lon":-77.338103,"city":"Richmond","state":"VA","address":"5400 Audubon Drive","name":""},
  {"lat":31.440373,"lon":-100.498724,"city":"San Angelo","state":"TX","address":"4587 West Houston Harte Expressway","name":""},
  {"lat":36.390623,"lon":-97.860437,"city":"Enid","state":"OK","address":"1225 East Owen K. Garriott Drive","name":""},
  {"lat":28.010763,"lon":-82.708839,"city":"Safety Harbor","state":"FL","address":"2471 McMullen Booth Road","name":""},
  {"lat":30.426833,"lon":-91.136497,"city":"Baton Rouge","state":"LA","address":"5353 Bankers Avenue","name":""},
  {"lat":37.262683,"lon":-77.325122,"city":"Hopewell","state":"VA","address":"5113 Plaza Drive","name":""},
  {"lat":30.5027,"lon":-97.6825,"city":"Round Rock","state":"TX","address":"521 South I35","name":""},
  {"lat":43.18667,"lon":-87.965591,"city":"Brown Deer","state":"WI","address":"4483 W Schroeder Dr","name":""},
  {"lat":38.791524,"lon":-97.614748,"city":"Salina","state":"KS","address":"2650 Planet Avenue","name":""},
  {"lat":42.096676,"lon":-75.985444,"city":"Vestal","state":"NY","address":"3605 Vestal Parkway East","name":""},
  {"lat":46.85451,"lon":-96.847992,"city":"Fargo","state":"ND","address":"4014 17th Avenue South","name":""},
  {"lat":39.933232,"lon":-77.632894,"city":"Chambersburg","state":"PA","address":"231 Walker Road","name":""},
  {"lat":30.14726,"lon":-85.591509,"city":"Panama City","state":"FL","address":"131 N. Tyndall Parkway","name":""},
  {"lat":29.910203,"lon":-90.206642,"city":"Avondale","state":"LA","address":"3079 Highway 90","name":""},
  {"lat":37.649436,"lon":-77.599828,"city":"Glen Allen","state":"VA","address":"4120 Tom Leonard Drive","name":""},
  {"lat":41.73476,"lon":-85.977269,"city":"Elkhart","state":"IN","address":"300 Northpointe Blvd.","name":""},
  {"lat":39.174196,"lon":-94.493735,"city":"Kansas City","state":"MO","address":"4450 North Randolph Road","name":""},
  {"lat":40.435948,"lon":-104.989804,"city":"Loveland","state":"CO","address":"6046 East Crossroads Blvd.","name":""},
  {"lat":37.843038,"lon":-81.976963,"city":"Logan","state":"WV","address":"743 Stratton Street","name":""},
  {"lat":38.583596,"lon":-77.329082,"city":"Dumfries","state":"VA","address":"16927 Old Stage Road","name":""},
  {"lat":44.76838,"lon":-91.429428,"city":"Eau Claire","state":"WI","address":"4937 Bullis Farm Rd","name":""},
  {"lat":32.140546,"lon":-81.237043,"city":"Savannah","state":"GA","address":"50 Stephen S. Green Dr.","name":""},
  {"lat":29.857949,"lon":-97.954394,"city":"San Marcos","state":"TX","address":"600 Wonderworld Drive","name":""},
  {"lat":40.135011,"lon":-79.842866,"city":"Belle Vernon","state":"PA","address":"715 Rostraver Road","name":""},
  {"lat":39.796708,"lon":-86.043905,"city":"Indianapolis","state":"IN","address":"7040 E 21st. Street","name":""},
  {"lat":38.883644,"lon":-94.688232,"city":"Overland Park","state":"KS","address":"8953 West 135th Street","name":""},
  {"lat":37.675769,"lon":-97.411583,"city":"Wichita","state":"KS","address":"570 South Julia Street","name":""},
  {"lat":36.340982,"lon":-94.179269,"city":"Rogers","state":"AR","address":"4601 West Rozell Street","name":""},
  {"lat":36.185342,"lon":-86.327375,"city":"Lebanon","state":"TN","address":"110 Willard Hagan Drive","name":""},
  {"lat":31.855931,"lon":-102.31692,"city":"Odessa","state":"TX","address":"750 S. John Ben Shepperd Parkway","name":""},
  {"lat":40.127276,"lon":-74.719565,"city":"Bordentown","state":"NJ","address":"200 Rising Sun Road","name":""},
  {"lat":42.490601,"lon":-83.302202,"city":"Southfield","state":"MI","address":"26250 American Dr","name":""},
  {"lat":27.73723,"lon":-97.426635,"city":"Corpus Christi","state":"TX","address":"5014 Crosstown Expressway","name":""},
  {"lat":25.640453,"lon":-80.420399,"city":"Miami","state":"FL","address":"13600 S.W. 139 Court","name":""},
  {"lat":34.270659,"lon":-88.715672,"city":"Tupelo","state":"MS","address":"979 North Gloster St.","name":""},
  {"lat":37.6736,"lon":-77.451564,"city":"Glen Allen","state":"VA","address":"10609 Telegraph Rd","name":""},
  {"lat":29.612513,"lon":-90.759366,"city":"Houma","state":"LA","address":"737 Corporate Dr","name":""},
  {"lat":37.826,"lon":-92.148,"city":"Saint Robert","state":"MO","address":"140 Carmel Valley Way","name":""},
  {"lat":35.608221,"lon":-77.428393,"city":"Greenville","state":"NC","address":"1055 Waterford Commons Drive","name":""},
  {"lat":40.977,"lon":-117.7309,"city":"Winnemucca","state":"NV","address":"460 E. Winnemucca Boulevard","name":""},
  {"lat":38.857553,"lon":-77.339678,"city":"Fairfax","state":"VA","address":"11400 Random Hills Rd.","name":""},
  {"lat":33.379973,"lon":-84.76151,"city":"Newnan","state":"GA","address":"700 Newnan Crossing Bypass","name":""},
  {"lat":46.9045,"lon":-96.8081,"city":"Fargo","state":"ND","address":"1831 NDSU Research Park Drive","name":""},
  {"lat":42.390523,"lon":-82.202291,"city":"Chatham","state":"ON","address":"575 Richmond Street Suite B","name":""},
  {"lat":35.86074,"lon":-86.42974,"city":"Murfreesboro","state":"TN","address":"850 North Thompson Lane","name":""},
  {"lat":29.676428,"lon":-95.428453,"city":"Houston","state":"TX","address":"10025 South Main Street","name":""},
  {"lat":39.1287,"lon":-94.832078,"city":"Kansas City","state":"KS","address":"10920 Parallel Parkway","name":""},
  {"lat":28.606168,"lon":-81.388433,"city":"Orlando","state":"FL","address":"626 Lee Road","name":""},
  {"lat":47.234134,"lon":-122.249734,"city":"Sumner","state":"WA","address":"2520 136th Avenue Court E","name":""},
  {"lat":37.307666,"lon":-77.400279,"city":"Colonial Heights","state":"VA","address":"15820 Woods Edge Road","name":""},
  {"lat":41.791857,"lon":-88.381319,"city":"Aurora","state":"IL","address":"2625 West Sullivan Rd","name":""},
  {"lat":42.032236,"lon":-86.515863,"city":"Stevensville","state":"MI","address":"2567 W. Marquette Woods Rd","name":""},
  {"lat":28.86059,"lon":-96.996801,"city":"Victoria","state":"TX","address":"7103 N. Navarro Street","name":""},
  {"lat":41.313517,"lon":-75.756118,"city":"Pittston","state":"PA","address":"405 SR 315","name":""},
  {"lat":29.479704,"lon":-95.099623,"city":"League City","state":"TX","address":"2350 Gulf Freeway South","name":""},
  {"lat":25.913915,"lon":-80.331309,"city":"Miami Lakes","state":"FL","address":"8079 NW 154th Street","name":""},
  {"lat":39.81658,"lon":-94.810692,"city":"Saint Joseph","state":"MO","address":"3505 North Village Drive","name":""},
  {"lat":33.261835,"lon":-84.097572,"city":"Jackson","state":"GA","address":"112 Hospitality Drive","name":""},
  {"lat":39.029621,"lon":-84.611809,"city":"Erlanger","state":"KY","address":"602 Atlas Air Way","name":""},
  {"lat":40.755805,"lon":-73.992297,"city":"New York","state":"NY","address":"339 W. 39th Street","name":""},
  {"lat":42.568292,"lon":-87.932275,"city":"Kenosha","state":"WI","address":"10200 74th Street","name":""},
  {"lat":33.200894,"lon":-92.644279,"city":"El Dorado","state":"AR","address":"2210 Junction City Road","name":""},
  {"lat":39.290547,"lon":-76.614929,"city":"Baltimore","state":"MD","address":"101 North Charles Street","name":""},
  {"lat":30.507852,"lon":-87.219201,"city":"Pensacola","state":"FL","address":"1953 Northcross Lane","name":""},
  {"lat":40.926985,"lon":-98.382069,"city":"Grand Island","state":"NE","address":"859 Allen Drive","name":""},
  {"lat":36.835454,"lon":-76.12877,"city":"Virginia Beach","state":"VA","address":"4437 Bonney Road","name":""},
  {"lat":38.072223,"lon":-84.496317,"city":"Lexington","state":"KY","address":"603 Ad Color Drive","name":""},
  {"lat":38.116212,"lon":-121.252127,"city":"Lodi","state":"CA","address":"1345 E Kettleman Lane","name":""},
  {"lat":33.937891,"lon":-98.523349,"city":"Wichita Falls","state":"TX","address":"1320 Central Freeway","name":""},
  {"lat":47.720737,"lon":-104.155004,"city":"Sidney","state":"MT","address":"201 6th ST NW","name":""},
  {"lat":38.71771,"lon":-77.13108,"city":"Alexandria","state":"VA","address":"8847 Richmond Highway","name":""},
  {"lat":42.627932,"lon":-82.96779,"city":"Macomb","state":"MI","address":"15595 Hall Rd","name":""},
  {"lat":38.58935,"lon":-92.249959,"city":"Jefferson City","state":"MO","address":"3514 Amazonas Drive","name":""},
  {"lat":35.464532,"lon":-97.497314,"city":"Oklahoma City","state":"OK","address":"933 East Reno Avenue","name":""},
  {"lat":34.00716,"lon":-84.569034,"city":"Kennesaw","state":"GA","address":"745 Cobb Place Boulevard NW","name":""},
  {"lat":40.612619,"lon":-75.348635,"city":"Bethlehem","state":"PA","address":"1630 Spillman Drive","name":""},
  {"lat":29.53383,"lon":-98.68158,"city":"San Antonio","state":"TX","address":"9502 Amelia Pass","name":""},
  {"lat":35.079797,"lon":-78.950966,"city":"Fayetteville","state":"NC","address":"4108 Legend Avenue","name":""},
  {"lat":36.8215,"lon":-76.4154,"city":"Chesapeake","state":"VA","address":"4809 Market Place","name":""},
  {"lat":33.42251,"lon":-86.702923,"city":"Birmingham","state":"AL","address":"4686 Highway 280 East","name":""},
  {"lat":42.07655,"lon":-88.33735,"city":"Elgin","state":"IL","address":"1780 Capital Street","name":""},
  {"lat":35.443829,"lon":-97.425416,"city":"Del City","state":"OK","address":"5300 Main Street","name":""},
  {"lat":31.57663,"lon":-102.891742,"city":"Monahans","state":"TX","address":"1902 S. Stockton Avenue","name":""},
  {"lat":32.544227,"lon":-94.751295,"city":"Longview","state":"TX","address":"2904 Tuttle Blvd","name":""},
  {"lat":31.975975,"lon":-102.069994,"city":"Midland","state":"TX","address":"110 Longview Ave","name":""},
  {"lat":44.644329,"lon":-93.302816,"city":"Lakeville","state":"MN","address":"21060 Keswick Loop","name":""},
  {"lat":47.180239,"lon":-122.46401,"city":"Tacoma","state":"WA","address":"8402 S Hosmer Street","name":""},
  {"lat":35.97334,"lon":-86.577126,"city":"Smyrna","state":"TN","address":"930 Colonnade Drive","name":""},
  {"lat":38.953,"lon":-77.4257,"city":"Herndon","state":"VA","address":"13845 Sunrise Valley Drive","name":""},
  {"lat":32.260523,"lon":-90.132829,"city":"Pearl","state":"MS","address":"632 Pearson Road","name":""},
  {"lat":33.600222,"lon":-85.784892,"city":"Oxford","state":"AL","address":"73 Parkway Xing","name":""},
  {"lat":41.282025,"lon":-95.910056,"city":"Omaha","state":"NE","address":"2601 Abbott Plaza","name":""},
  {"lat":42.927868,"lon":-87.930348,"city":"Oak Creek","state":"WI","address":"6440 S. 13th Street","name":""},
  {"lat":36.05455,"lon":-94.191764,"city":"Fayetteville","state":"AR","address":"2270 W. Martin Luther King Jr. Blvd","name":""},
  {"lat":30.480725,"lon":-84.302542,"city":"Tallahassee","state":"FL","address":"2815 Lakeshore Drive","name":""},
  {"lat":31.0995,"lon":-97.7415,"city":"Killeen","state":"TX","address":"2300 Florence Road","name":""},
  {"lat":30.112289,"lon":-93.810142,"city":"Orange","state":"TX","address":"6603 IH-10 East","name":""},
  {"lat":41.772911,"lon":-72.670883,"city":"Hartford","state":"CT","address":"370 Market Street","name":""},
  {"lat":27.676254,"lon":-97.304734,"city":"Corpus Christi","state":"TX","address":"9225 S. Padre Island Dr","name":""},
  {"lat":31.3649,"lon":-110.95005,"city":"Nogales","state":"AZ","address":"875 North Frank Reed Road","name":""},
  {"lat":32.691904,"lon":-114.589634,"city":"Yuma","state":"AZ","address":"2036 S. Avenue 3E","name":""},
  {"lat":40.415887,"lon":-86.814637,"city":"Lafayette","state":"IN","address":"240 Meijer Drive","name":""},
  {"lat":32.764986,"lon":-97.47623,"city":"Fort Worth","state":"TX","address":"402 N Jim Wright Fwy","name":""},
  {"lat":41.12347,"lon":-104.844667,"city":"Cheyenne","state":"WY","address":"2335 Tura Parkway","name":""},
  {"lat":40.091282,"lon":-82.988296,"city":"Columbus","state":"OH","address":"1100 Mediterranean Avenue","name":""},
  {"lat":32.823138,"lon":-96.870573,"city":"Dallas","state":"TX","address":"7930 North Stemmons Freeway","name":""},
  {"lat":29.468424,"lon":-90.321196,"city":"Cut Off","state":"LA","address":"287 Highway 3162","name":""},
  {"lat":30.390435,"lon":-96.067254,"city":"Navasota","state":"TX","address":"9313 State Highway 6","name":""},
  {"lat":39.769688,"lon":-89.608967,"city":"Springfield","state":"IL","address":"2501 Sunrise Drive","name":""},
  {"lat":33.13252,"lon":-94.968052,"city":"Mount Pleasant","state":"TX","address":"2407 S. Jefferson & HWY US 271","name":""},
  {"lat":28.445353,"lon":-99.242928,"city":"Cotulla","state":"TX","address":"547 Las Palmas Boulevard","name":""},
  {"lat":33.96164,"lon":-80.94863,"city":"Columbia","state":"SC","address":"921 Atlas Road","name":""},
  {"lat":41.988973,"lon":-76.546987,"city":"Sayre","state":"PA","address":"2775 Elmira Street","name":""},
  {"lat":42.990553,"lon":-78.79227,"city":"Amherst","state":"NY","address":"20 Flint Road","name":""},
  {"lat":30.646457,"lon":-88.113664,"city":"Mobile","state":"AL","address":"1545 Satchel Paige Drive","name":""},
  {"lat":46.85358,"lon":-100.77115,"city":"Bismarck","state":"ND","address":"4400 Skyline Crossings","name":""},
  {"lat":39.882138,"lon":-83.045923,"city":"Grove City","state":"OH","address":"3996 Jackpot Rd","name":""},
  {"lat":39.477307,"lon":-76.259384,"city":"Bel Air","state":"MD","address":"4216 Philadelphia Road","name":""},
  {"lat":35.808887,"lon":-90.671692,"city":"Jonesboro","state":"AR","address":"2906 Kazi Street","name":""},
  {"lat":31.22409,"lon":-85.432479,"city":"Dothan","state":"AL","address":"3005 Ross Clark Circle","name":""},
  {"lat":33.930186,"lon":-118.351765,"city":"Hawthorne","state":"CA","address":"11410 Hawthorne Blvd.","name":""},
  {"lat":30.198148,"lon":-93.239105,"city":"Lake Charles","state":"LA","address":"1105 West Prien Lake Road","name":""},
  {"lat":41.216067,"lon":-96.11815,"city":"Omaha","state":"NE","address":"13003 I Street","name":""},
  {"lat":38.846844,"lon":-94.823996,"city":"Olathe","state":"KS","address":"15490 South Rogers Road","name":""},
  {"lat":32.2894,"lon":-95.3008,"city":"Tyler","state":"TX","address":"315 East Rieck Rd.","name":""},
  {"lat":29.398592,"lon":-94.950864,"city":"Texas City","state":"TX","address":"1700 Highway 146 North","name":""},
  {"lat":41.5488,"lon":-83.5998,"city":"Perrysburg","state":"OH","address":"27350 Lakevue Drive","name":""},
  {"lat":30.655424,"lon":-97.67641,"city":"Georgetown","state":"TX","address":"451 NORTH IH-35","name":""},
  {"lat":41.694771,"lon":-91.628039,"city":"Coralville","state":"IA","address":"140 Westcor Drive Bldg B","name":""},
  {"lat":44.274897,"lon":-105.48997,"city":"Gillette","state":"WY","address":"904 Country Club Road","name":""},
  {"lat":38.98926,"lon":-76.882278,"city":"Greenbelt","state":"MD","address":"7200 Hanover Drive","name":""},
  {"lat":38.180559,"lon":-85.213525,"city":"Shelbyville","state":"KY","address":"30 Fairway Crossing","name":""},
  {"lat":38.587043,"lon":-89.945895,"city":"O'Fallon","state":"IL","address":"1332 Park Plaza Drive","name":""},
  {"lat":35.353813,"lon":-97.495339,"city":"Moore","state":"OK","address":"1701 North Moore Avenue","name":""},
  {"lat":34.226179,"lon":-83.869207,"city":"Oakwood","state":"GA","address":"3757 Mundy Mill Drive","name":""},
  {"lat":37.726463,"lon":-97.427255,"city":"Wichita","state":"KS","address":"2405 N. Ridge Road","name":""},
  {"lat":35.717881,"lon":-78.841228,"city":"Apex","state":"NC","address":"1005 Marco Drive","name":""},
  {"lat":42.25732,"lon":-85.52958,"city":"Kalamazoo","state":"MI","address":"3443 Retail Place Drive","name":""},
  {"lat":36.433647,"lon":-99.424197,"city":"Woodward","state":"OK","address":"3350 Oklahoma Ave","name":""},
  {"lat":40.5138,"lon":-88.9484,"city":"Normal","state":"IL","address":"203 Susan Drive","name":""},
  {"lat":30.407716,"lon":-86.639161,"city":"Fort Walton Beach","state":"FL","address":"407 Miracle Strip Parkway S.W.","name":""},
  {"lat":42.44041,"lon":-96.34609,"city":"Sioux City","state":"IA","address":"4720 Southern Hills Drive","name":""},
  {"lat":38.778327,"lon":-90.527702,"city":"Saint Charles","state":"MO","address":"1800 Zumbehl Road","name":""},
  {"lat":27.899791,"lon":-97.14271,"city":"Aransas Pass","state":"TX","address":"501 East Goodnight Avenue","name":""},
  {"lat":30.31136,"lon":-89.82726,"city":"Slidell","state":"LA","address":"100 Holiday Boulevard","name":""},
  {"lat":28.38652,"lon":-81.508859,"city":"Lake Buena Vista","state":"FL","address":"12341 Winter Garden Vineland","name":""},
  {"lat":33.419569,"lon":-104.525358,"city":"Roswell","state":"NM","address":"4 Military Heights Drive","name":""},
  {"lat":39.150097,"lon":-86.570754,"city":"Bloomington","state":"IN","address":"1935 S Basswood Drive","name":""},
  {"lat":39.46649,"lon":-87.406744,"city":"Terre Haute","state":"IN","address":"721 Wabash Avenue","name":""},
  {"lat":34.7877,"lon":-92.210859,"city":"North Little Rock","state":"AR","address":"3950 Vali Court","name":""},
  {"lat":32.803881,"lon":-79.896051,"city":"Mount Pleasant","state":"SC","address":"400 Magrath Darby Boulevard","name":""},
  {"lat":47.45734,"lon":-94.863762,"city":"Bemidji","state":"MN","address":"401 Paul Bunyan Drive SE","name":""},
  {"lat":44.788082,"lon":-93.207955,"city":"Eagan","state":"MN","address":"4675 Rahncliff Road","name":""},
  {"lat":32.824656,"lon":-97.058375,"city":"Fort Worth","state":"TX","address":"4200 Reggis Drive","name":""},
  {"lat":30.042279,"lon":-94.151213,"city":"Beaumont","state":"TX","address":"5355 Clearwater Court","name":""},
  {"lat":40.772531,"lon":-96.62311,"city":"Lincoln","state":"NE","address":"4100 Pioneer Woods Drive","name":""},
  {"lat":41.152032,"lon":-95.93605,"city":"Bellevue","state":"NE","address":"10902 S. 15th Street","name":""},
  {"lat":38.797096,"lon":-77.530444,"city":"Manassas","state":"VA","address":"11220 Balls Ford Road","name":""},
  {"lat":53.537042,"lon":-113.646799,"city":"Edmonton","state":"AB","address":"18520 100 Ave NW","name":""},
  {"lat":32.315886,"lon":-90.875487,"city":"Vicksburg","state":"MS","address":"1296 South Frontage Road","name":""},
  {"lat":29.65175,"lon":-95.032412,"city":"La Porte","state":"TX","address":"1250 S. 13th St.","name":""},
  {"lat":44.781189,"lon":-106.938473,"city":"Sheridan","state":"WY","address":"1709 Sugarland Dr","name":""},
  {"lat":31.903352,"lon":-102.302347,"city":"Odessa","state":"TX","address":"4001 Billy Hext Road","name":""},
  {"lat":36.693062,"lon":-87.452945,"city":"Oak Grove","state":"KY","address":"12885 Fort Campbell Blvd","name":""},
  {"lat":34.472491,"lon":-93.059866,"city":"Hot Springs","state":"AR","address":"3404 Central Avenue","name":""},
  {"lat":39.052925,"lon":-95.764103,"city":"Topeka","state":"KS","address":"914 SW Henderson","name":""},
  {"lat":31.892799,"lon":-106.435583,"city":"El Paso","state":"TX","address":"4631 Cohen Ave","name":""},
  {"lat":43.998479,"lon":-92.463072,"city":"Rochester","state":"MN","address":"1640 South Broadway","name":""},
  {"lat":38.276186,"lon":-85.698086,"city":"Louisville","state":"KY","address":"1039 Zorn Avenue","name":""},
  {"lat":29.771967,"lon":-95.219131,"city":"Houston","state":"TX","address":"1020 Maxey Road","name":""},
  {"lat":38.033061,"lon":-84.521685,"city":"Lexington","state":"KY","address":"501 Waller Avenue","name":""},
  {"lat":29.023531,"lon":-95.436584,"city":"Lake Jackson","state":"TX","address":"506 E Hwy 332","name":""},
  {"lat":42.065,"lon":-80.098,"city":"Erie","state":"PA","address":"2020 Edinboro Road","name":""},
  {"lat":48.178832,"lon":-103.631664,"city":"Williston","state":"ND","address":"3716 6th Avenue West","name":""},
  {"lat":43.116974,"lon":-76.14319,"city":"North Syracuse","state":"NY","address":"5414 South Bay Road","name":""},
  {"lat":29.544238,"lon":-95.135701,"city":"Webster","state":"TX","address":"720 W Bay Area Blvd","name":""},
  {"lat":38.3241,"lon":-85.75575,"city":"Clarksville","state":"IN","address":"1419 Bales Lane","name":""},
  {"lat":29.736785,"lon":-95.575752,"city":"Houston","state":"TX","address":"11280 Westheimer Road","name":""},
  {"lat":39.1589,"lon":-78.1495,"city":"Winchester","state":"VA","address":"1135 Millwood Pike","name":""},
  {"lat":40.13814,"lon":-88.250799,"city":"Champaign","state":"IL","address":"1917 Moreland Blvd","name":""},
  {"lat":32.366037,"lon":-86.141118,"city":"Montgomery","state":"AL","address":"9151 Boyd Cooper Parkway","name":""},
  {"lat":32.475516,"lon":-83.743789,"city":"Perry","state":"GA","address":"110 Mataji Way","name":""},
  {"lat":29.70027,"lon":-95.100489,"city":"Deer Park","state":"TX","address":"1300 East Blvd","name":""},
  {"lat":37.1382,"lon":-93.279773,"city":"Springfield","state":"MO","address":"1035 E. Republic Road","name":""},
  {"lat":33.898338,"lon":-84.47773,"city":"Smyrna","state":"GA","address":"2210 Corporate Plaza","name":""},
  {"lat":42.121597,"lon":-72.62556,"city":"West Springfield","state":"MA","address":"572 Riverdale Street","name":""},
  {"lat":32.304531,"lon":-111.00943,"city":"Tucson","state":"AZ","address":"1995 West River Road","name":""},
  {"lat":29.985383,"lon":-91.857677,"city":"New Iberia","state":"LA","address":"2600 Hwy 14","name":""},
  {"lat":38.437909,"lon":-78.844639,"city":"Harrisonburg","state":"VA","address":"1560 Country Club Road","name":""},
  {"lat":29.791283,"lon":-94.979986,"city":"Baytown","state":"TX","address":"6126 Garth Road","name":""},
  {"lat":35.109395,"lon":-92.435815,"city":"Conway","state":"AR","address":"2360 Sanders St.","name":""},
  {"lat":32.427971,"lon":-84.95036,"city":"Columbus","state":"GA","address":"3391 Victory Drive","name":""},
  {"lat":40.046508,"lon":-76.389926,"city":"Lancaster","state":"PA","address":"100 South Tree Drive","name":""},
  {"lat":32.939963,"lon":-80.04292,"city":"North Charleston","state":"SC","address":"2177 Northwoods Blvd.","name":""},
  {"lat":32.41422,"lon":-99.778122,"city":"Abilene","state":"TX","address":"3050 Catclaw Drive","name":""},
  {"lat":29.290255,"lon":-94.83895,"city":"Galveston","state":"TX","address":"808 61st Street C","name":""},
  {"lat":36.293858,"lon":-95.836938,"city":"Owasso","state":"OK","address":"11699 E. 96th Street North","name":""},
  {"lat":35.4346,"lon":-80.87,"city":"Huntersville","state":"NC","address":"16530 Northcross Drive","name":""},
  {"lat":30.838565,"lon":-83.317767,"city":"Valdosta","state":"GA","address":"1003 N. St. Augustine Rd","name":""},
  {"lat":44.498716,"lon":-80.196927,"city":"Collingwood","state":"ON","address":"502 Hume Street","name":""},
  {"lat":40.142918,"lon":-105.134105,"city":"Longmont","state":"CO","address":"1340 Dry Creek Drive","name":""},
  {"lat":38.318102,"lon":-104.611406,"city":"Pueblo","state":"CO","address":"4640 Dillon Drive","name":""},
  {"lat":28.20383,"lon":-80.66788,"city":"Melbourne","state":"FL","address":"2930 Pineda Plaza Way","name":""},
  {"lat":30.208527,"lon":-90.949282,"city":"Gonzales","state":"LA","address":"2705 South Outfitters Drive","name":""},
  {"lat":30.528,"lon":-97.8064,"city":"Cedar Park","state":"TX","address":"1100 Cottonwood Creek Trail","name":""},
  {"lat":29.532097,"lon":-98.488705,"city":"San Antonio","state":"TX","address":"418 Portland Road","name":""},
  {"lat":47.045572,"lon":-122.826029,"city":"Lacey","state":"WA","address":"4440 3rd Ave Se","name":""},
  {"lat":36.189233,"lon":-83.360667,"city":"Morristown","state":"TN","address":"4354 Verde Crossing","name":""},
  {"lat":34.435029,"lon":-85.753513,"city":"Fort Payne","state":"AL","address":"1207 Jordan Road SW","name":""},
  {"lat":41.398179,"lon":-81.649161,"city":"Independence","state":"OH","address":"6125 Rockside Place","name":""},
  {"lat":45.606656,"lon":-122.475958,"city":"Vancouver","state":"WA","address":"2010 SE 192nd Ave","name":""},
  {"lat":35.163903,"lon":-90.176669,"city":"West Memphis","state":"AR","address":"1599 N 6th Street, Suite 200","name":""},
  {"lat":29.656,"lon":-95.564908,"city":"Houston","state":"TX","address":"11230 Southwest Freeway","name":""},
  {"lat":28.744917,"lon":-81.365235,"city":"Lake Mary","state":"FL","address":"1130 Greenwood Boulevard","name":""},
  {"lat":31.357133,"lon":-89.349823,"city":"Hattiesburg","state":"MS","address":"9 Gateway Drive","name":""},
  {"lat":42.706429,"lon":-83.241717,"city":"Auburn Hills","state":"MI","address":"4303 Interpark Drive","name":""},
  {"lat":43.089517,"lon":-76.08749,"city":"East Syracuse","state":"NY","address":"6550 Baptist Way","name":""},
  {"lat":45.568193,"lon":-122.546877,"city":"Portland","state":"OR","address":"11250 NE Holman St","name":""},
  {"lat":29.96885,"lon":-94.02135,"city":"Nederland","state":"TX","address":"2125 Hwy 69","name":""},
  {"lat":43.61125,"lon":-116.274247,"city":"Boise","state":"ID","address":"700 North Cole Road","name":""},
  {"lat":35.978487,"lon":-77.843672,"city":"Rocky Mount","state":"NC","address":"688 English Road","name":""},
  {"lat":39.635908,"lon":-86.064512,"city":"Greenwood","state":"IN","address":"1190 N Graham Road","name":""},
  {"lat":33.245199,"lon":-97.5604,"city":"Decatur","state":"TX","address":"601 West Thompson Road","name":""},
  {"lat":35.59529,"lon":-82.534039,"city":"Asheville","state":"NC","address":"49 Tunnel Road","name":""},
  {"lat":46.897546,"lon":-102.784544,"city":"Dickinson","state":"ND","address":"1430 Sims","name":""},
  {"lat":32.297697,"lon":-80.951413,"city":"Bluffton","state":"SC","address":"5 Young Clyde Court","name":""},
  {"lat":35.84031,"lon":-78.673722,"city":"Raleigh","state":"NC","address":"4433 Lead Mine Road","name":""},
  {"lat":30.212557,"lon":-97.705361,"city":"Austin","state":"TX","address":"6711 East Ben White Boulevard, Bldg. 2","name":""},
  {"lat":41.7102,"lon":-86.166503,"city":"Mishawaka","state":"IN","address":"1220 E Douglas Rd","name":""},
  {"lat":31.5607,"lon":-110.261,"city":"Sierra Vista","state":"AZ","address":"1904 S. Hwy 92","name":""},
  {"lat":42.704579,"lon":-84.500472,"city":"Lansing","state":"MI","address":"3545 Forest Road","name":""},
  {"lat":41.082608,"lon":-111.979261,"city":"Layton","state":"UT","address":"755 W. Heritage Park Boulevard","name":""},
  {"lat":35.098899,"lon":-77.097571,"city":"New Bern","state":"NC","address":"3465 Dr. Martin Luther King Jr. Blv","name":""},
  {"lat":44.261913,"lon":-88.4731,"city":"Appleton","state":"WI","address":"4525 West College Avenue","name":""},
  {"lat":32.757972,"lon":-117.17575,"city":"San Diego","state":"CA","address":"1335 Hotel Circle South","name":""},
  {"lat":29.186403,"lon":-82.186311,"city":"Ocala","state":"FL","address":"3835 West Silver Springs Boulevard","name":""},
  {"lat":33.447269,"lon":-86.830232,"city":"Birmingham","state":"AL","address":"500 Wildwood Circle N.","name":""},
  {"lat":39.886689,"lon":-86.266969,"city":"Indianapolis","state":"IN","address":"7455 Woodland Drive","name":""},
  {"lat":32.341451,"lon":-90.07174,"city":"Flowood","state":"MS","address":"3810 FLOWOOD DR","name":""},
  {"lat":39.980599,"lon":-76.694943,"city":"York","state":"PA","address":"955 N. Hills Road","name":""},
  {"lat":35.9027,"lon":-78.9006,"city":"Durham","state":"NC","address":"1818 East NC Hwy 54","name":""},
  {"lat":40.276888,"lon":-74.70346,"city":"Lawrenceville","state":"NJ","address":"3000 Brunswick Pike","name":""},
  {"lat":42.161113,"lon":-76.865489,"city":"Horseheads","state":"NY","address":"198 Colonial Drive","name":""},
  {"lat":33.365839,"lon":-87.006028,"city":"Bessemer","state":"AL","address":"5430 Academy Way, Suite B","name":""},
  {"lat":30.088949,"lon":-97.81418,"city":"Buda","state":"TX","address":"2180 Main Street","name":""},
  {"lat":44.0415,"lon":-75.8403,"city":"Evans Mills","state":"NY","address":"26513 Herrick Drive","name":""},
  {"lat":31.406039,"lon":-103.487536,"city":"Pecos","state":"TX","address":"109 Lincoln Street","name":""},
  {"lat":29.415629,"lon":-98.502337,"city":"San Antonio","state":"TX","address":"1024 S. Laredo Street","name":""},
  {"lat":29.596602,"lon":-98.284681,"city":"Schertz","state":"TX","address":"17145 N Interstate 35 Frontage Road","name":""},
  {"lat":39.90313,"lon":-86.049709,"city":"Indianapolis","state":"IN","address":"8111 Bash Street","name":""},
  {"lat":28.992423,"lon":-95.924022,"city":"Bay City","state":"TX","address":"5800 7th Street","name":""},
  {"lat":38.372473,"lon":-97.622458,"city":"McPherson","state":"KS","address":"2229 E. Kansas Avenue","name":""},
  {"lat":26.091819,"lon":-80.155116,"city":"Fort Lauderdale","state":"FL","address":"1120 W. State Road 84","name":""},
  {"lat":41.444929,"lon":-74.376438,"city":"Middletown","state":"NY","address":"21 Med Parc Road","name":""},
  {"lat":37.245427,"lon":-93.260799,"city":"Springfield","state":"MO","address":"1920 E. Kerr","name":""},
  {"lat":26.16406,"lon":-97.681817,"city":"Harlingen","state":"TX","address":"4319 South Expressway 83","name":""},
  {"lat":48.450688,"lon":-122.33267,"city":"Burlington","state":"WA","address":"1866 S Burlington Blvd","name":""},
  {"lat":40.388008,"lon":-104.735919,"city":"Greeley","state":"CO","address":"3530 West 29th Street","name":""},
  {"lat":34.991021,"lon":-85.206093,"city":"East Ridge","state":"TN","address":"6517 Ringgold Rd","name":""},
  {"lat":33.5205,"lon":-82.03517,"city":"Augusta","state":"GA","address":"1080 Claussen Road","name":""},
  {"lat":39.301434,"lon":-84.315536,"city":"Mason","state":"OH","address":"5070 Natorp Boulevard","name":""},
  {"lat":34.831849,"lon":-82.3094,"city":"Greenville","state":"SC","address":"25 Green Heron Road","name":""},
  {"lat":41.495803,"lon":-88.170581,"city":"Joliet","state":"IL","address":"1461 Rock Creek Blvd","name":""},
  {"lat":32.905065,"lon":-96.92354,"city":"Farmers Branch","state":"TX","address":"1561 Mira Lago Blvd","name":""},
  {"lat":33.158044,"lon":-96.833132,"city":"Frisco","state":"TX","address":"9484 Frisco Street","name":""},
  {"lat":40.140221,"lon":-82.976366,"city":"Columbus","state":"OH","address":"8515 Lyra Drive","name":""},
  {"lat":38.965267,"lon":-92.286713,"city":"Columbia","state":"MO","address":"1400 Creekwood Parkway","name":""},
  {"lat":37.291085,"lon":-89.571882,"city":"Cape Girardeau","state":"MO","address":"485 South Mt. Auburn Road","name":""},
  {"lat":36.132336,"lon":-85.504806,"city":"Cookeville","state":"TN","address":"1161 South Jefferson Avenue","name":""},
  {"lat":37.678288,"lon":-97.275376,"city":"Wichita","state":"KS","address":"5211 E. Kellogg Ave","name":""},
  {"lat":32.844005,"lon":-97.187536,"city":"Hurst","state":"TX","address":"803 W Harwood Road","name":""},
  {"lat":36.5936,"lon":-87.2845,"city":"Clarksville","state":"TN","address":"3050 Clay Lewis Road","name":""},
  {"lat":33.45975,"lon":-94.0751,"city":"Texarkana","state":"TX","address":"2901 S. Cowhorn Creek Loop","name":""},
  {"lat":38.81477,"lon":-77.142739,"city":"Alexandria","state":"VA","address":"99 S. Bragg Street","name":""},
  {"lat":36.098025,"lon":-115.165215,"city":"Las Vegas","state":"NV","address":"185 East Tropicana","name":""},
  {"lat":34.964507,"lon":-89.853332,"city":"Olive Branch","state":"MS","address":"7448 Craft Goodman Frontage Road","name":""},
  {"lat":26.199244,"lon":-98.285276,"city":"Mission","state":"TX","address":"101 Grapefruit Blvd. Suite B","name":""},
  {"lat":39.847783,"lon":-75.358092,"city":"Chester","state":"PA","address":"351 Welsh St.","name":""},
  {"lat":40.126871,"lon":-74.967977,"city":"Bensalem","state":"PA","address":"3908 Old Street Road","name":""},
  {"lat":30.248294,"lon":-81.598916,"city":"Jacksonville","state":"FL","address":"4699 S Lenoir Avenue","name":""},
  {"lat":43.82362,"lon":-91.24924,"city":"La Crosse","state":"WI","address":"56 Copeland Avenue","name":""},
  {"lat":45.738919,"lon":-108.605724,"city":"Billings","state":"MT","address":"1732 Spring Creek Lane","name":""},
  {"lat":44.27746,"lon":-76.56117,"city":"Kingston","state":"ON","address":"205 Resource Road","name":""},
  {"lat":35.037127,"lon":-85.144958,"city":"Chattanooga","state":"TN","address":"7524 Shallowford Road, Building 2","name":""},
  {"lat":39.952486,"lon":-104.987251,"city":"Thornton","state":"CO","address":"14362 Lincoln Way","name":""},
  {"lat":64.859778,"lon":-147.688743,"city":"Fairbanks","state":"AK","address":"551 Harold Bentley Avenue","name":""},
  {"lat":40.526139,"lon":-105.073618,"city":"Fort Collins","state":"CO","address":"314 Pavilion Lane","name":""},
  {"lat":42.942068,"lon":-81.226498,"city":"London","state":"ON","address":"855 Wellington Road South Suite B","name":""},
  {"lat":33.167344,"lon":-87.526858,"city":"Tuscaloosa","state":"AL","address":"651 Skyland Blvd. East","name":""},
  {"lat":39.731724,"lon":-86.248627,"city":"Indianapolis","state":"IN","address":"5250 W. Bradbury Avenue","name":""},
  {"lat":27.896182,"lon":-97.310576,"city":"Portland","state":"TX","address":"2009 US Highway 181","name":""},
  {"lat":40.249502,"lon":-76.827096,"city":"Harrisburg","state":"PA","address":"413 Port View Drive","name":""},
  {"lat":39.097496,"lon":-108.606299,"city":"Grand Junction","state":"CO","address":"654 Market Street","name":""},
  {"lat":33.938746,"lon":-83.481503,"city":"Athens","state":"GA","address":"156 Classic Road","name":""},
  {"lat":41.693549,"lon":-86.304035,"city":"South Bend","state":"IN","address":"3916 Lincoln Way West","name":""},
  {"lat":44.157062,"lon":-93.946251,"city":"Mankato","state":"MN","address":"2040 Blazing Star Drive","name":""}
]}