{"key":"carrabbas","displayName":"Carrabba's Italian Grill","category":"restaurant","useLocationName":false,"locations":[
  {"lat":33.428498,"lon":-86.710943,"city":"Birmingham","state":"AL","address":"4503 Riverview Pkwy","name":""},
  {"lat":28.68102,"lon":-81.418218,"city":"Altamonte Springs","state":"FL","address":"931 N State Road 434","name":""},
  {"lat":39.864736,"lon":-105.081184,"city":"Westminster","state":"CO","address":"7401 West 92nd Ave","name":""},
  {"lat":40.523123,"lon":-105.0549,"city":"Fort Collins","state":"CO","address":"1212 Oakridge Drive","name":""},
  {"lat":39.73154,"lon":-105.16502,"city":"Denver","state":"CO","address":"14760 W Colfax Ave","name":""},
  {"lat":38.933422,"lon":-104.810993,"city":"Colorado Springs","state":"CO","address":"7120 Campus Drive","name":""},
  {"lat":38.791947,"lon":-104.796642,"city":"Colorado Springs","state":"CO","address":"2815 Geyser Drive","name":""},
  {"lat":39.678324,"lon":-104.827431,"city":"Aurora","state":"CO","address":"2088 S Abilene Street","name":""},
  {"lat":33.638174,"lon":-112.362566,"city":"Surprise","state":"AZ","address":"14043 W. Bell Road","name":""},
  {"lat":32.346566,"lon":-110.976649,"city":"Oro Valley","state":"AZ","address":"7635 N Oracle Road","name":""},
  {"lat":33.38473,"lon":-111.679561,"city":"Mesa","state":"AZ","address":"1740 S Clearview Ave","name":""},
  {"lat":33.63925,"lon":-112.180885,"city":"Glendale","state":"AZ","address":"5646 West Bell Road","name":""},
  {"lat":33.301131,"lon":-111.743254,"city":"Gilbert","state":"AZ","address":"2709 S Market Street","name":""},
  {"lat":33.321142,"lon":-111.96976,"city":"Chandler","state":"AZ","address":"1060 North 54th Street","name":""},
  {"lat":33.465175,"lon":-112.27397,"city":"Avondale","state":"AZ","address":"9920 W McDowell Road","name":""},
  {"lat":30.675426,"lon":-88.145341,"city":"Mobile","state":"AL","address":"3917 Airport Blvd","name":""},
  {"lat":42.957761,"lon":-88.008851,"city":"Greenfield","state":"WI","address":"4765 S 76th Street","name":""},
  {"lat":38.655267,"lon":-77.305832,"city":"Woodbridge","state":"VA","address":"13870 Foulger Square","name":""},
  {"lat":39.11896,"lon":-78.196773,"city":"Winchester","state":"VA","address":"231 Kernstown Commons Blvd","name":""},
  {"lat":37.301332,"lon":-76.729017,"city":"Williamsburg","state":"VA","address":"2500 Richmond Road","name":""},
  {"lat":36.817471,"lon":-76.067365,"city":"Virginia Beach","state":"VA","address":"739 Lynnhaven Pwky Suite 100","name":""},
  {"lat":37.304733,"lon":-79.961937,"city":"Roanoke","state":"VA","address":"4822-D Valley View Blvd NW","name":""},
  {"lat":37.506049,"lon":-77.608162,"city":"Richmond","state":"VA","address":"11450 Midlothian Turnpike","name":""},
  {"lat":37.114172,"lon":-76.503463,"city":"Newport News","state":"VA","address":"12363 Hornsby Lane","name":""},
  {"lat":38.309917,"lon":-77.511375,"city":"Fredericksburg","state":"VA","address":"1951 Carl D. Silver Pkwy","name":""},
  {"lat":36.76292,"lon":-76.250482,"city":"Chesapeake","state":"VA","address":"1217 N Battlefield Blvd","name":""},
  {"lat":40.273627,"lon":-111.679423,"city":"Orem","state":"UT","address":"683 University Pkwy University Mall","name":""},
  {"lat":30.134511,"lon":-95.445718,"city":"Woodlands","state":"TX","address":"25665 I-45 North Hwy","name":""},
  {"lat":29.546124,"lon":-95.133336,"city":"Webster","state":"TX","address":"502 West Bay Area Blvd","name":""},
  {"lat":29.597236,"lon":-95.617443,"city":"Sugar Land","state":"TX","address":"2335 Hwy 6","name":""},
  {"lat":29.558156,"lon":-98.588028,"city":"San Antonio","state":"TX","address":"12507 I-10 West","name":""},
  {"lat":33.041165,"lon":-96.701477,"city":"Plano","state":"TX","address":"3400 N Central Expressway","name":""},
  {"lat":29.712926,"lon":-95.770556,"city":"Katy","state":"TX","address":"6501 Fry Road","name":""},
  {"lat":32.830021,"lon":-97.20026,"city":"Hurst","state":"TX","address":"1101 Melbourne Rd Suite 6200","name":""},
  {"lat":29.887953,"lon":-95.64255,"city":"Houston","state":"TX","address":"7540 Hwy 6 N","name":""},
  {"lat":30.050446,"lon":-95.244518,"city":"Houston","state":"TX","address":"750 Kingwood Drive","name":""},
  {"lat":29.980908,"lon":-95.511646,"city":"Houston","state":"TX","address":"5440 FM 1960 West","name":""},
  {"lat":29.783688,"lon":-95.583527,"city":"Houston","state":"TX","address":"11339 Katy Freeway","name":""},
  {"lat":32.989878,"lon":-96.828024,"city":"Dallas","state":"TX","address":"17548 Dallas Pkwy","name":""},
  {"lat":30.063276,"lon":-94.135304,"city":"Beaumont","state":"TX","address":"1550 I-10 South","name":""},
  {"lat":30.414786,"lon":-97.747085,"city":"Austin","state":"TX","address":"11590 Research Blvd","name":""},
  {"lat":36.108552,"lon":-86.81296,"city":"Nashville","state":"TN","address":"2110 Greenhills Village Drive","name":""},
  {"lat":35.857182,"lon":-86.428964,"city":"Murfreesboro","state":"TN","address":"544 N. Thompson Lane Suite E","name":""},
  {"lat":35.91493,"lon":-84.093703,"city":"Knoxville","state":"TN","address":"324 North Peters Road","name":""},
  {"lat":36.343961,"lon":-82.404847,"city":"Johnson City","state":"TN","address":"175 Market Place Blvd","name":""},
  {"lat":36.320732,"lon":-86.597244,"city":"Hendersonville","state":"TN","address":"202 Anderson Lane N","name":""},
  {"lat":35.947906,"lon":-86.821196,"city":"Franklin","state":"TN","address":"533 Cool Springs Blvd","name":""},
  {"lat":35.023059,"lon":-89.720978,"city":"Collierville","state":"TN","address":"4600 Merchants Park Circle Ste 141","name":""},
  {"lat":35.031766,"lon":-85.160144,"city":"Chattanooga","state":"TN","address":"2040 Hamilton Place Blvd Suite 100","name":""},
  {"lat":32.944749,"lon":-80.044728,"city":"North Charleston","state":"SC","address":"2150 Northwoods Blvd Bldg 100","name":""},
  {"lat":33.838564,"lon":-78.668274,"city":"N. Myrtle Beach","state":"SC","address":"1015 US Hwy 17 N","name":""},
  {"lat":33.741071,"lon":-78.826717,"city":"Myrtle Beach","state":"SC","address":"6803 North Kings Hwy","name":""},
  {"lat":33.565177,"lon":-79.037357,"city":"Murrell's Inlet","state":"SC","address":"511 Courtfield Drive","name":""},
  {"lat":34.83491,"lon":-82.312076,"city":"Greenville","state":"SC","address":"1022A Woodruff Road","name":""},
  {"lat":34.085166,"lon":-81.161079,"city":"Columbia","state":"SC","address":"370 Columbiana Drive","name":""},
  {"lat":41.701207,"lon":-71.492031,"city":"Warwick","state":"RI","address":"1350 Bald Hill Road Bldg C","name":""},
  {"lat":40.161657,"lon":-75.125394,"city":"Willow Grove","state":"PA","address":"2575 Maryland Road","name":""},
  {"lat":40.238126,"lon":-76.979563,"city":"Mechanicsburg","state":"PA","address":"5250 Carlisle Pike","name":""},
  {"lat":40.069766,"lon":-76.302792,"city":"Lancaster","state":"PA","address":"100 North Pointe Blvd","name":""},
  {"lat":40.694827,"lon":-75.260842,"city":"Easton","state":"PA","address":"2471 Park Ave","name":""},
  {"lat":40.115342,"lon":-74.959005,"city":"Bensalem","state":"PA","address":"3210 Tillman Drive","name":""},
  {"lat":40.580714,"lon":-75.522954,"city":"Allentown","state":"PA","address":"510 S Cedar Crest Blvd","name":""},
  {"lat":36.061383,"lon":-95.853757,"city":"Tulsa","state":"OK","address":"11021 East 71st Street","name":""},
  {"lat":41.474539,"lon":-81.898325,"city":"Westlake","state":"OH","address":"25054 Sperry Drive","name":""},
  {"lat":39.62685,"lon":-84.184808,"city":"Washington Township","state":"OH","address":"900 Miamisburg Centerville Road","name":""},
  {"lat":41.579563,"lon":-83.692926,"city":"Maumee","state":"OH","address":"3405 Briarsfield Blvd","name":""},
  {"lat":39.299506,"lon":-84.315804,"city":"Mason","state":"OH","address":"5152 Merten Drive","name":""},
  {"lat":40.034371,"lon":-83.1186,"city":"Hilliard","state":"OH","address":"3949 Trueman Blvd","name":""},
  {"lat":40.141025,"lon":-82.973384,"city":"Columbus","state":"OH","address":"8460 Lyra Drive","name":""},
  {"lat":39.074216,"lon":-84.351185,"city":"Cincinnati","state":"OH","address":"7500 Beechmont Ave Suite 104","name":""},
  {"lat":40.876317,"lon":-81.432512,"city":"Canton","state":"OH","address":"6560 Strip Avenue","name":""},
  {"lat":41.424178,"lon":-81.761118,"city":"Brooklyn","state":"OH","address":"5030 Tiedeman Road","name":""},
  {"lat":36.086441,"lon":-80.288884,"city":"Winston Salem","state":"NC","address":"587 South Stratford Road","name":""},
  {"lat":34.245091,"lon":-77.873072,"city":"Wilmington","state":"NC","address":"15 Van Campen Blvd","name":""},
  {"lat":35.852563,"lon":-78.581477,"city":"Raleigh","state":"NC","address":"4821 Capital Blvd","name":""},
  {"lat":35.127594,"lon":-80.707945,"city":"Matthews","state":"NC","address":"10408 E. Independence Blvd.","name":""},
  {"lat":35.440371,"lon":-80.870745,"city":"Huntersville","state":"NC","address":"16408 North Cross Drive","name":""},
  {"lat":35.71076,"lon":-81.306115,"city":"Hickory","state":"NC","address":"1954 13th Avenue Drive SE","name":""},
  {"lat":36.04273,"lon":-79.843441,"city":"Greensboro","state":"NC","address":"3200 West Gate City Blvd","name":""},
  {"lat":35.068066,"lon":-78.952078,"city":"Fayetteville","state":"NC","address":"4209 Sycamore Dairy Road","name":""},
  {"lat":35.955813,"lon":-78.99281,"city":"Durham","state":"NC","address":"5312 New Hope Commons Drive","name":""},
  {"lat":35.365759,"lon":-80.715421,"city":"Concord","state":"NC","address":"7900 Lyles Lane","name":""},
  {"lat":35.58634,"lon":-82.525581,"city":"Asheville","state":"NC","address":"10 Buckstone Place","name":""},
  {"lat":35.444549,"lon":-82.537734,"city":"Arden","state":"NC","address":"332 Rockwood Road","name":""},
  {"lat":35.742689,"lon":-78.870259,"city":"Apex","state":"NC","address":"1201 Haddon Hall Drive","name":""},
  {"lat":43.034189,"lon":-76.017761,"city":"Fayetteville","state":"NY","address":"550 Towne Drive","name":""},
  {"lat":42.999754,"lon":-78.815296,"city":"Amherst","state":"NY","address":"1645 Niagara Falls Blvd","name":""},
  {"lat":39.744824,"lon":-75.044081,"city":"Turnersville","state":"NJ","address":"4650 Route 42","name":""},
  {"lat":39.941733,"lon":-74.98783,"city":"Maple Shade","state":"NJ","address":"500 Route Nj-38 E","name":""},
  {"lat":40.601483,"lon":-74.481751,"city":"Greenbrook","state":"NJ","address":"200 US Hwy Route 22 West","name":""},
  {"lat":40.45361,"lon":-74.400488,"city":"E. Brunswick","state":"NJ","address":"335 Hwy Nj-18","name":""},
  {"lat":40.054265,"lon":-74.137748,"city":"Brick","state":"NJ","address":"990 Cedar Bridge Ave Bldg B","name":""},
  {"lat":42.952576,"lon":-71.476919,"city":"Bedford","state":"NH","address":"2 Upjohn Street","name":""},
  {"lat":36.158467,"lon":-115.286398,"city":"Las Vegas","state":"NV","address":"8771 West Charleston Blvd","name":""},
  {"lat":36.005179,"lon":-115.111104,"city":"Henderson","state":"NV","address":"10160 South Eastern Ave","name":""},
  {"lat":41.292908,"lon":-96.140773,"city":"Omaha","state":"NE","address":"14520 West Maple Road","name":""},
  {"lat":42.56248,"lon":-83.161499,"city":"Troy","state":"MI","address":"600 West Big Beaver Road","name":""},
  {"lat":42.624495,"lon":-82.99379,"city":"Sterling Heights","state":"MI","address":"44695 Schoenherr Road","name":""},
  {"lat":42.200591,"lon":-83.208487,"city":"Southgate","state":"MI","address":"14805 Dix Toledo Road","name":""},
  {"lat":42.23439,"lon":-85.590222,"city":"Portage","state":"MI","address":"5690 S Westnedge Ave","name":""},
  {"lat":42.490088,"lon":-83.477104,"city":"Novi","state":"MI","address":"43455 West Oaks Drive","name":""},
  {"lat":42.741652,"lon":-84.64662,"city":"Lansing","state":"MI","address":"6540 West Saginaw Hwy","name":""},
  {"lat":42.881933,"lon":-85.749375,"city":"Grandville","state":"MI","address":"3441 Century Center Street SW","name":""},
  {"lat":42.319966,"lon":-83.446274,"city":"Canton","state":"MI","address":"1900 North Haggerty Road","name":""},
  {"lat":38.608168,"lon":-76.927891,"city":"Waldorf","state":"MD","address":"3754 Crain Hwy","name":""},
  {"lat":39.128211,"lon":-76.592482,"city":"Pasadena","state":"MD","address":"8030 Ritchie Hwy","name":""},
  {"lat":38.336383,"lon":-75.108804,"city":"Ocean City","state":"MD","address":"12728 Ocean Gateway","name":""},
  {"lat":39.495961,"lon":-76.658372,"city":"Hunt Valley","state":"MD","address":"130 Shawan Road","name":""},
  {"lat":39.181848,"lon":-77.26167,"city":"Germantown","state":"MD","address":"19935 Century Blvd","name":""},
  {"lat":39.250416,"lon":-76.815106,"city":"Ellicott City","state":"MD","address":"4430 Long Gate Pkwy","name":""},
  {"lat":38.949629,"lon":-76.716725,"city":"Bowie","state":"MD","address":"16431 Governor Bridge Road","name":""},
  {"lat":39.366003,"lon":-76.518604,"city":"Baltimore","state":"MD","address":"7600 Belair Road","name":""},
  {"lat":32.443953,"lon":-93.717573,"city":"Shreveport","state":"LA","address":"1706 E 70th Street","name":""},
  {"lat":30.006046,"lon":-90.187655,"city":"Metairie","state":"LA","address":"4641 Veterans Blvd","name":""},
  {"lat":30.166769,"lon":-92.037767,"city":"Lafayette","state":"LA","address":"2010 Kaliste Saloom Road","name":""},
  {"lat":30.430433,"lon":-91.115779,"city":"Baton Rouge","state":"LA","address":"7275 Corporate Blvd","name":""},
  {"lat":38.237871,"lon":-85.576348,"city":"Louisville","state":"KY","address":"617 South Hurstbourn Pkwy","name":""},
  {"lat":38.018009,"lon":-84.417525,"city":"Lexington","state":"KY","address":"1881 Plaudit Place","name":""},
  {"lat":39.02687,"lon":-84.579164,"city":"Crestview Hills","state":"KY","address":"2899 Dixie Hwy","name":""},
  {"lat":37.745391,"lon":-97.247273,"city":"Wichita","state":"KS","address":"3409 North Rock Road","name":""},
  {"lat":38.936496,"lon":-94.668553,"city":"Overland","state":"KS","address":"10586 Metcalf Lane","name":""},
  {"lat":39.663655,"lon":-86.088087,"city":"Southport","state":"IN","address":"4690 Southport Crossing Drive","name":""},
  {"lat":41.521895,"lon":-87.47069,"city":"Schererville","state":"IN","address":"49 Us-41","name":""},
  {"lat":41.698963,"lon":-86.184314,"city":"Mishawaka","state":"IN","address":"210 West Day Road","name":""},
  {"lat":41.75045,"lon":-88.015151,"city":"Woodridge","state":"IL","address":"1001 75th St.","name":""},
  {"lat":31.987474,"lon":-81.1308,"city":"Savannah","state":"GA","address":"10408 Abercorn Street","name":""},
  {"lat":33.398669,"lon":-84.592014,"city":"Peachtree City","state":"GA","address":"500 Commerce Drive","name":""},
  {"lat":33.56745,"lon":-84.329512,"city":"Morrow","state":"GA","address":"1887 Mt Zion Road","name":""},
  {"lat":32.905675,"lon":-83.685907,"city":"Macon","state":"GA","address":"3913 River Place Drive","name":""},
  {"lat":34.001384,"lon":-84.583445,"city":"Kennesaw","state":"GA","address":"1160 Ernest Barrett Pkwy","name":""},
  {"lat":33.987883,"lon":-84.087067,"city":"Duluth","state":"GA","address":"2030 Sugarloaf Circle","name":""},
  {"lat":33.731906,"lon":-84.736462,"city":"Douglasville","state":"GA","address":"2700 Chapel Hill Road","name":""},
  {"lat":34.153309,"lon":-84.174794,"city":"Cumming","state":"GA","address":"420 Peachtree Pkwy","name":""},
  {"lat":32.546368,"lon":-84.944784,"city":"Columbus","state":"GA","address":"5555 Whittlesey Blvd Ste H","name":""},
  {"lat":33.510489,"lon":-82.034877,"city":"Augusta","state":"GA","address":"2832 Washington Road","name":""},
  {"lat":33.640863,"lon":-84.433146,"city":"Atlanta","state":"GA","address":"6000 N Terminal Pkwy Suite TS3-3","name":""},
  {"lat":33.881125,"lon":-84.473819,"city":"Atlanta","state":"GA","address":"2999 Cumberland Blvd","name":""},
  {"lat":33.941111,"lon":-83.44939,"city":"Athens","state":"GA","address":"3194 Atlanta Hwy","name":""},
  {"lat":28.648781,"lon":-81.268015,"city":"Winter Springs","state":"FL","address":"5820 Red Bug Lake Road","name":""},
  {"lat":28.013923,"lon":-81.7304,"city":"Winter Haven","state":"FL","address":"910 3rd Street SW","name":""},
  {"lat":27.625339,"lon":-80.389662,"city":"Vero Beach","state":"FL","address":"1285 US Hwy 1","name":""},
  {"lat":27.069483,"lon":-82.421016,"city":"Venice","state":"FL","address":"1751 S Tamiami Trail","name":""},
  {"lat":27.388978,"lon":-82.46144,"city":"University Park","state":"FL","address":"5425 University Pkwy","name":""},
  {"lat":28.935013,"lon":-81.939161,"city":"The Villages","state":"FL","address":"650 US Hwy 441 N.","name":""},
  {"lat":28.053328,"lon":-82.394245,"city":"Temple Terrace","state":"FL","address":"5515 E Fowler Ave","name":""},
  {"lat":27.950268,"lon":-82.505998,"city":"Tampa","state":"FL","address":"700 N Dale Mabry Hwy","name":""},
  {"lat":28.052575,"lon":-82.503488,"city":"Tampa","state":"FL","address":"11435 N Dale Mabry Hwy","name":""},
  {"lat":30.490173,"lon":-84.240336,"city":"Tallahassee","state":"FL","address":"2779 Capital Circle NE","name":""},
  {"lat":27.171252,"lon":-80.231304,"city":"Stuart","state":"FL","address":"2700 SE Federal Hwy","name":""},
  {"lat":27.803963,"lon":-82.746268,"city":"St. Petersburg","state":"FL","address":"3530 Tyrone Blvd","name":""},
  {"lat":27.79021,"lon":-82.638263,"city":"St. Petersburg","state":"FL","address":"1951 4th Street North","name":""},
  {"lat":29.866159,"lon":-81.324833,"city":"St. Augustine","state":"FL","address":"155 Sr 312 West","name":""},
  {"lat":27.259048,"lon":-82.522951,"city":"Sarasota","state":"FL","address":"1940 Stickney Point Road","name":""},
  {"lat":28.805252,"lon":-81.333597,"city":"Sanford","state":"FL","address":"4675 St. John's Pkwy","name":""},
  {"lat":30.378811,"lon":-86.351409,"city":"Sandestin","state":"FL","address":"10562 US Hwy 98 W Ste 168","name":""},
  {"lat":26.682249,"lon":-80.224158,"city":"Royal Palm Beach","state":"FL","address":"11141 Southern Boulevard","name":""},
  {"lat":27.00555,"lon":-82.132423,"city":"Pt. Charlotte","state":"FL","address":"1811 North Tamiami Trail","name":""},
  {"lat":27.307861,"lon":-80.412272,"city":"Port St. Lucie","state":"FL","address":"1900 SW Fountainview Blvd","name":""},
  {"lat":28.304405,"lon":-82.702043,"city":"Port Richey","state":"FL","address":"10110 US Hwy 19 N","name":""},
  {"lat":26.214641,"lon":-80.106573,"city":"Pompano Beach","state":"FL","address":"1299 South Federal Hwy","name":""},
  {"lat":28.026846,"lon":-82.148037,"city":"Plant City","state":"FL","address":"1205 Townsgate Court","name":""},
  {"lat":30.417488,"lon":-87.206574,"city":"Pensacola","state":"FL","address":"311 North 9th Ave","name":""},
  {"lat":30.210478,"lon":-85.847219,"city":"Panama City","state":"FL","address":"13820 Panama City Beach Pkwy","name":""},
  {"lat":28.080584,"lon":-82.738388,"city":"Palm Harbor","state":"FL","address":"33983 US Hwy 19 N","name":""},
  {"lat":29.552442,"lon":-81.223346,"city":"Palm Coast","state":"FL","address":"160 Cypress Edge Drive","name":""},
  {"lat":28.035748,"lon":-80.624021,"city":"Palm Bay","state":"FL","address":"1575 Palm Bay Road","name":""},
  {"lat":28.380037,"lon":-81.500616,"city":"Orlando","state":"FL","address":"8702 Vineland Ave","name":""},
  {"lat":28.444284,"lon":-81.469986,"city":"Orlando","state":"FL","address":"8355 International Drive","name":""},
  {"lat":28.483346,"lon":-81.457271,"city":"Orlando","state":"FL","address":"5701 Vineland Road","name":""},
  {"lat":28.456471,"lon":-81.310946,"city":"Orlando","state":"FL","address":"5475 Gateway Village Circle Suite 103","name":""},
  {"lat":29.170163,"lon":-82.163054,"city":"Ocala","state":"FL","address":"2370 SW College Rd","name":""},
  {"lat":26.199881,"lon":-81.799629,"city":"Naples","state":"FL","address":"4320 N Tamiami Trail","name":""},
  {"lat":26.065502,"lon":-81.701474,"city":"Naples","state":"FL","address":"12631 Tamiami Trail E","name":""},
  {"lat":25.769591,"lon":-80.346332,"city":"Miami","state":"FL","address":"9231 W Flagler Street","name":""},
  {"lat":25.944429,"lon":-80.344081,"city":"Miami Lakes","state":"FL","address":"18600 NW 87th Ave","name":""},
  {"lat":28.358077,"lon":-80.699588,"city":"Merritt Island","state":"FL","address":"60 Palmetto Avenue","name":""},
  {"lat":28.230848,"lon":-80.693674,"city":"Melbourne","state":"FL","address":"7620 North Wickham Road","name":""},
  {"lat":28.192158,"lon":-82.39594,"city":"Lutz","state":"FL","address":"25298 Sierra Center Blvd.","name":""},
  {"lat":28.189648,"lon":-82.541556,"city":"Lutz","state":"FL","address":"16525 Pointe Village Drive","name":""},
  {"lat":27.977181,"lon":-81.959746,"city":"Lakeland","state":"FL","address":"4829 South Florida Avenue","name":""},
  {"lat":28.3431,"lon":-81.60171,"city":"Kissimmee","state":"FL","address":"7890 West Irlo Bronson Hwy","name":""},
  {"lat":30.196645,"lon":-81.620361,"city":"Jacksonville","state":"FL","address":"9965 San Jose Blvd Mandarin","name":""},
  {"lat":30.195159,"lon":-81.740255,"city":"Jacksonville","state":"FL","address":"8406 Blanding Blvd","name":""},
  {"lat":30.21766,"lon":-81.515711,"city":"Jacksonville","state":"FL","address":"8137 Point Meadows Way","name":""},
  {"lat":30.482157,"lon":-81.636326,"city":"Jacksonville","state":"FL","address":"791 Skymarks Drive","name":""},
  {"lat":30.289177,"lon":-81.391369,"city":"Jacksonville Beach","state":"FL","address":"9 North 3rd Street","name":""},
  {"lat":29.626119,"lon":-82.371594,"city":"Gainesville","state":"FL","address":"3021 SW 34th Street","name":""},
  {"lat":26.552597,"lon":-81.872686,"city":"Ft. Myers","state":"FL","address":"12990 Cleveland Ave","name":""},
  {"lat":26.487936,"lon":-81.787934,"city":"Ft. Myers","state":"FL","address":"10075 Gulf Center Drive","name":""},
  {"lat":26.1002,"lon":-80.128499,"city":"Fort Lauderdale","state":"FL","address":"1430 SE 17th Street","name":""},
  {"lat":26.440206,"lon":-80.069679,"city":"Delray Beach","state":"FL","address":"335 East Linton Blvd","name":""},
  {"lat":29.187366,"lon":-81.077449,"city":"Daytona Beach","state":"FL","address":"2200 W Int'L Speedway Blvd","name":""},
  {"lat":28.258896,"lon":-81.60555,"city":"Davenport","state":"FL","address":"1005 Heritage Pass","name":""},
  {"lat":26.26164,"lon":-80.249252,"city":"Coral Springs","state":"FL","address":"2501 University Drive","name":""},
  {"lat":28.547497,"lon":-81.713936,"city":"Clermont","state":"FL","address":"2240 E Hwy 50","name":""},
  {"lat":27.961119,"lon":-82.726557,"city":"Clearwater","state":"FL","address":"2680 Gulf To Bay Blvd","name":""},
  {"lat":28.057283,"lon":-82.583204,"city":"Citrus Park","state":"FL","address":"11902 Sheldon Road","name":""},
  {"lat":26.643027,"lon":-81.993905,"city":"Cape Coral","state":"FL","address":"762 SW Pine Island Road","name":""},
  {"lat":28.53421,"lon":-82.513637,"city":"Brooksville","state":"FL","address":"12957 Cortez Blvd","name":""},
  {"lat":27.925311,"lon":-82.314963,"city":"Brandon","state":"FL","address":"801 Providence Road","name":""},
  {"lat":27.462941,"lon":-82.583283,"city":"Bradenton","state":"FL","address":"2106 Cortez West","name":""},
  {"lat":26.546062,"lon":-80.093469,"city":"Boynton Beach","state":"FL","address":"1999 N Congress Ave","name":""},
  {"lat":26.345531,"lon":-81.806631,"city":"Bonita Springs","state":"FL","address":"27220 Bay Landing Drive","name":""},
  {"lat":34.707142,"lon":-86.587473,"city":"Huntsville","state":"AL","address":"2801 S Memorial Pkwy","name":""}]}