{"key":"chuck_e_cheese","displayName":"Chuck E. Cheese","category":"entertainment","useLocationName":false,"locations":[
  {"lat":32.400619,"lon":-99.76214,"city":"Abilene","state":"TX","address":"4310 Buffalo Gap Rd.","name":""},
  {"lat":33.857018,"lon":-98.541356,"city":"Wichita Falls","state":"TX","address":"2935 SW Pkwy.","name":""},
  {"lat":32.685338,"lon":-97.400279,"city":"Fort Worth","state":"TX","address":"4860 SW Loop 820","name":""},
  {"lat":32.684959,"lon":-97.32208,"city":"Fort Worth","state":"TX","address":"4200 South Freeway, #50","name":""},
  {"lat":32.902636,"lon":-97.318108,"city":"Fort Worth","state":"TX","address":"9121 North Freeway","name":""},
  {"lat":32.024383,"lon":-102.148295,"city":"Midland","state":"TX","address":"4703 W. Loop 250 N.","name":""},
  {"lat":33.543336,"lon":-101.936902,"city":"Lubbock","state":"TX","address":"5612 West Loop 289","name":""},
  {"lat":32.83711,"lon":-97.21101,"city":"North Richland Hills","state":"TX","address":"7935 Grapevine Hwy","name":""},
  {"lat":31.089749,"lon":-97.714727,"city":"Killeen","state":"TX","address":"2303 E. Central Texas Expressway","name":""},
  {"lat":32.673704,"lon":-97.131338,"city":"Arlington","state":"TX","address":"1536 West Interstate 20","name":""},
  {"lat":32.677823,"lon":-97.050877,"city":"Grand Prairie","state":"TX","address":"2760 W. I-20","name":""},
  {"lat":33.195899,"lon":-97.130241,"city":"Denton","state":"TX","address":"341 South I-35E","name":""},
  {"lat":32.967398,"lon":-97.03797,"city":"Grapevine","state":"TX","address":"2755 E. Grapevine Mills Circle","name":""},
  {"lat":32.838305,"lon":-97.003408,"city":"Irving","state":"TX","address":"3903 W. Airport Fwy.","name":""},
  {"lat":31.518163,"lon":-97.179405,"city":"Waco","state":"TX","address":"5106 West Waco Dr.","name":""},
  {"lat":33.007008,"lon":-96.970797,"city":"Lewisville","state":"TX","address":"2402 S. Stemmons","name":""},
  {"lat":34.62725,"lon":-98.492378,"city":"Lawton","state":"OK","address":"1726 NW 82nd St, Bldg A","name":""},
  {"lat":32.660744,"lon":-96.881469,"city":"Dallas","state":"TX","address":"7110 S. Westmoreland","name":""},
  {"lat":32.931048,"lon":-96.810694,"city":"Dallas","state":"TX","address":"13364 Montfort Dr","name":""},
  {"lat":33.022391,"lon":-96.794417,"city":"Plano","state":"TX","address":"1604 Preston Rd.","name":""},
  {"lat":32.855088,"lon":-96.645721,"city":"Garland","state":"TX","address":"1340 W. Centerville","name":""},
  {"lat":30.479044,"lon":-97.67846,"city":"Austin","state":"TX","address":"401 W Louis Henna Blvd","name":""},
  {"lat":32.962754,"lon":-96.635771,"city":"Garland","state":"TX","address":"4992 State Hwy 190","name":""},
  {"lat":30.390073,"lon":-97.73263,"city":"Austin","state":"TX","address":"10515 North Mopac Expressway","name":""},
  {"lat":33.134377,"lon":-96.65702,"city":"Allen","state":"TX","address":"2265 N Central Expy","name":""},
  {"lat":32.900218,"lon":-96.457599,"city":"Rockwall","state":"TX","address":"855 East Interstate 30","name":""},
  {"lat":30.157595,"lon":-97.788659,"city":"Austin","state":"TX","address":"9811 S. I-35","name":""},
  {"lat":33.678639,"lon":-96.610169,"city":"Sherman","state":"TX","address":"3808 US 75 North","name":""},
  {"lat":29.61089,"lon":-98.47299,"city":"San Antonio","state":"TX","address":"1403 N. Loop 1604 E.","name":""},
  {"lat":29.551127,"lon":-98.667947,"city":"San Antonio","state":"TX","address":"11735 Bandera Rd.","name":""},
  {"lat":29.571997,"lon":-98.330188,"city":"Selma","state":"TX","address":"14564 IH 35 North","name":""},
  {"lat":29.463366,"lon":-98.623493,"city":"San Antonio","state":"TX","address":"6874 Ingram Road","name":""},
  {"lat":29.355724,"lon":-98.494844,"city":"San Antonio","state":"TX","address":"238 SW Military Dr.","name":""},
  {"lat":35.185546,"lon":-101.922021,"city":"Amarillo","state":"TX","address":"2500 S. Coulter St., Ste. 124","name":""},
  {"lat":35.24558,"lon":-97.484502,"city":"Norman","state":"OK","address":"2201 Interstate Dr.","name":""},
  {"lat":30.624394,"lon":-96.303457,"city":"College Station","state":"TX","address":"1500 Harvey Rd.","name":""},
  {"lat":35.389994,"lon":-97.523067,"city":"Oklahoma City","state":"OK","address":"7601 S. Walker Ave","name":""},
  {"lat":35.557263,"lon":-97.634779,"city":"Oklahoma City","state":"OK","address":"6817 NW Expressway","name":""},
  {"lat":35.525055,"lon":-97.54387,"city":"Oklahoma City","state":"OK","address":"1901 Northwest Expy, Suite 2106A","name":""},
  {"lat":35.611038,"lon":-97.553413,"city":"Oklahoma City","state":"OK","address":"2241 West Memorial Rd.","name":""},
  {"lat":32.302881,"lon":-95.310823,"city":"Tyler","state":"TX","address":"736 West SW Loop 323","name":""},
  {"lat":32.541047,"lon":-94.752301,"city":"Longview","state":"TX","address":"312 Northwest Loop 281","name":""},
  {"lat":30.212392,"lon":-95.457901,"city":"Conroe","state":"TX","address":"16790 Interstate 45 South","name":""},
  {"lat":28.867812,"lon":-96.994524,"city":"Victoria","state":"TX","address":"7800 Navarro Street","name":""},
  {"lat":29.783457,"lon":-95.808259,"city":"Katy","state":"TX","address":"2002 Gulfmont Dr","name":""},
  {"lat":29.874866,"lon":-95.645944,"city":"Houston","state":"TX","address":"6787 Hwy 6 North","name":""},
  {"lat":29.960456,"lon":-95.54529,"city":"Houston","state":"TX","address":"17780 Tomball Pkwy.","name":""},
  {"lat":30.023151,"lon":-95.423036,"city":"Houston","state":"TX","address":"146 FM 1960","name":""},
  {"lat":29.734472,"lon":-95.604119,"city":"Houston","state":"TX","address":"12523 Westheimer Rd.","name":""},
  {"lat":29.600584,"lon":-95.618685,"city":"Sugar Land","state":"TX","address":"2303 Town Center Dr.","name":""},
  {"lat":29.649356,"lon":-95.571556,"city":"Stafford","state":"TX","address":"11920 Southwest Freeway","name":""},
  {"lat":30.002871,"lon":-95.26673,"city":"Humble","state":"TX","address":"124 E. FM1960 Bypass","name":""},
  {"lat":29.832964,"lon":-95.379677,"city":"Houston","state":"TX","address":"4432 North Freeway","name":""},
  {"lat":29.696037,"lon":-95.296042,"city":"Houston","state":"TX","address":"600 Gulfgate Center Mall","name":""},
  {"lat":29.551794,"lon":-95.385567,"city":"Pearland","state":"TX","address":"3141 Silverlake Village Dr.","name":""},
  {"lat":29.650167,"lon":-95.166308,"city":"Pasadena","state":"TX","address":"5075 Fairmont Pkwy.","name":""},
  {"lat":36.060081,"lon":-95.887134,"city":"Tulsa","state":"OK","address":"7108 S. Memorial Dr.","name":""},
  {"lat":36.06321,"lon":-95.88158,"city":"Tulsa","state":"OK","address":"7021 S Memorial Dr, Suite 0269B","name":""},
  {"lat":33.455064,"lon":-94.08086,"city":"Texarkana","state":"TX","address":"2400 Richmond Rd., Ste. 99","name":""},
  {"lat":29.536597,"lon":-95.149229,"city":"Webster","state":"TX","address":"1541 West Bay Area Blvd.","name":""},
  {"lat":27.553305,"lon":-99.500409,"city":"Laredo","state":"TX","address":"5300 San Dario Ave., Ste. 2205","name":""},
  {"lat":29.050536,"lon":-95.459106,"city":"Lake Jackson","state":"TX","address":"100 West Hwy 332, Ste. 1098","name":""},
  {"lat":32.556067,"lon":-93.717874,"city":"Bossier City","state":"LA","address":"2515 Viking Dr.","name":""},
  {"lat":27.70616,"lon":-97.37041,"city":"Corpus Christi","state":"TX","address":"5118 S. Staples St","name":""},
  {"lat":30.121356,"lon":-94.164216,"city":"Beaumont","state":"TX","address":"4180 N. Dowlen Rd.","name":""},
  {"lat":35.370271,"lon":-94.376273,"city":"Fort Smith","state":"AR","address":"1200 Waldron Rd, #148","name":""},
  {"lat":31.76211,"lon":-106.2661,"city":"El Paso","state":"TX","address":"1910 N. Zaragoza Road","name":""},
  {"lat":31.761207,"lon":-106.356472,"city":"El Paso","state":"TX","address":"9801 Gateway Blvd West","name":""},
  {"lat":31.774844,"lon":-106.379305,"city":"El Paso","state":"TX","address":"8401 Gateway Blvd W, Suites N01E","name":""},
  {"lat":37.74198,"lon":-97.24526,"city":"Wichita","state":"KS","address":"3223 N. Rock Rd.","name":""},
  {"lat":31.818076,"lon":-106.543427,"city":"El Paso","state":"TX","address":"710 Sunland Park Drive","name":""},
  {"lat":36.106447,"lon":-94.14906,"city":"Fayetteville","state":"AR","address":"2999 N. College Ave., Ste. 12","name":""},
  {"lat":32.310524,"lon":-106.743487,"city":"Las Cruces","state":"NM","address":"700 S. Telshor Blvd","name":""},
  {"lat":36.31101,"lon":-94.18003,"city":"Rogers","state":"AR","address":"2006 Promenade Blvd.","name":""},
  {"lat":30.1986,"lon":-93.171135,"city":"Lake Charles","state":"LA","address":"3221 E Prien Lake Rd.","name":""},
  {"lat":35.129892,"lon":-106.549154,"city":"Albuquerque","state":"NM","address":"4418 Wyoming Blvd. NE","name":""},
  {"lat":31.276446,"lon":-92.47152,"city":"Alexandria","state":"LA","address":"1725 Metro Dr.","name":""},
  {"lat":26.269567,"lon":-98.220124,"city":"McAllen","state":"TX","address":"1200 Trenton Road, Building 100","name":""},
  {"lat":35.208393,"lon":-106.656883,"city":"Albuquerque","state":"NM","address":"10510 Coors Boulevard","name":""},
  {"lat":26.196318,"lon":-98.258653,"city":"McAllen","state":"TX","address":"3300 Expressway 83, Bldg. 1000","name":""},
  {"lat":26.173609,"lon":-97.984615,"city":"Weslaco","state":"TX","address":"725 E. Expressway 83","name":""},
  {"lat":26.185886,"lon":-97.726058,"city":"Harlingen","state":"TX","address":"2815 W. Expressway 83","name":""},
  {"lat":34.728233,"lon":-92.395671,"city":"Little Rock","state":"AR","address":"2706 S. Shackleford Rd.","name":""},
  {"lat":34.792481,"lon":-92.221496,"city":"North Little Rock","state":"AR","address":"4120 Landers Rd.","name":""},
  {"lat":25.959256,"lon":-97.507421,"city":"Brownsville","state":"TX","address":"2800 N. Expressway","name":""},
  {"lat":30.177757,"lon":-92.07207,"city":"Lafayette","state":"LA","address":"3555 Ambassador Caffery Pkwy.","name":""},
  {"lat":37.150175,"lon":-93.25687,"city":"Springfield","state":"MO","address":"3500A S. Glenstone Ave.","name":""},
  {"lat":39.026784,"lon":-95.76288,"city":"Topeka","state":"KS","address":"2215 SW Wanamaker Rd.","name":""},
  {"lat":38.790519,"lon":-104.795485,"city":"Colorado Springs","state":"CO","address":"2925 Geyser Dr.","name":""},
  {"lat":38.884328,"lon":-94.76235,"city":"Olathe","state":"KS","address":"15225 W. 134th St.","name":""},
  {"lat":38.904411,"lon":-104.779169,"city":"Colorado Springs","state":"CO","address":"5156 N. Academy Blvd.","name":""},
  {"lat":30.377343,"lon":-91.067535,"city":"Baton Rouge","state":"LA","address":"7680 Andrea Dr.","name":""},
  {"lat":39.016728,"lon":-94.668375,"city":"Overland Park","state":"KS","address":"10510 Metcalf Lane","name":""},
  {"lat":39.04767,"lon":-94.360866,"city":"Independence","state":"MO","address":"18701 E. 39th St.","name":""},
  {"lat":39.260508,"lon":-94.657802,"city":"Kansas City","state":"MO","address":"9196 N. Skyview Ave.","name":""},
  {"lat":32.396722,"lon":-90.137714,"city":"Jackson","state":"MS","address":"6352 Ridgewood Court Rd.","name":""},
  {"lat":29.613576,"lon":-90.75822,"city":"Houma","state":"LA","address":"1755 Martin Luther King Blvd.","name":""},
  {"lat":35.821537,"lon":-90.660749,"city":"Jonesboro","state":"AR","address":"3400 E. Highland Dr.","name":""},
  {"lat":39.565346,"lon":-104.903708,"city":"Lone Tree","state":"CO","address":"7510 Pkwy. Dr.","name":""},
  {"lat":39.704814,"lon":-104.825411,"city":"Aurora","state":"CO","address":"14005 E. Exposition Ave.","name":""},
  {"lat":39.653337,"lon":-104.975571,"city":"Englewood","state":"CO","address":"1001 W. Hampden Ave.","name":""},
  {"lat":30.440095,"lon":-90.14416,"city":"Covington","state":"LA","address":"69252 Hwy. 21","name":""},
  {"lat":34.965777,"lon":-90.000834,"city":"Horn Lake","state":"MS","address":"7178 DeSoto Cove","name":""},
  {"lat":30.002457,"lon":-90.218057,"city":"Metairie","state":"LA","address":"7008 Veterans Blvd.","name":""},
  {"lat":29.923128,"lon":-90.019256,"city":"New Orleans","state":"LA","address":"3701 General DeGaulle Drive","name":""},
  {"lat":39.956982,"lon":-105.168134,"city":"Superior","state":"CO","address":"305 Marshall Rd.","name":""},
  {"lat":35.169927,"lon":-89.792329,"city":"Cordova","state":"TN","address":"1636 N. Germantown Pkwy","name":""},
  {"lat":31.325192,"lon":-89.375669,"city":"Hattiesburg","state":"MS","address":"1000 Turtlecreek Dr.","name":""},
  {"lat":40.391179,"lon":-104.714259,"city":"Greeley","state":"CO","address":"2309 Greeley Mall","name":""},
  {"lat":41.261613,"lon":-96.030473,"city":"Omaha","state":"NE","address":"225 N. 76th Street","name":""},
  {"lat":30.435688,"lon":-89.089721,"city":"Gulfport","state":"MS","address":"15082 Crossroads Pkwy.","name":""},
  {"lat":34.31434,"lon":-88.70366,"city":"Tupelo","state":"MS","address":"4383 Mall Dr.","name":""},
  {"lat":32.23651,"lon":-110.861422,"city":"Tucson","state":"AZ","address":"6125 East Speedway Blvd","name":""},
  {"lat":38.594105,"lon":-90.588498,"city":"Ellisville","state":"MO","address":"15913 Manchester Rd.","name":""},
  {"lat":38.503798,"lon":-90.329733,"city":"St. Louis","state":"MO","address":"720 South County Centerway","name":""},
  {"lat":38.778141,"lon":-90.518203,"city":"St. Charles","state":"MO","address":"2669 Veterans Memorial Pkwy.","name":""},
  {"lat":38.591115,"lon":-89.988331,"city":"Fairview Heights","state":"IL","address":"10850 Lincoln Trail","name":""},
  {"lat":30.67483,"lon":-88.144946,"city":"Mobile","state":"AL","address":"710 Downtowner Loop W","name":""},
  {"lat":37.076328,"lon":-88.690097,"city":"Paducah","state":"KY","address":"5141 Hinkleville Rd.","name":""},
  {"lat":33.297894,"lon":-111.89291,"city":"Chandler","state":"AZ","address":"2977 West Frye Rd.","name":""},
  {"lat":33.194531,"lon":-87.527423,"city":"Tuscaloosa","state":"AL","address":"1800 McFarland Blvd. E., Suite 508","name":""},
  {"lat":34.766289,"lon":-87.668249,"city":"Sheffield","state":"AL","address":"4700 Hatch Blvd","name":""},
  {"lat":41.594481,"lon":-93.734636,"city":"West Des Moines","state":"IA","address":"1431 22nd St.","name":""},
  {"lat":33.554583,"lon":-112.133543,"city":"Phoenix","state":"AZ","address":"8039 North 35th Ave.","name":""},
  {"lat":33.46173,"lon":-112.346718,"city":"Goodyear","state":"AZ","address":"13371 West McDowell Rd.","name":""},
  {"lat":34.572965,"lon":-87.018382,"city":"Decatur","state":"AL","address":"1801 Beltline Rd., Suite G","name":""},
  {"lat":30.501728,"lon":-87.222921,"city":"Pensacola","state":"FL","address":"7350 Plantation Rd.","name":""},
  {"lat":33.419617,"lon":-86.798326,"city":"Birmingham","state":"AL","address":"500 Old Town Rd.","name":""},
  {"lat":39.773338,"lon":-89.669883,"city":"Springfield","state":"IL","address":"2369 McArthur Ave","name":""},
  {"lat":33.426107,"lon":-86.70156,"city":"Birmingham","state":"AL","address":"4647 Hwy. 280","name":""},
  {"lat":36.590698,"lon":-87.290408,"city":"Clarksville","state":"TN","address":"2821 B. Wilma Rudolph Blvd.","name":""},
  {"lat":34.740237,"lon":-86.626792,"city":"Huntsville","state":"AL","address":"1220 Jordon Lane NW","name":""},
  {"lat":35.942824,"lon":-86.82161,"city":"Franklin","state":"TN","address":"3073 Mallory Lane","name":""},
  {"lat":36.047817,"lon":-86.651789,"city":"Antioch","state":"TN","address":"5312 Hickory Hollow Lane","name":""},
  {"lat":32.384534,"lon":-86.204973,"city":"Montgomery","state":"AL","address":"1116 Eastdale Mall","name":""},
  {"lat":37.981804,"lon":-87.491617,"city":"Evansville","state":"IN","address":"559 N. Green River Rd.","name":""},
  {"lat":36.303819,"lon":-86.693119,"city":"Madison","state":"TN","address":"2070 Gallatin Rd. North","name":""},
  {"lat":35.848928,"lon":-86.418642,"city":"Murfreesboro","state":"TN","address":"1720 Old Fort Pkwy.","name":""},
  {"lat":36.171043,"lon":-86.507612,"city":"Mount Juliet","state":"TN","address":"60 Belinda Parkway","name":""},
  {"lat":40.739937,"lon":-89.633819,"city":"Peoria","state":"IL","address":"2601 W. Lake Ave","name":""},
  {"lat":42.510766,"lon":-92.427268,"city":"Cedar Falls","state":"IA","address":"5911 University Ave, Ste. 100","name":""},
  {"lat":40.486231,"lon":-88.950931,"city":"Bloomington","state":"IL","address":"1701 Empire St","name":""},
  {"lat":36.947859,"lon":-86.426958,"city":"Bowling Green","state":"KY","address":"2625 Scottsville Rd.","name":""},
  {"lat":31.253626,"lon":-85.42733,"city":"Dothan","state":"AL","address":"1001 Commons Dr.","name":""},
  {"lat":35.132627,"lon":-85.237302,"city":"Chattanooga","state":"TN","address":"22 Northgate Park","name":""},
  {"lat":32.481191,"lon":-84.943897,"city":"Columbus","state":"GA","address":"3201 Macon Rd.","name":""},
  {"lat":32.702698,"lon":-114.60449,"city":"Yuma","state":"AZ","address":"1348 S. Yuma Palms Pkwy","name":""},
  {"lat":33.727064,"lon":-84.75563,"city":"Douglasville","state":"GA","address":"6890 Douglas Blvd.","name":""},
  {"lat":34.006414,"lon":-84.574739,"city":"Kennesaw","state":"GA","address":"824 Earnest W. Barrett Pkwy.","name":""},
  {"lat":40.728252,"lon":-111.902374,"city":"Salt Lake City","state":"UT","address":"389 W. 1830 South, Ste. 700","name":""},
  {"lat":38.316128,"lon":-85.755275,"city":"Clarksville","state":"IN","address":"1100 E. State Hwy. 131","name":""},
  {"lat":33.880546,"lon":-84.474736,"city":"Atlanta","state":"GA","address":"2990 Cumberland Blvd SE","name":""},
  {"lat":33.466785,"lon":-84.449094,"city":"Fayetteville","state":"GA","address":"786 Glynn St. N.","name":""},
  {"lat":38.217808,"lon":-85.588722,"city":"Louisville","state":"KY","address":"2030 S. Hurstbourne Pkwy.","name":""},
  {"lat":33.582469,"lon":-84.382193,"city":"Jonesboro","state":"GA","address":"335 Upper Riverdale Rd.","name":""},
  {"lat":42.266843,"lon":-89.041094,"city":"Rockford","state":"IL","address":"3600 E. State St.","name":""},
  {"lat":41.585073,"lon":-88.163867,"city":"Joliet","state":"IL","address":"3250 Chicagoland Circle","name":""},
  {"lat":34.051675,"lon":-84.281759,"city":"Alpharetta","state":"GA","address":"925 North Point Dr.","name":""},
  {"lat":39.76306,"lon":-86.346944,"city":"Avon","state":"IN","address":"9931 E. US Highway 36, 1","name":""},
  {"lat":41.859256,"lon":-88.341205,"city":"Batavia","state":"IL","address":"511 N. Randall Rd.","name":""},
  {"lat":41.762014,"lon":-88.202327,"city":"Naperville","state":"IL","address":"506 South Route 59","name":""},
  {"lat":33.897118,"lon":-84.197244,"city":"Norcross","state":"GA","address":"5019 Jimmy Carter Blvd.","name":""},
  {"lat":41.190244,"lon":-111.984364,"city":"Riverdale","state":"UT","address":"4101 Riverdale Rd","name":""},
  {"lat":39.66194,"lon":-86.12523,"city":"Indianapolis","state":"IN","address":"8804 US 31 South","name":""},
  {"lat":36.062607,"lon":-115.051057,"city":"Henderson","state":"NV","address":"1521 W. Sunset Rd.","name":""},
  {"lat":31.617891,"lon":-84.21678,"city":"Albany","state":"GA","address":"2601 Dawson Rd.","name":""},
  {"lat":36.165832,"lon":-115.0605,"city":"Las Vegas","state":"NV","address":"350 N. Nellis Blvd., Ste. 100","name":""},
  {"lat":41.753268,"lon":-87.971954,"city":"Darien","state":"IL","address":"7409 Cass Ave.","name":""},
  {"lat":41.599092,"lon":-87.794629,"city":"Tinley Park","state":"IL","address":"16090 S. Harlem Ave.","name":""},
  {"lat":36.02165,"lon":-115.116931,"city":"Las Vegas","state":"NV","address":"9230 S. Eastern Ave., Space 100","name":""},
  {"lat":33.648698,"lon":-83.99569,"city":"Conyers","state":"GA","address":"1530 Dogwood Dr. SE","name":""},
  {"lat":43.871375,"lon":-91.192104,"city":"La Crosse","state":"WI","address":"4444 State Rd 16","name":""},
  {"lat":41.861895,"lon":-87.983452,"city":"Villa Park","state":"IL","address":"200 W. Roosevelt Rd","name":""},
  {"lat":34.065149,"lon":-83.984766,"city":"Buford","state":"GA","address":"3333 Buford Dr, Room 198C","name":""},
  {"lat":42.012123,"lon":-88.147031,"city":"Streamwood","state":"IL","address":"1000C S. Barrington Rd.","name":""},
  {"lat":36.23799,"lon":-115.151892,"city":"North Las Vegas","state":"NV","address":"755 W Craig Rd","name":""},
  {"lat":44.744358,"lon":-93.289997,"city":"Burnsville","state":"MN","address":"1025 Burnsville Center","name":""},
  {"lat":39.904402,"lon":-86.074623,"city":"Indianapolis","state":"IN","address":"5501 E. 82nd St.","name":""},
  {"lat":32.766399,"lon":-115.528262,"city":"El Centro","state":"CA","address":"803 E. Danenberg Dr.","name":""},
  {"lat":30.479756,"lon":-84.296997,"city":"Tallahassee","state":"FL","address":"2810 Sharer Rd., Ste. 13","name":""},
  {"lat":42.713449,"lon":-89.000015,"city":"Janesville","state":"WI","address":"2500 Milton Ave.","name":""},
  {"lat":43.058529,"lon":-89.497048,"city":"Madison","state":"WI","address":"438 Grand Canyon Dr.","name":""},
  {"lat":42.22486,"lon":-88.288976,"city":"Crystal Lake","state":"IL","address":"4725 Northwest Hwy.","name":""},
  {"lat":36.194589,"lon":-115.253259,"city":"Las Vegas","state":"NV","address":"7381 W. Lake Mead Blvd","name":""},
  {"lat":41.905961,"lon":-87.847181,"city":"Melrose Park","state":"IL","address":"1030 Winston Plaza","name":""},
  {"lat":36.113515,"lon":-115.307246,"city":"Las Vegas","state":"NV","address":"4175 S. Grand Canyon Drive","name":""},
  {"lat":41.802521,"lon":-87.704872,"city":"Chicago","state":"IL","address":"5030 S. Kedzie","name":""},
  {"lat":41.471754,"lon":-87.316961,"city":"Merrillville","state":"IN","address":"2961 E. 80th Ave","name":""},
  {"lat":35.925291,"lon":-84.053992,"city":"Knoxville","state":"TN","address":"8225 Kingston Pike","name":""},
  {"lat":42.113123,"lon":-87.983956,"city":"Arlington Heights","state":"IL","address":"41 W. Rand Rd.","name":""},
  {"lat":41.926634,"lon":-87.674064,"city":"Chicago","state":"IL","address":"1830 W. Fullerton Ave.","name":""},
  {"lat":42.010749,"lon":-87.762572,"city":"Skokie","state":"IL","address":"7142 Carpenter Rd","name":""},
  {"lat":40.464753,"lon":-86.10875,"city":"Kokomo","state":"IN","address":"1919 South Reed Rd.","name":""},
  {"lat":45.094549,"lon":-93.444596,"city":"Maple Grove","state":"MN","address":"12945 Elm Creek Blvd.","name":""},
  {"lat":44.940838,"lon":-92.909332,"city":"Woodbury","state":"MN","address":"445 Commerce Dr.","name":""},
  {"lat":42.379977,"lon":-87.941919,"city":"Gurnee","state":"IL","address":"1512 Nations Dr.","name":""},
  {"lat":45.133234,"lon":-93.26317,"city":"Blaine","state":"MN","address":"8943 University Ave. NE","name":""},
  {"lat":38.019743,"lon":-84.453975,"city":"Lexington","state":"KY","address":"1555 New Circle Rd.","name":""},
  {"lat":33.94075,"lon":-83.458103,"city":"Athens","state":"GA","address":"3654-I Atlanta Hwy.","name":""},
  {"lat":45.551518,"lon":-94.199329,"city":"St. Cloud","state":"MN","address":"3318 W. Division St.","name":""},
  {"lat":38.999635,"lon":-84.654416,"city":"Florence","state":"KY","address":"7635 Mall Rd.","name":""},
  {"lat":40.217454,"lon":-85.404947,"city":"Muncie","state":"IN","address":"1611 W. McGalliard Rd.","name":""},
  {"lat":42.697674,"lon":-87.847593,"city":"Racine","state":"WI","address":"5612 Durand Ave.","name":""},
  {"lat":43.033924,"lon":-88.151198,"city":"Brookfield","state":"WI","address":"19125 W. Blue Mound Rd.","name":""},
  {"lat":42.989005,"lon":-88.045593,"city":"West Allis","state":"WI","address":"2990 South 108th Street","name":""},
  {"lat":33.725344,"lon":-116.401591,"city":"Palm Desert","state":"CA","address":"72513 Highway 111, Ste. B","name":""},
  {"lat":42.994253,"lon":-87.913307,"city":"Milwaukee","state":"WI","address":"2701 Chase Ave.","name":""},
  {"lat":39.285196,"lon":-84.448088,"city":"Sharonville","state":"OH","address":"1429 E. Kemper Rd.","name":""},
  {"lat":39.09281,"lon":-84.269051,"city":"Cincinnati","state":"OH","address":"4394 Eastgate Square Dr., Ste. 900","name":""},
  {"lat":41.680728,"lon":-86.193404,"city":"Mishawaka","state":"IN","address":"822 W. McKinley Ave","name":""},
  {"lat":39.637084,"lon":-84.227061,"city":"Miamisburg","state":"OH","address":"30 Prestige Place","name":""},
  {"lat":33.746837,"lon":-116.997028,"city":"Hemet","state":"CA","address":"2375 West Florida Ave.","name":""},
  {"lat":41.11721,"lon":-85.152188,"city":"Fort Wayne","state":"IN","address":"711 W Coliseum Blvd","name":""},
  {"lat":32.842641,"lon":-116.985317,"city":"Santee","state":"CA","address":"265 Town Center Parkway","name":""},
  {"lat":32.740393,"lon":-117.054438,"city":"San Diego","state":"CA","address":"3414 College Ave.","name":""},
  {"lat":35.574985,"lon":-82.518986,"city":"Asheville","state":"NC","address":"104 River Hills Rd.","name":""},
  {"lat":33.117081,"lon":-117.098312,"city":"Escondido","state":"CA","address":"1126 W. Valley Pkwy.","name":""},
  {"lat":32.675122,"lon":-117.097365,"city":"National City","state":"CA","address":"1143 Highland Ave.","name":""},
  {"lat":32.914101,"lon":-117.114555,"city":"San Diego","state":"CA","address":"9840 Hibert St.","name":""},
  {"lat":33.568894,"lon":-117.181912,"city":"Murrieta","state":"CA","address":"25110 Hancock Ave, Ste. 101-106","name":""},
  {"lat":34.853188,"lon":-82.337108,"city":"Greenville","state":"SC","address":"253 Congaree Rd.","name":""},
  {"lat":32.752847,"lon":-117.205833,"city":"San Diego","state":"CA","address":"3146 Sports Arena Blvd.","name":""},
  {"lat":33.940032,"lon":-117.258579,"city":"Moreno Valley","state":"CA","address":"23160 Sunnymead Blvd.","name":""},
  {"lat":34.06661,"lon":-117.26912,"city":"San Bernardino","state":"CA","address":"777 E. Hospitality Lane","name":""},
  {"lat":33.181724,"lon":-117.333929,"city":"Oceanside","state":"CA","address":"2481 Vista Way","name":""},
  {"lat":36.352892,"lon":-82.397567,"city":"Johnson City","state":"TN","address":"3020 Peoples St.","name":""},
  {"lat":34.482981,"lon":-117.337714,"city":"Victorville","state":"CA","address":"12790 Amargosa Rd.","name":""},
  {"lat":39.948529,"lon":-83.848572,"city":"Springfield","state":"OH","address":"2345 Valley Loop Rd.","name":""},
  {"lat":33.469017,"lon":-82.08218,"city":"Augusta","state":"GA","address":"3435 Wrightsboro Rd.","name":""},
  {"lat":34.068039,"lon":-117.431352,"city":"Fontana","state":"CA","address":"17069 Valley Blvd., Ste. D","name":""},
  {"lat":33.886241,"lon":-117.515597,"city":"Corona","state":"CA","address":"191 N. McKinley Street","name":""},
  {"lat":34.94429,"lon":-81.995535,"city":"Spartanburg","state":"SC","address":"660 Spartan Blvd., Ste. 250","name":""},
  {"lat":45.771518,"lon":-108.578546,"city":"Billings","state":"MT","address":"100 24th Street","name":""},
  {"lat":34.105232,"lon":-117.6013,"city":"Rancho Cucamonga","state":"CA","address":"9339 Foothill Blvd., Ste. E","name":""},
  {"lat":33.678958,"lon":-117.667435,"city":"Foothill Ranch","state":"CA","address":"26562 Towne Centre Dr.","name":""},
  {"lat":34.034461,"lon":-117.690943,"city":"Chino","state":"CA","address":"5250 Philadelphia, Ste. K","name":""},
  {"lat":44.506363,"lon":-88.074362,"city":"Green Bay","state":"WI","address":"1273 Lombardi Access","name":""},
  {"lat":33.578098,"lon":-117.701676,"city":"Laguna Hills","state":"CA","address":"26538-H Moulton Pkwy.","name":""},
  {"lat":33.819073,"lon":-117.835493,"city":"Orange","state":"CA","address":"1875 N. Tustin St.","name":""},
  {"lat":33.905008,"lon":-117.841717,"city":"Placentia","state":"CA","address":"2300 N. Rose Dr.","name":""},
  {"lat":33.915342,"lon":-117.886451,"city":"Brea","state":"CA","address":"1065 Brea Mall","name":""},
  {"lat":34.091613,"lon":-117.908682,"city":"Covina","state":"CA","address":"601 Azusa Ave.","name":""},
  {"lat":33.658501,"lon":-117.91819,"city":"Costa Mesa","state":"CA","address":"2300 Harbor Blvd., Bldg. 25","name":""},
  {"lat":33.772961,"lon":-117.921629,"city":"Garden Grove","state":"CA","address":"13101 Harbor Blvd.","name":""},
  {"lat":33.991347,"lon":-117.922272,"city":"City of Industry","state":"CA","address":"17585 Colima Rd","name":""},
  {"lat":42.913699,"lon":-85.576455,"city":"Grand Rapids","state":"MI","address":"3671 28th St. SE","name":""},
  {"lat":43.019555,"lon":-85.686487,"city":"Walker","state":"MI","address":"3108 Alpine Ave","name":""},
  {"lat":28.008071,"lon":-82.728013,"city":"Clearwater","state":"FL","address":"25921 US Hwy 19","name":""},
  {"lat":33.743938,"lon":-118.008034,"city":"Huntington Beach","state":"CA","address":"15031 Goldenwest St.","name":""},
  {"lat":33.897298,"lon":-118.008636,"city":"La Mirada","state":"CA","address":"15100 Rosecrans Ave","name":""},
  {"lat":33.961917,"lon":-118.0332,"city":"Whittier","state":"CA","address":"13400 Whittier Blvd","name":""},
  {"lat":34.151204,"lon":-118.07297,"city":"Pasadena","state":"CA","address":"3737 E. Foothill Blvd","name":""},
  {"lat":40.093886,"lon":-83.088604,"city":"Dublin","state":"OH","address":"2711 Martin Rd","name":""},
  {"lat":29.153625,"lon":-82.180788,"city":"Ocala","state":"FL","address":"3500 SW College Rd., Ste. 200","name":""},
  {"lat":33.992562,"lon":-118.091281,"city":"Pico Rivera","state":"CA","address":"6005 Rosemead Blvd.","name":""},
  {"lat":33.866898,"lon":-118.093959,"city":"Cerritos","state":"CA","address":"11231 183rd St.","name":""},
  {"lat":33.923684,"lon":-118.099617,"city":"Norwalk","state":"CA","address":"10949 Firestone","name":""},
  {"lat":27.783005,"lon":-82.713569,"city":"St. Petersburg","state":"FL","address":"1024 58th St. North","name":""},
  {"lat":33.851811,"lon":-118.143656,"city":"Lakewood","state":"CA","address":"5151 Lakewood Blvd.","name":""},
  {"lat":33.970005,"lon":-118.176236,"city":"Bell","state":"CA","address":"5089 E. Florence Ave.","name":""},
  {"lat":28.076313,"lon":-82.507849,"city":"Tampa","state":"FL","address":"14308 Dale Mabry Hwy","name":""},
  {"lat":34.690259,"lon":-118.171068,"city":"Lancaster","state":"CA","address":"44410 Valley Central Way","name":""},
  {"lat":40.060544,"lon":-82.914941,"city":"Columbus","state":"OH","address":"3886 Morse Rd","name":""},
  {"lat":30.195502,"lon":-81.741081,"city":"Jacksonville","state":"FL","address":"6065 Youngerman Circle","name":""},
  {"lat":33.927578,"lon":-118.213697,"city":"Lynwood","state":"CA","address":"3140 Imperial Highway","name":""},
  {"lat":34.141083,"lon":-118.225049,"city":"Los Angeles","state":"CA","address":"2700 Colorado Blvd.","name":""},
  {"lat":33.96933,"lon":-118.232923,"city":"Walnut Park","state":"CA","address":"7726 South Alameda St.","name":""},
  {"lat":33.843906,"lon":-118.260935,"city":"Los Angeles","state":"CA","address":"20700 Avalon Blvd., Suite 175","name":""},
  {"lat":28.248294,"lon":-82.348384,"city":"Wesley Chapel","state":"FL","address":"6170 Wesley Grove Blvd.","name":""},
  {"lat":35.700827,"lon":-81.304676,"city":"Hickory","state":"NC","address":"2032 Catawba Valley Blvd.","name":""},
  {"lat":34.187847,"lon":-118.316464,"city":"Burbank","state":"CA","address":"930 N. San Fernando Blvd.","name":""},
  {"lat":33.794957,"lon":-118.33568,"city":"Torrance","state":"CA","address":"2821 Pacific Coast Hwy.","name":""},
  {"lat":33.876611,"lon":-118.343364,"city":"Torrance","state":"CA","address":"16920 Prairie Ave.","name":""},
  {"lat":34.044772,"lon":-81.115178,"city":"Columbia","state":"SC","address":"1775 Burning Tree","name":""},
  {"lat":30.32025,"lon":-81.544653,"city":"Jacksonville","state":"FL","address":"10320 Shops Lane 32258","name":""},
  {"lat":27.461057,"lon":-82.571538,"city":"Bradenton","state":"FL","address":"905 44th Ave. West","name":""},
  {"lat":34.223779,"lon":-118.3989,"city":"Sun Valley","state":"CA","address":"8375 Laurel Canyon Blvd.","name":""},
  {"lat":30.177343,"lon":-81.557348,"city":"Jacksonville","state":"FL","address":"9820 Atlantic Blvd.","name":""},
  {"lat":35.262785,"lon":-81.132934,"city":"Gastonia","state":"NC","address":"416 Cox Rd.","name":""},
  {"lat":27.938951,"lon":-82.308088,"city":"Brandon","state":"FL","address":"1540 W. Brandon Blvd.","name":""},
  {"lat":41.61499,"lon":-83.669594,"city":"Toledo","state":"OH","address":"5455 Airport Hwy, Ste 9-I","name":""},
  {"lat":32.015566,"lon":-81.111869,"city":"Savannah","state":"GA","address":"6700 Abercorn","name":""},
  {"lat":42.739431,"lon":-84.626739,"city":"Lansing","state":"MI","address":"5451 L. West Saginaw Hwy.","name":""},
  {"lat":41.698652,"lon":-83.646458,"city":"Toledo","state":"OH","address":"5077 Monroe St","name":""},
  {"lat":38.31708,"lon":-81.719231,"city":"Charleston","state":"WV","address":"2846 Mountaineer Blvd.","name":""},
  {"lat":34.223488,"lon":-118.536611,"city":"Northridge","state":"CA","address":"8425 Reseda Blvd.","name":""},
  {"lat":34.392581,"lon":-118.575102,"city":"Stevenson Ranch","state":"CA","address":"25955 The Old Rd","name":""},
  {"lat":34.192193,"lon":-118.627134,"city":"West Hills","state":"CA","address":"22940 Van Owen St.","name":""},
  {"lat":35.086145,"lon":-80.849974,"city":"Charlotte","state":"NC","address":"7701 Pineville-Matthews Rd.","name":""},
  {"lat":28.087143,"lon":-81.974873,"city":"Lakeland","state":"FL","address":"3558 US Hwy 98 North","name":""},
  {"lat":35.203033,"lon":-80.752337,"city":"Charlotte","state":"NC","address":"5612 Albermarle Rd., #100","name":""},
  {"lat":35.364534,"lon":-80.716325,"city":"Concord","state":"NC","address":"7970 Lyles Lane NW","name":""},
  {"lat":34.180154,"lon":-118.878941,"city":"Thousand Oaks","state":"CA","address":"130 W. Hillcrest Dr.","name":""},
  {"lat":28.551189,"lon":-81.48305,"city":"Orlando","state":"FL","address":"7456 W. Colonial Dr.","name":""},
  {"lat":28.662691,"lon":-81.404349,"city":"Altamonte Springs","state":"FL","address":"541 W. Hwy 436","name":""},
  {"lat":28.454572,"lon":-81.470226,"city":"Orlando","state":"FL","address":"7419 International Dr.","name":""},
  {"lat":28.392904,"lon":-81.49322,"city":"Orlando","state":"FL","address":"1409 Marbella Palm Court","name":""},
  {"lat":42.322067,"lon":-83.455769,"city":"Canton","state":"MI","address":"42001 Ford Rd.","name":""},
  {"lat":33.953878,"lon":-80.37593,"city":"Sumter","state":"SC","address":"1121 Broad St.","name":""},
  {"lat":35.340671,"lon":-119.043916,"city":"Bakersfield","state":"CA","address":"3760 Ming Ave.","name":""},
  {"lat":42.493234,"lon":-83.484214,"city":"Novi","state":"MI","address":"44275 Twelve Mile Rd., D134","name":""},
  {"lat":42.197109,"lon":-83.214204,"city":"Southgate","state":"MI","address":"15300 Toledo Rd.","name":""},
  {"lat":42.297594,"lon":-83.274894,"city":"Dearborn","state":"MI","address":"24399 Michigan","name":""},
  {"lat":34.26113,"lon":-119.2321,"city":"Ventura","state":"CA","address":"4714 Telephone Rd.","name":""},
  {"lat":29.109531,"lon":-81.03374,"city":"Port Orange","state":"FL","address":"5539 S Williamson Blvd","name":""},
  {"lat":28.553654,"lon":-81.202403,"city":"Orlando","state":"FL","address":"449 N. Alafaya Trail","name":""},
  {"lat":36.063648,"lon":-80.304292,"city":"Winston-Salem","state":"NC","address":"620 Hanes Mall Blvd.","name":""},
  {"lat":32.935272,"lon":-80.038127,"city":"North Charleston","state":"SC","address":"7258 Rivers Ave.","name":""},
  {"lat":42.541224,"lon":-83.106069,"city":"Troy","state":"MI","address":"740 John R Rd.","name":""},
  {"lat":43.481659,"lon":-83.976412,"city":"Saginaw","state":"MI","address":"5105 Bay Rd.","name":""},
  {"lat":26.587532,"lon":-81.87339,"city":"Fort Myers","state":"FL","address":"5020 Cleveland Ave.","name":""},
  {"lat":36.325885,"lon":-119.339418,"city":"Visalia","state":"CA","address":"4345 W. Noble Ave.","name":""},
  {"lat":42.62267,"lon":-82.991832,"city":"Sterling Heights","state":"MI","address":"13745 Lakeside Circle","name":""},
  {"lat":42.530653,"lon":-82.912083,"city":"Roseville","state":"MI","address":"31920 Gratiot","name":""},
  {"lat":34.1915,"lon":-79.833608,"city":"Florence","state":"SC","address":"2701 David McLeod Blvd.","name":""},
  {"lat":26.269163,"lon":-81.799619,"city":"Naples","state":"FL","address":"1000 Immokalee Rd.","name":""},
  {"lat":41.41828,"lon":-81.912054,"city":"North Olmsted","state":"OH","address":"26104 Great Northern Shopping Center","name":""},
  {"lat":36.086524,"lon":-79.831453,"city":"Greensboro","state":"NC","address":"702-A Pembroke Rd.","name":""},
  {"lat":41.126116,"lon":-81.604043,"city":"Akron","state":"OH","address":"2779 West Market St.","name":""},
  {"lat":37.22405,"lon":-79.980266,"city":"Roanoke","state":"VA","address":"4059 Electric Rd.","name":""},
  {"lat":40.873736,"lon":-81.432676,"city":"North Canton","state":"OH","address":"6370 Strip Ave. NW","name":""},
  {"lat":41.383233,"lon":-81.736952,"city":"Parma","state":"OH","address":"7601 West Ridgewood Drive","name":""},
  {"lat":28.077302,"lon":-80.7045,"city":"West Melbourne","state":"FL","address":"2250 Coastal Lane","name":""},
  {"lat":36.849178,"lon":-119.792,"city":"Fresno","state":"CA","address":"7809 N. Blackstone Ave","name":""},
  {"lat":36.807326,"lon":-119.84711,"city":"Fresno","state":"CA","address":"3117 W. Shaw, Ste. 107","name":""},
  {"lat":43.618609,"lon":-116.259218,"city":"Boise","state":"ID","address":"6255 Fairview Ave.","name":""},
  {"lat":41.516182,"lon":-81.449721,"city":"Mayfield Heights","state":"OH","address":"1615 Golden Gate Plaza","name":""},
  {"lat":41.65424,"lon":-81.36658,"city":"Mentor","state":"OH","address":"8000 Plaza Blvd., Unit J","name":""},
  {"lat":34.91872,"lon":-120.421318,"city":"Santa Maria","state":"CA","address":"2254 S. Bradley Rd.","name":""},
  {"lat":35.074723,"lon":-78.954369,"city":"Fayetteville","state":"NC","address":"511 North McPherson Church Rd","name":""},
  {"lat":41.022358,"lon":-80.643704,"city":"Boardman","state":"OH","address":"521 Boardman Poland Rd.","name":""},
  {"lat":41.215682,"lon":-80.741942,"city":"Warren","state":"OH","address":"2082 Niles Cortland Rd. SE","name":""},
  {"lat":35.968763,"lon":-78.952339,"city":"Durham","state":"NC","address":"3724 Mayfair St.","name":""},
  {"lat":40.364386,"lon":-80.110413,"city":"Bridgeville","state":"PA","address":"1035 Washington Pike","name":""},
  {"lat":39.478702,"lon":-119.788328,"city":"Reno","state":"NV","address":"5000 Smithridge Dr.","name":""},
  {"lat":27.234702,"lon":-80.269865,"city":"Stuart","state":"FL","address":"2400 NW Federal Hwy.","name":""},
  {"lat":40.551448,"lon":-80.01866,"city":"Pittsburgh","state":"PA","address":"20 McIntyre Square Dr.","name":""},
  {"lat":35.828809,"lon":-78.586755,"city":"Raleigh","state":"NC","address":"3501-131 Capitol Blvd.","name":""},
  {"lat":26.708698,"lon":-80.181625,"city":"Boynton Beach","state":"FL","address":"244 N. Congress Ave.","name":""},
  {"lat":26.707762,"lon":-80.089191,"city":"West Palm Beach","state":"FL","address":"2471 Okeechobee Blvd","name":""},
  {"lat":40.300967,"lon":-79.509822,"city":"Greensburg","state":"PA","address":"5256 Route 30, Ste. 273","name":""},
  {"lat":26.35322,"lon":-80.204798,"city":"Boca Raton","state":"FL","address":"21699-A State Rd. 7","name":""},
  {"lat":26.167967,"lon":-80.259494,"city":"Sunrise","state":"FL","address":"8099 W Oakland Park Blvd","name":""},
  {"lat":26.010168,"lon":-80.256221,"city":"Pembroke Pines","state":"FL","address":"8515 Pines Blvd.","name":""},
  {"lat":25.856297,"lon":-80.321148,"city":"Hialeah","state":"FL","address":"3805 W 20th Ave. Bay","name":""},
  {"lat":26.257341,"lon":-80.102289,"city":"Pompano Beach","state":"FL","address":"2201 N Federal Highway, Ste. 201","name":""},
  {"lat":37.683426,"lon":-121.051097,"city":"Modesto","state":"CA","address":"3037 Sisk Rd.","name":""},
  {"lat":25.687685,"lon":-80.392264,"city":"Miami","state":"FL","address":"8701 SW 124th Ave","name":""},
  {"lat":25.59669,"lon":-80.353135,"city":"Miami","state":"FL","address":"18575 S. Dixie Hwy.","name":""},
  {"lat":25.964168,"lon":-80.143818,"city":"Miami","state":"FL","address":"20335 Biscayne Blvd., Ste. L-1","name":""},
  {"lat":35.373412,"lon":-77.951333,"city":"Goldsboro","state":"NC","address":"209 N. Berkeley Blvd.","name":""},
  {"lat":42.053161,"lon":-80.091152,"city":"Erie","state":"PA","address":"7200 Peach St.","name":""},
  {"lat":35.972683,"lon":-77.810504,"city":"Rocky Mount","state":"NC","address":"730 Sutters Creek Blvd.","name":""},
  {"lat":38.009234,"lon":-121.318635,"city":"Stockton","state":"CA","address":"6436 Pacific Ave.","name":""},
  {"lat":37.006173,"lon":-121.551409,"city":"Gilroy","state":"CA","address":"910 Renz Lane","name":""},
  {"lat":36.707644,"lon":-121.667035,"city":"Salinas","state":"CA","address":"1447 North Davis Rd.","name":""},
  {"lat":38.680663,"lon":-121.273992,"city":"Citrus Heights","state":"CA","address":"6251 Sunrise Blvd.","name":""},
  {"lat":38.783357,"lon":-121.272096,"city":"Roseville","state":"CA","address":"9601 Fairway Dr.","name":""},
  {"lat":38.42564,"lon":-121.392325,"city":"Elk Grove","state":"CA","address":"9161 E. Stockton Blvd, Pad B","name":""},
  {"lat":38.598221,"lon":-121.427826,"city":"Sacramento","state":"CA","address":"1690-96 Arden Way","name":""},
  {"lat":39.152182,"lon":-78.174804,"city":"Winchester","state":"VA","address":"145 E. Tevis St.","name":""},
  {"lat":37.318799,"lon":-121.829343,"city":"San Jose","state":"CA","address":"2445 Fontaine Rd.","name":""},
  {"lat":37.960281,"lon":-121.740936,"city":"Brentwood","state":"CA","address":"6061 Lone Tree Way","name":""},
  {"lat":37.50844,"lon":-77.58903,"city":"Richmond","state":"VA","address":"10430 Midlothian Turnpike","name":""},
  {"lat":37.637428,"lon":-77.548067,"city":"Richmond","state":"VA","address":"9030 Broad St.","name":""},
  {"lat":37.708948,"lon":-121.929473,"city":"Dublin","state":"CA","address":"7448 Amador Valley Blvd.","name":""},
  {"lat":37.323636,"lon":-122.019214,"city":"Cupertino","state":"CA","address":"19805 Stevens Creek Blvd.","name":""},
  {"lat":40.482038,"lon":-78.400825,"city":"Altoona","state":"PA","address":"3415 Pleasant Valley Shopping Center","name":""},
  {"lat":37.523791,"lon":-121.992168,"city":"Newark","state":"CA","address":"39839 Mowry School Rd.","name":""},
  {"lat":38.301792,"lon":-77.514267,"city":"Fredericksburg","state":"VA","address":"1280 Central Park Blvd.","name":""},
  {"lat":37.652107,"lon":-122.111405,"city":"Hayward","state":"CA","address":"24039 Hesperian Blvd.","name":""},
  {"lat":37.971675,"lon":-122.045189,"city":"Concord","state":"CA","address":"1611 Willow Pass Rd.","name":""},
  {"lat":37.474504,"lon":-122.216462,"city":"Redwood City","state":"CA","address":"2541-43 El Camino Real","name":""},
  {"lat":38.252347,"lon":-122.068549,"city":"Fairfield","state":"CA","address":"1027 Oliver Rd","name":""},
  {"lat":38.795826,"lon":-77.520469,"city":"Manassas","state":"VA","address":"7730 Stream Walk Lane","name":""},
  {"lat":38.950258,"lon":-77.409628,"city":"Herndon","state":"VA","address":"2465 Centreville, Ste. J9","name":""},
  {"lat":37.990213,"lon":-122.307913,"city":"Pinole","state":"CA","address":"1470 Fitzgerald Dr","name":""},
  {"lat":39.030478,"lon":-77.426811,"city":"Sterling","state":"VA","address":"21025 Dulles Town Cir","name":""},
  {"lat":38.650407,"lon":-77.298292,"city":"Dale City","state":"VA","address":"14085 Shoppers Best Way","name":""},
  {"lat":37.639374,"lon":-122.41901,"city":"San Bruno","state":"CA","address":"1270-1272 El Camino Real","name":""},
  {"lat":38.841657,"lon":-77.270316,"city":"Fairfax","state":"VA","address":"9404 Main St","name":""},
  {"lat":39.394727,"lon":-77.415734,"city":"Frederick","state":"MD","address":"7210 Guilford Dr.","name":""},
  {"lat":38.781228,"lon":-77.078513,"city":"Alexandria","state":"VA","address":"6301 Richmond Hwy.","name":""},
  {"lat":39.04335,"lon":-77.106386,"city":"Kensington","state":"MD","address":"5238 Nicholson Ln","name":""},
  {"lat":42.791117,"lon":-78.814623,"city":"Buffalo","state":"NY","address":"4408 Milestrip Rd.","name":""},
  {"lat":42.958264,"lon":-78.869983,"city":"Buffalo","state":"NY","address":"2638 Delaware Ave","name":""},
  {"lat":38.624278,"lon":-76.915463,"city":"Waldorf","state":"MD","address":"3241 Plaza Way","name":""},
  {"lat":38.989349,"lon":-76.990003,"city":"Takoma Park","state":"MD","address":"1127 University Blvd East","name":""},
  {"lat":38.347303,"lon":-122.724665,"city":"Rohnert Park","state":"CA","address":"601 Rohnert Park Expressway","name":""},
  {"lat":38.905307,"lon":-76.848423,"city":"Largo","state":"MD","address":"1100 Shoppers Way","name":""},
  {"lat":36.820504,"lon":-76.424347,"city":"Chesapeake","state":"VA","address":"4400 Peek Trail","name":""},
  {"lat":37.062205,"lon":-76.424449,"city":"Hampton","state":"VA","address":"5 Towne Centre Way","name":""},
  {"lat":39.097384,"lon":-76.854874,"city":"Laurel","state":"MD","address":"936 Fairlawn Ave.","name":""},
  {"lat":36.771357,"lon":-76.252076,"city":"Chesapeake","state":"VA","address":"1528 Sams Circle","name":""},
  {"lat":39.287791,"lon":-76.735011,"city":"Baltimore","state":"MD","address":"5912 Baltimore National Pike","name":""},
  {"lat":40.595003,"lon":-122.359817,"city":"Redding","state":"CA","address":"910 Hilltop Dr.","name":""},
  {"lat":39.194111,"lon":-76.610294,"city":"Glen Burnie","state":"MD","address":"6637 Governor Ritchie Hwy.","name":""},
  {"lat":36.812113,"lon":-76.068671,"city":"Virginia Beach","state":"VA","address":"2699 Lishelle Place","name":""},
  {"lat":39.401558,"lon":-76.543472,"city":"Parkville","state":"MD","address":"8886 Waltham Woods Rd","name":""},
  {"lat":40.276152,"lon":-76.823847,"city":"Harrisburg","state":"PA","address":"3883 Union Deposit Rd.","name":""},
  {"lat":39.978563,"lon":-76.672534,"city":"York","state":"PA","address":"2801 E. Market St.","name":""},
  {"lat":39.494626,"lon":-76.32714,"city":"Bel Air","state":"MD","address":"5 Bel Air South Pkwy., Ste. N-1447","name":""},
  {"lat":47.657736,"lon":-117.20382,"city":"Spokane Valley","state":"WA","address":"14919 East Sprague Ave.","name":""},
  {"lat":46.224754,"lon":-119.207016,"city":"Kennewick","state":"WA","address":"6340 W. Rio Grande Ave.","name":""},
  {"lat":47.748987,"lon":-117.396052,"city":"Spokane","state":"WA","address":"10007 N. Nevada St.","name":""},
  {"lat":43.211934,"lon":-77.712287,"city":"Rochester","state":"NY","address":"3130 Ridge Rd. West","name":""},
  {"lat":43.02994,"lon":-77.44371,"city":"Victor","state":"NY","address":"7979 Pittsford-Victor Road (Route 96), Space 108","name":""},
  {"lat":38.400004,"lon":-75.566841,"city":"Salisbury","state":"MD","address":"2300 N. Salisbury Blvd.","name":""},
  {"lat":39.141198,"lon":-75.519654,"city":"Dover","state":"DE","address":"1275 N. DuPont Hwy.","name":""},
  {"lat":42.316537,"lon":-122.859595,"city":"Medford","state":"OR","address":"293 E. Barnett Rd.","name":""},
  {"lat":39.81038,"lon":-75.54764,"city":"Wilmington","state":"DE","address":"3601 Silverside Rd.","name":""},
  {"lat":41.238982,"lon":-75.856433,"city":"Wilkes-Barre Township","state":"PA","address":"2120 Wilkes-Barre Township Market Place","name":""},
  {"lat":39.920893,"lon":-75.32042,"city":"Springfield","state":"PA","address":"371 Baltimore Pike","name":""},
  {"lat":40.632121,"lon":-75.475996,"city":"Whitehall","state":"PA","address":"1000 Lehigh Valley Mall","name":""},
  {"lat":39.92151,"lon":-75.14629,"city":"Philadelphia","state":"PA","address":"9 Snyder Ave., Corner of Front & Snyder","name":""},
  {"lat":42.096486,"lon":-75.978992,"city":"Vestal","state":"NY","address":"3901 Vestal Pkwy. E.","name":""},
  {"lat":39.825234,"lon":-75.102131,"city":"Deptford","state":"NJ","address":"1500 Almonesson Rd.","name":""},
  {"lat":41.462023,"lon":-75.640902,"city":"Dickson City","state":"PA","address":"1003 Commerce Blvd.","name":""},
  {"lat":40.268585,"lon":-75.12845,"city":"Warrington","state":"PA","address":"1661 Easton Rd., B-2","name":""},
  {"lat":39.941586,"lon":-75.019627,"city":"Cherry Hill","state":"NJ","address":"2100 Rt. 38","name":""},
  {"lat":40.07475,"lon":-75.034373,"city":"Philadelphia","state":"PA","address":"9175 Roosevelt Blvd, Ste. 2","name":""},
  {"lat":43.056202,"lon":-76.085824,"city":"Syracuse","state":"NY","address":"3023 Erie Boulevard","name":""},
  {"lat":39.44593,"lon":-74.628327,"city":"Mays Landing","state":"NJ","address":"4215 East Black Horse Pike","name":""},
  {"lat":40.306254,"lon":-74.678878,"city":"Princeton","state":"NJ","address":"520 Nassau Park Blvd.","name":""},
  {"lat":40.519951,"lon":-74.364044,"city":"Edison","state":"NJ","address":"1120 Rte 1 North","name":""},
  {"lat":40.809593,"lon":-74.382467,"city":"East Hanover","state":"NJ","address":"145 Rt 10","name":""},
  {"lat":40.058563,"lon":-74.140404,"city":"Brick","state":"NJ","address":"56 Chambers Bridge Rd.","name":""},
  {"lat":44.966991,"lon":-122.982937,"city":"Salem","state":"OR","address":"3240 Lancaster Dr. NE","name":""},
  {"lat":40.685946,"lon":-74.309462,"city":"Union","state":"NJ","address":"2700 US 22 East, 3A","name":""},
  {"lat":40.600077,"lon":-74.19281,"city":"Staten Island","state":"NY","address":"1775-P South Ave.","name":""},
  {"lat":45.650175,"lon":-122.594433,"city":"Vancouver","state":"WA","address":"7721 NE Vancouver Plaza Dr.","name":""},
  {"lat":40.398279,"lon":-74.108672,"city":"Middletown","state":"NJ","address":"1107 Route 35","name":""},
  {"lat":40.939699,"lon":-74.271599,"city":"Wayne","state":"NJ","address":"1639 Rt. 23 South","name":""},
  {"lat":45.489976,"lon":-122.790746,"city":"Beaverton","state":"OR","address":"4145 SW 110th Ave.","name":""},
  {"lat":40.721808,"lon":-74.094919,"city":"Jersey City","state":"NJ","address":"701 Route 440, Ste. 383","name":""},
  {"lat":40.808319,"lon":-74.017706,"city":"North Bergen","state":"NJ","address":"8101 Tonnelle Ave.","name":""},
  {"lat":40.684616,"lon":-73.976865,"city":"Brooklyn","state":"NY","address":"139 Flatbush Ave.","name":""},
  {"lat":40.914913,"lon":-74.047478,"city":"Paramus","state":"NJ","address":"275 Route 4 West","name":""},
  {"lat":40.753265,"lon":-73.91404,"city":"Long Island City","state":"NY","address":"3419 48th St.","name":""},
  {"lat":40.823963,"lon":-73.930287,"city":"The Bronx","state":"NY","address":"700 Exterior St.","name":""},
  {"lat":41.101269,"lon":-74.022248,"city":"Nanuet","state":"NY","address":"250 West Route 59","name":""},
  {"lat":40.671976,"lon":-73.856467,"city":"Howard Beach","state":"NY","address":"133-35 79th Street","name":""},
  {"lat":40.757368,"lon":-73.835014,"city":"Flushing","state":"NY","address":"40-24 College Point Blvd., Ste. B213","name":""},
  {"lat":40.863195,"lon":-73.833334,"city":"The Bronx","state":"NY","address":"1816 Gun Hill Rd.","name":""},
  {"lat":40.957868,"lon":-73.843285,"city":"Yonkers","state":"NY","address":"1703-A Central Park Ave.","name":""},
  {"lat":40.664621,"lon":-73.725768,"city":"Valley Stream","state":"NY","address":"750 Sunrise Highway, Ste. 105","name":""},
  {"lat":40.707084,"lon":-73.629161,"city":"Hempstead","state":"NY","address":"162 Fulton Ave.","name":""},
  {"lat":41.618525,"lon":-73.920475,"city":"Poughkeepsie","state":"NY","address":"1895 South Rd.","name":""},
  {"lat":40.763658,"lon":-73.517349,"city":"Hicksville","state":"NY","address":"11-15 Hanover Place, Delco Plaza","name":""},
  {"lat":47.387208,"lon":-122.200483,"city":"Kent","state":"WA","address":"25817 104th Ave. SE","name":""},
  {"lat":40.720761,"lon":-73.306849,"city":"West Islip","state":"NY","address":"155 Sunrise Hwy.","name":""},
  {"lat":47.212143,"lon":-122.463264,"city":"Tacoma","state":"WA","address":"4911 Tacoma Mall Blvd","name":""},
  {"lat":47.630495,"lon":-122.145215,"city":"Bellevue","state":"WA","address":"2239 148th Ave. NE","name":""},
  {"lat":41.22931,"lon":-73.226579,"city":"Trumbull","state":"CT","address":"5065 Main St, Suite 185","name":""},
  {"lat":42.754111,"lon":-73.766237,"city":"Latham","state":"NY","address":"601 Troy Schenectady Rd.","name":""},
  {"lat":47.041588,"lon":-122.932774,"city":"Olympia","state":"WA","address":"625 Black Lake Blvd, #101","name":""},
  {"lat":40.781012,"lon":-73.001943,"city":"Patchogue","state":"NY","address":"121 Sunrise Hwy.","name":""},
  {"lat":41.277809,"lon":-72.987043,"city":"Orange","state":"CT","address":"82 Boston Post Rd.","name":""},
  {"lat":47.659328,"lon":-122.68358,"city":"Silverdale","state":"WA","address":"2771 NW Myhre Rd.","name":""},
  {"lat":41.666361,"lon":-72.72229,"city":"Newington","state":"CT","address":"3075 Berlin Turnpike","name":""},
  {"lat":48.461261,"lon":-122.339517,"city":"Burlington","state":"WA","address":"621 Cascade Mall Dr.","name":""},
  {"lat":41.798915,"lon":-72.553479,"city":"Manchester","state":"CT","address":"82 Buckland St.","name":""},
  {"lat":42.239309,"lon":-71.746888,"city":"Worcester","state":"MA","address":"50 Southwest Cutoff","name":""},
  {"lat":41.719797,"lon":-71.481051,"city":"Warwick","state":"RI","address":"650 Bald Hill Rd.","name":""},
  {"lat":41.921653,"lon":-71.359959,"city":"Attleboro","state":"MA","address":"287 Washington St. South","name":""},
  {"lat":42.701064,"lon":-71.436962,"city":"Nashua","state":"NH","address":"310 Daniel Webster Hwy","name":""},
  {"lat":41.64223,"lon":-70.996178,"city":"North Dartmouth","state":"MA","address":"412-418 St. Rd. 6","name":""},
  {"lat":42.622475,"lon":-71.317787,"city":"Lowell","state":"MA","address":"199 Plain St., Unit 5","name":""},
  {"lat":42.953899,"lon":-71.439181,"city":"Manchester","state":"NH","address":"1525 S. Willow St","name":""},
  {"lat":42.767509,"lon":-71.231821,"city":"Salem","state":"NH","address":"99 Rockingham Park Blvd, E173","name":""},
  {"lat":42.401234,"lon":-71.069774,"city":"Everett","state":"MA","address":"29 Mystic View Rd.","name":""},
  {"lat":42.743522,"lon":-71.15892,"city":"Methuen","state":"MA","address":"90 Pleasant Valley Rd.","name":""},
  {"lat":61.194871,"lon":-149.878139,"city":"Anchorage","state":"AK","address":"308 E. Northern Lights Blvd.","name":""},
  {"lat":21.32237,"lon":-157.874882,"city":"Honolulu","state":"HI","address":"1199 Dillingham Blvd, #A103","name":""},
  {"lat":21.331647,"lon":-158.082957,"city":"Kapolei","state":"HI","address":"700 Haumea Street","name":""}]}