{"key":"churchs_chicken","displayName":"Church's Chicken","category":"restaurant","useLocationName":false,"locations":[
  {"lat":30.241969,"lon":-92.104667,"city":"Scott","state":"LA","address":"1701 St. Mary Street","name":""},
  {"lat":38.641986,"lon":-90.229133,"city":"St. Louis","state":"MO","address":"920 N. Grand Boulevard","name":""},
  {"lat":30.027234,"lon":-95.380293,"city":"Humble","state":"TX","address":"21502 Aldine Westfield Road","name":""},
  {"lat":31.450182,"lon":-83.506976,"city":"Tifton","state":"GA","address":"306 E. 5th Street","name":""},
  {"lat":29.639351,"lon":-95.582345,"city":"Stafford","state":"TX","address":"12602 S.W. Freeway","name":""},
  {"lat":41.588763,"lon":-87.336583,"city":"Gary","state":"IN","address":"1409 S. Broadway","name":""},
  {"lat":29.920421,"lon":-95.445859,"city":"Houston","state":"TX","address":"10186 Veterans Memorial Drive","name":""},
  {"lat":30.284964,"lon":-89.777485,"city":"Slidell","state":"LA","address":"195 Gause Boulevard","name":""},
  {"lat":25.941677,"lon":-97.538676,"city":"Brownsville","state":"TX","address":"1650 Military Highway 281","name":""},
  {"lat":25.969184,"lon":-97.514525,"city":"Brownsville","state":"TX","address":"4395 Frontage Road","name":""},
  {"lat":31.33583,"lon":-94.717719,"city":"Lufkin","state":"TX","address":"101 S. Timberland Drive","name":""},
  {"lat":36.138865,"lon":-96.105988,"city":"Sand Springs","state":"OK","address":"301 W. Second Street","name":""},
  {"lat":29.381631,"lon":-100.905447,"city":"Del Rio","state":"TX","address":"1900 Veterans Boulevard","name":""},
  {"lat":41.751226,"lon":-87.626788,"city":"Chicago","state":"IL","address":"58 W. 79th Street","name":""},
  {"lat":41.601174,"lon":-87.636885,"city":"Harvey","state":"IL","address":"333 E. 159th Street","name":""},
  {"lat":33.727132,"lon":-90.547271,"city":"Ruleville","state":"MS","address":"301 N. Oak Avenue","name":""},
  {"lat":29.939586,"lon":-95.283223,"city":"Humble","state":"TX","address":"15050 Old Humble Road","name":""},
  {"lat":47.243618,"lon":-122.36157,"city":"Fife","state":"WA","address":"5003 Pacific Highway E.","name":""},
  {"lat":30.432447,"lon":-84.301819,"city":"Tallahassee","state":"FL","address":"817 Lake Bradford","name":""},
  {"lat":37.693186,"lon":-97.390032,"city":"Wichita","state":"KS","address":"601 N. West Street","name":""},
  {"lat":35.492962,"lon":-97.653743,"city":"Bethany","state":"OK","address":"7960 N.W. 23rd Street","name":""},
  {"lat":32.388281,"lon":-95.274358,"city":"Tyler","state":"TX","address":"1212 E. N.E. Loop 323","name":""},
  {"lat":36.062653,"lon":-95.957383,"city":"Tulsa","state":"OK","address":"6919 S. Lewis Avenue","name":""},
  {"lat":34.612007,"lon":-92.496986,"city":"Bryant","state":"AR","address":"1901 N. Reynolds Road","name":""},
  {"lat":41.294872,"lon":-96.178012,"city":"Omaha","state":"NE","address":"4042 N. 168th Street","name":""},
  {"lat":32.287091,"lon":-110.963585,"city":"Tucson","state":"AZ","address":"565 E. Wetmore Road","name":""},
  {"lat":32.137377,"lon":-81.247238,"city":"Pooler","state":"GA","address":"101 Tanger Outlets Boulevard","name":""},
  {"lat":32.970153,"lon":-80.012473,"city":"Goose Creek","state":"SC","address":"1270 Red Bank Road","name":""},
  {"lat":37.649271,"lon":-97.331576,"city":"Wichita","state":"KS","address":"593 E. Pawnee Street","name":""},
  {"lat":28.472048,"lon":-81.410496,"city":"Orlando","state":"FL","address":"2414 W. Oak Ridge Road","name":""},
  {"lat":31.784153,"lon":-85.958163,"city":"Troy","state":"AL","address":"1108 US-231 S.","name":""},
  {"lat":29.231977,"lon":-98.789652,"city":"Lytle","state":"TX","address":"19353 McDonald Street","name":""},
  {"lat":29.776473,"lon":-95.292081,"city":"Houston","state":"TX","address":"1533 N. Wayside Drive","name":""},
  {"lat":29.333023,"lon":-96.093825,"city":"Wharton","state":"TX","address":"2400 N. Richmond Road","name":""},
  {"lat":34.213911,"lon":-92.013051,"city":"Pine Bluff","state":"AR","address":"1500 S. Cherry Street","name":""},
  {"lat":29.847366,"lon":-95.30259,"city":"Houston","state":"TX","address":"9403 Homestead Road","name":""},
  {"lat":30.189765,"lon":-92.012686,"city":"Lafayette","state":"LA","address":"108 E. Kaliste Saloom Road","name":""},
  {"lat":29.919704,"lon":-93.911134,"city":"Port Arthur","state":"TX","address":"1849 Jefferson Drive","name":""},
  {"lat":34.353713,"lon":-82.918477,"city":"Hartwell","state":"GA","address":"776 E. Franklin Street","name":""},
  {"lat":34.691427,"lon":-79.902194,"city":"Cheraw","state":"SC","address":"114 Chesterfield Highway","name":""},
  {"lat":41.279771,"lon":-96.0532,"city":"Omaha","state":"NE","address":"2310 N. 90th Street","name":""},
  {"lat":39.646662,"lon":-86.829208,"city":"Greencastle","state":"IN","address":"46 Putnam Plaza","name":""},
  {"lat":37.664997,"lon":-97.291248,"city":"Wichita","state":"KS","address":"3824 E. Harry Street","name":""},
  {"lat":43.086277,"lon":-79.063307,"city":"Niagara Falls","state":"NY","address":"310 Rainbow Boulevard","name":""},
  {"lat":33.097541,"lon":-96.105587,"city":"Greenville","state":"TX","address":"7105 I-30 Frontage Road","name":""},
  {"lat":42.929567,"lon":-89.2498,"city":"Stoughton","state":"WI","address":"1324 Nygaard Street","name":""},
  {"lat":39.306435,"lon":-85.216954,"city":"Batesville","state":"IN","address":"912 State Road 229","name":""},
  {"lat":42.712413,"lon":-89.002398,"city":"Janesville","state":"WI","address":"2425 Milton Avenue","name":""},
  {"lat":42.365965,"lon":-89.022436,"city":"Machesney Park","state":"IL","address":"1586 W. Lane Road","name":""},
  {"lat":29.949764,"lon":-95.418378,"city":"Houston","state":"TX","address":"108 W. Greens Road","name":""},
  {"lat":31.111439,"lon":-97.746639,"city":"Killeen","state":"TX","address":"1025 S. Fort Hood Street","name":""},
  {"lat":27.670458,"lon":-97.288335,"city":"Corpus Christi","state":"TX","address":"10101 S. Padre Island Drive","name":""},
  {"lat":38.892173,"lon":-76.951771,"city":"Washington","state":"DC","address":"3780 Minnesota Avenue N.E.","name":""},
  {"lat":32.739714,"lon":-103.147588,"city":"Hobbs","state":"NM","address":"1005 W. Joe Harvey Boulevard","name":""},
  {"lat":31.072404,"lon":-97.709211,"city":"Killeen","state":"TX","address":"3825 E. Stan Schlueter Loop","name":""},
  {"lat":32.530387,"lon":-96.821222,"city":"Red Oak","state":"TX","address":"100 Harris Avenue","name":""},
  {"lat":31.770437,"lon":-95.637914,"city":"Palestine","state":"TX","address":"419 W. Palestine Avenue","name":""},
  {"lat":33.464737,"lon":-94.408044,"city":"New Boston","state":"TX","address":"400 N. McCoy Boulevard","name":""},
  {"lat":28.816318,"lon":-97.858003,"city":"Kenedy","state":"TX","address":"110 N. Sunset Strip Street","name":""},
  {"lat":30.043934,"lon":-99.145147,"city":"Kerrville","state":"TX","address":"206 Sidney Baker Street S.","name":""},
  {"lat":33.776905,"lon":-84.565935,"city":"Austell","state":"GA","address":"351 Six Flags Drive","name":""},
  {"lat":34.296611,"lon":-83.820795,"city":"Gainesville","state":"GA","address":"600 EE Butler Parkway","name":""},
  {"lat":29.691131,"lon":-95.201291,"city":"Pasadena","state":"TX","address":"929 E. Southmore Avenue","name":""},
  {"lat":33.457544,"lon":-90.650919,"city":"Indianola","state":"MS","address":"103 Highway 82 E.","name":""},
  {"lat":27.719096,"lon":-97.362525,"city":"Corpus Christi","state":"TX","address":"735 Lum Street","name":""},
  {"lat":27.797251,"lon":-97.427747,"city":"Corpus Christi","state":"TX","address":"3502A Leopard Street","name":""},
  {"lat":27.224087,"lon":-98.144883,"city":"Falfurrias","state":"TX","address":"304 S. St. Marys Street","name":""},
  {"lat":30.196774,"lon":-92.074244,"city":"Lafayette","state":"LA","address":"4154 W. Congress Street","name":""},
  {"lat":37.708663,"lon":-97.281217,"city":"Wichita","state":"KS","address":"4780 E. 13th Street N.","name":""},
  {"lat":30.214919,"lon":-95.279015,"city":"Conroe","state":"TX","address":"16145 FM 1485","name":""},
  {"lat":29.689259,"lon":-95.123105,"city":"Deer Park","state":"TX","address":"102 E. San Augustine Street","name":""},
  {"lat":30.006819,"lon":-95.280857,"city":"Humble","state":"TX","address":"9475 FM 1960","name":""},
  {"lat":26.895917,"lon":-99.264292,"city":"Zapata","state":"TX","address":"101 Highway 83","name":""},
  {"lat":25.912966,"lon":-97.511112,"city":"Brownsville","state":"TX","address":"535 W. Elizabeth Street","name":""},
  {"lat":31.841323,"lon":-106.57818,"city":"El Paso","state":"TX","address":"8028 N. Mesa Street","name":""},
  {"lat":36.837646,"lon":-76.307535,"city":"Portsmouth","state":"VA","address":"350 Effingham Street","name":""},
  {"lat":29.701071,"lon":-95.376653,"city":"Houston","state":"TX","address":"3207 Old Spanish Trail","name":""},
  {"lat":29.850524,"lon":-95.510883,"city":"Houston","state":"TX","address":"7895 A West Tidwell Road","name":""},
  {"lat":27.763003,"lon":-97.410808,"city":"Corpus Christi","state":"TX","address":"2901 Ayers Street","name":""},
  {"lat":28.83151,"lon":-96.984905,"city":"Victoria","state":"TX","address":"4305 N. Ben Jordan Street","name":""},
  {"lat":28.088126,"lon":-97.820579,"city":"Mathis","state":"TX","address":"904 E. San Patricio Avenue","name":""},
  {"lat":27.309271,"lon":-98.677881,"city":"Hebbronville","state":"TX","address":"406 N. Smith Avenue","name":""},
  {"lat":27.762334,"lon":-98.233335,"city":"San Diego","state":"TX","address":"602 E. Gravis Avenue","name":""},
  {"lat":25.566608,"lon":-80.380741,"city":"Homestead","state":"FL","address":"21595 S. Dixie Highway","name":""},
  {"lat":39.784054,"lon":-104.809272,"city":"Denver","state":"CO","address":"4820 Chambers Road","name":""},
  {"lat":29.898721,"lon":-95.411451,"city":"Houston","state":"TX","address":"9404 N. Freeway 45","name":""},
  {"lat":33.027706,"lon":-96.992498,"city":"Lewisville","state":"TX","address":"1298 Highway 121","name":""},
  {"lat":27.502245,"lon":-99.506889,"city":"Laredo","state":"TX","address":"1108 Zaragoza Street","name":""},
  {"lat":36.156897,"lon":-109.56741,"city":"Chinle","state":"AZ","address":"Indian Route 7","name":""},
  {"lat":35.0227,"lon":-110.695634,"city":"Winslow","state":"AZ","address":"300 E. Second Street","name":""},
  {"lat":32.303372,"lon":-95.30222,"city":"Tyler","state":"TX","address":"105 N. N.W. Loop 323","name":""},
  {"lat":35.116196,"lon":-106.586734,"city":"Albuquerque","state":"NM","address":"2937 San Mateo Boulevard N.E.","name":""},
  {"lat":35.108524,"lon":-106.51596,"city":"Albuquerque","state":"NM","address":"2307 Juan Tabo Boulevard N.E.","name":""},
  {"lat":32.484855,"lon":-93.709597,"city":"Shreveport","state":"LA","address":"1046 Shreveport Barksdale Highway","name":""},
  {"lat":32.402878,"lon":-93.804276,"city":"Shreveport","state":"LA","address":"9190 Mansfield Road","name":""},
  {"lat":31.287039,"lon":-92.474411,"city":"Alexandria","state":"LA","address":"1275 MacArthur Drive","name":""},
  {"lat":39.825938,"lon":-86.085442,"city":"Indianapolis","state":"IN","address":"5044 E. 38th Street","name":""},
  {"lat":37.938681,"lon":-121.285514,"city":"Stockton","state":"CA","address":"110 Doctor M.L.K. Jr. Boulevard","name":""},
  {"lat":33.901584,"lon":-118.318176,"city":"Gardena","state":"CA","address":"2206 W. Rosecrans Avenue","name":""},
  {"lat":33.903677,"lon":-118.208078,"city":"Compton","state":"CA","address":"1415 E. Rosecrans Avenue","name":""},
  {"lat":32.359258,"lon":-95.309891,"city":"Tyler","state":"TX","address":"822 W. Gentry Parkway","name":""},
  {"lat":29.140084,"lon":-98.150892,"city":"Floresville","state":"TX","address":"1317 10th Street","name":""},
  {"lat":33.418712,"lon":-110.815058,"city":"Miami","state":"AZ","address":"2080 US Highway 60","name":""},
  {"lat":32.988098,"lon":-96.57613,"city":"Sachse","state":"TX","address":"7360 Highway 78","name":""},
  {"lat":34.140906,"lon":-117.990483,"city":"Monrovia","state":"CA","address":"701 E. Huntington Drive","name":""},
  {"lat":30.311417,"lon":-97.706603,"city":"Austin","state":"TX","address":"5339 Cameron Road","name":""},
  {"lat":30.072182,"lon":-90.496656,"city":"LaPlace","state":"LA","address":"1601 W. Airline Highway","name":""},
  {"lat":33.993518,"lon":-118.283117,"city":"Los Angeles","state":"CA","address":"5325 S. Figueroa Street","name":""},
  {"lat":29.918099,"lon":-95.669148,"city":"Houston","state":"TX","address":"16902 Tuckerton Road","name":""},
  {"lat":31.106417,"lon":-97.710574,"city":"Killeen","state":"TX","address":"2616 E. Veterans Memorial Boulevard","name":""},
  {"lat":31.486638,"lon":-87.32681,"city":"Monroeville","state":"AL","address":"2948 S. Alabama Avenue","name":""},
  {"lat":29.467559,"lon":-98.391647,"city":"Kirby","state":"TX","address":"5096 FM 78","name":""},
  {"lat":29.469146,"lon":-98.57073,"city":"San Antonio","state":"TX","address":"1615 Bandera Road","name":""},
  {"lat":32.591322,"lon":-96.680458,"city":"Wilmer","state":"TX","address":"103 I-45 Frontage Road","name":""},
  {"lat":32.880019,"lon":-96.630458,"city":"Garland","state":"TX","address":"3028 S. First Street","name":""},
  {"lat":29.730578,"lon":-99.077256,"city":"Bandera","state":"TX","address":"1014 Main Street","name":""},
  {"lat":28.968741,"lon":-98.478539,"city":"Pleasanton","state":"TX","address":"1018 Second Street","name":""},
  {"lat":29.139698,"lon":-98.905814,"city":"Devine","state":"TX","address":"109 S. Teal Avenue","name":""},
  {"lat":39.06911,"lon":-94.578683,"city":"Kansas City","state":"MO","address":"3145 Gillham Plaza","name":""},
  {"lat":32.613716,"lon":-97.117866,"city":"Arlington","state":"TX","address":"8106 Matlock Road","name":""},
  {"lat":41.787655,"lon":-87.62595,"city":"Chicago","state":"IL","address":"6 W. 59th Street","name":""},
  {"lat":33.75121,"lon":-84.733152,"city":"Douglasville","state":"GA","address":"6135 Fairburn Road","name":""},
  {"lat":33.60346,"lon":-83.854516,"city":"Covington","state":"GA","address":"3275 Highway 278","name":""},
  {"lat":29.870224,"lon":-95.400945,"city":"Houston","state":"TX","address":"202 W. Little York Road","name":""},
  {"lat":32.843237,"lon":-90.387424,"city":"Yazoo City","state":"MS","address":"258 Jerry Clower Boulevard N.","name":""},
  {"lat":33.509192,"lon":-112.186723,"city":"Phoenix","state":"AZ","address":"5901 W. Camelback Road","name":""},
  {"lat":30.010696,"lon":-90.267112,"city":"Kenner","state":"LA","address":"3111 Loyola Drive","name":""},
  {"lat":29.587658,"lon":-98.378521,"city":"San Antonio","state":"TX","address":"15171 Judson Road","name":""},
  {"lat":32.794935,"lon":-96.775136,"city":"Dallas","state":"TX","address":"4210 Gaston Avenue","name":""},
  {"lat":30.648858,"lon":-88.158661,"city":"Mobile","state":"AL","address":"5017 Cottage Hill Road","name":""},
  {"lat":32.736774,"lon":-96.918049,"city":"Dallas","state":"TX","address":"820 S. Walton Walker Boulevard","name":""},
  {"lat":32.847366,"lon":-96.595858,"city":"Garland","state":"TX","address":"5602 Broadway Boulevard","name":""},
  {"lat":26.403422,"lon":-99.015162,"city":"Roma","state":"TX","address":"207 Grant Street","name":""},
  {"lat":26.136865,"lon":-80.174767,"city":"Fort Lauderdale","state":"FL","address":"2401 W. Sunrise Boulevard","name":""},
  {"lat":33.917688,"lon":-117.236899,"city":"Moreno Valley","state":"CA","address":"24440-A Alessandro Boulevard","name":""},
  {"lat":33.975337,"lon":-117.35242,"city":"Riverside","state":"CA","address":"1886 University Avenue","name":""},
  {"lat":35.096475,"lon":-90.05532,"city":"Memphis","state":"TN","address":"1868 S. 3rd Street","name":""},
  {"lat":32.800778,"lon":-80.018222,"city":"Charleston","state":"SC","address":"1829 Sam Rittenberg Boulevard","name":""},
  {"lat":32.616779,"lon":-117.070072,"city":"Chula Vista","state":"CA","address":"1005 Third Avenue","name":""},
  {"lat":34.063499,"lon":-80.958246,"city":"Columbia","state":"SC","address":"7116 Two Notch Road","name":""},
  {"lat":27.748787,"lon":-82.679712,"city":"Saint Petersburg","state":"FL","address":"2195 34th Street South","name":""},
  {"lat":35.210971,"lon":-80.78168,"city":"Charlotte","state":"NC","address":"3217 Eastway Drive","name":""},
  {"lat":36.728857,"lon":-108.217902,"city":"Farmington","state":"NM","address":"745 W. Main Street","name":""},
  {"lat":29.96526,"lon":-90.032335,"city":"New Orleans","state":"LA","address":"4301 St. Claude Avenue","name":""},
  {"lat":35.564761,"lon":-97.549425,"city":"Oklahoma City","state":"OK","address":"9253 N. Pennsylvania Avenue","name":""},
  {"lat":38.702308,"lon":-90.29325,"city":"Normandy","state":"MO","address":"7215 Natural Bridge Road","name":""},
  {"lat":29.939956,"lon":-95.38382,"city":"Houston","state":"TX","address":"743 North Sam Houston Parkway East","name":""},
  {"lat":33.504866,"lon":-86.856597,"city":"Birmingham","state":"AL","address":"1145 3rd Avenue West","name":""},
  {"lat":29.957915,"lon":-95.475224,"city":"Houston","state":"TX","address":"12004 Veterans Memorial Drive","name":""},
  {"lat":32.811201,"lon":-96.994274,"city":"Irving","state":"TX","address":"333 S. Belt Line Road","name":""},
  {"lat":32.910039,"lon":-96.85895,"city":"Dallas","state":"TX","address":"3601 Forest Lane","name":""},
  {"lat":26.37164,"lon":-98.799826,"city":"Rio Grande City","state":"TX","address":"U.S. Business Hwy 83 and Starr Plaza","name":""},
  {"lat":34.967652,"lon":-81.941587,"city":"Spartanburg","state":"SC","address":"880 N. Church Street","name":""},
  {"lat":35.992234,"lon":-78.868318,"city":"Durham","state":"NC","address":"942 N. Miami Boulevard","name":""},
  {"lat":28.521776,"lon":-99.85651,"city":"Carrizo Springs","state":"TX","address":"203 First Street","name":""},
  {"lat":41.768652,"lon":-87.682979,"city":"Chicago","state":"IL","address":"6849 S. Western Avenue","name":""},
  {"lat":33.047215,"lon":-85.029517,"city":"LaGrange","state":"GA","address":"213 N.E. Franklin Road","name":""},
  {"lat":32.464399,"lon":-84.920677,"city":"Columbus","state":"GA","address":"4256 Buena Vista Road","name":""},
  {"lat":32.473198,"lon":-85.029133,"city":"Phenix City","state":"AL","address":"1306 U.S. 280 Bypass","name":""},
  {"lat":30.241193,"lon":-94.195253,"city":"Lumberton","state":"TX","address":"795 S. Main Street","name":""},
  {"lat":29.831647,"lon":-95.211316,"city":"Houston","state":"TX","address":"12512 Highway 90","name":""},
  {"lat":31.575736,"lon":-84.156372,"city":"Albany","state":"GA","address":"401 W. Oglethorpe Boulevard","name":""},
  {"lat":30.832497,"lon":-83.275158,"city":"Valdosta","state":"GA","address":"320 E. Hill Avenue","name":""},
  {"lat":32.071554,"lon":-84.215822,"city":"Americus","state":"GA","address":"1322 E. Lamar Street","name":""},
  {"lat":29.888602,"lon":-95.062834,"city":"Crosby","state":"TX","address":"13821 FM 2100","name":""},
  {"lat":32.940505,"lon":-96.76961,"city":"Dallas","state":"TX","address":"14115 Coit Road","name":""},
  {"lat":26.190521,"lon":-98.121665,"city":"Alamo","state":"TX","address":"1045 W. Frontage Road","name":""},
  {"lat":26.174643,"lon":-97.675641,"city":"Harlingen","state":"TX","address":"1714 S. 77 Sunshine Strip","name":""},
  {"lat":32.182924,"lon":-94.339306,"city":"Carthage","state":"TX","address":"1039 U.S. Highway 59 N.","name":""},
  {"lat":29.559878,"lon":-95.330677,"city":"Pearland","state":"TX","address":"7201 W. Broadway Street","name":""},
  {"lat":28.665291,"lon":-99.182896,"city":"Dilley","state":"TX","address":"16220 IH 35 S.","name":""},
  {"lat":33.112008,"lon":-90.046353,"city":"Lexington","state":"MS","address":"308 Depot Street","name":""},
  {"lat":33.596289,"lon":-112.218327,"city":"Peoria","state":"AZ","address":"7410 W. Cactus Road","name":""},
  {"lat":27.916466,"lon":-97.163776,"city":"Aransas Pass","state":"TX","address":"1901 W. Wheeler Avenue","name":""},
  {"lat":28.329271,"lon":-98.114538,"city":"George West","state":"TX","address":"212 Nueces St","name":""},
  {"lat":32.518997,"lon":-93.69535,"city":"Bossier City","state":"LA","address":"1868 Airline Drive","name":""},
  {"lat":25.894752,"lon":-80.243897,"city":"Opa-locka","state":"FL","address":"13200 N.W. 27th Avenue","name":""},
  {"lat":29.793218,"lon":-95.775526,"city":"Katy","state":"TX","address":"1410 W. Grand Parkway","name":""},
  {"lat":29.516768,"lon":-95.480567,"city":"Fresno","state":"TX","address":"12320 Highway 6","name":""},
  {"lat":29.588002,"lon":-98.63168,"city":"San Antonio","state":"TX","address":"7307 N. Loop 1604 W.","name":""},
  {"lat":31.430447,"lon":-86.958915,"city":"Evergreen","state":"AL","address":"312 E. Front Street","name":""},
  {"lat":30.157276,"lon":-96.393066,"city":"Brenham","state":"TX","address":"1041 S. Market Street","name":""},
  {"lat":32.909495,"lon":-96.736458,"city":"Dallas","state":"TX","address":"9363 Forest Lane","name":""},
  {"lat":32.634454,"lon":-97.344883,"city":"Fort Worth","state":"TX","address":"1701 Sycamore School Road","name":""},
  {"lat":34.682846,"lon":-90.37637,"city":"Tunica","state":"MS","address":"1124 U.S. 61","name":""},
  {"lat":32.385435,"lon":-106.716126,"city":"Las Cruces","state":"NM","address":"5021 Bataan Memorial W.","name":""},
  {"lat":30.132465,"lon":-94.192416,"city":"Beaumont","state":"TX","address":"7525 Highway 105","name":""},
  {"lat":28.805682,"lon":-97.005527,"city":"Victoria","state":"TX","address":"209 W. Rio Grande Street","name":""},
  {"lat":32.309071,"lon":-86.350248,"city":"Montgomery","state":"AL","address":"4770 Mobile Highway","name":""},
  {"lat":32.326736,"lon":-86.258007,"city":"Montgomery","state":"AL","address":"2450 E. South Blvd","name":""},
  {"lat":29.865249,"lon":-95.721249,"city":"Katy","state":"TX","address":"6201 N. Fry Road","name":""},
  {"lat":29.46795,"lon":-98.602177,"city":"San Antonio","state":"TX","address":"4414 Callaghan Road","name":""},
  {"lat":25.933363,"lon":-80.244515,"city":"Miami Gardens","state":"FL","address":"17495 N.W. 27th Avenue","name":""},
  {"lat":26.21385,"lon":-98.315501,"city":"Mission","state":"TX","address":"905 E. U.S. Highway 83","name":""},
  {"lat":30.435686,"lon":-81.674819,"city":"Jacksonville","state":"FL","address":"1855 Dunn Avenue","name":""},
  {"lat":30.246882,"lon":-81.798676,"city":"Jacksonville","state":"FL","address":"8820 W. 103rd Street","name":""},
  {"lat":38.812593,"lon":-94.499286,"city":"Belton","state":"MO","address":"7925 E. 171st Street","name":""},
  {"lat":33.715369,"lon":-84.216257,"city":"Decatur","state":"GA","address":"2473 Wesley Chapel Road","name":""},
  {"lat":29.611301,"lon":-95.267153,"city":"Houston","state":"TX","address":"10658 Monroe Road","name":""},
  {"lat":29.59805,"lon":-95.352456,"city":"Houston","state":"TX","address":"14455 Cullen Boulevard","name":""},
  {"lat":33.596064,"lon":-112.134469,"city":"Phoenix","state":"AZ","address":"12040 N. 35th Avenue","name":""},
  {"lat":33.480873,"lon":-112.151214,"city":"Phoenix","state":"AZ","address":"4296 W. Thomas Road","name":""},
  {"lat":32.348855,"lon":-90.874269,"city":"Vicksburg","state":"MS","address":"1320 Clay Street","name":""},
  {"lat":31.339531,"lon":-109.561353,"city":"Douglas","state":"AZ","address":"94 5th Street","name":""},
  {"lat":30.002753,"lon":-90.042432,"city":"New Orleans","state":"LA","address":"4030 Chef Menteur Highway","name":""},
  {"lat":39.853653,"lon":-104.97842,"city":"Thornton","state":"CO","address":"8661 N. Washington Street","name":""},
  {"lat":30.677488,"lon":-88.053678,"city":"Mobile","state":"AL","address":"465 S. Broad Street","name":""},
  {"lat":38.539739,"lon":-121.449458,"city":"Sacramento","state":"CA","address":"3801 Stockton Boulevard","name":""},
  {"lat":35.745386,"lon":-95.363454,"city":"Muskogee","state":"OK","address":"415 E. Okmulgee Street","name":""},
  {"lat":31.661447,"lon":-106.296065,"city":"Socorro","state":"TX","address":"10009 Alameda Avenue","name":""},
  {"lat":29.952781,"lon":-95.546482,"city":"Houston","state":"TX","address":"8255-A Mills Road","name":""},
  {"lat":29.430179,"lon":-98.748814,"city":"San Antonio","state":"TX","address":"12845 Potranco Road","name":""},
  {"lat":39.080933,"lon":-94.4529,"city":"Independence","state":"MO","address":"10610 E. 23rd Street S.","name":""},
  {"lat":33.458993,"lon":-112.047956,"city":"Phoenix","state":"AZ","address":"1546 E. Roosevelt Street","name":""},
  {"lat":32.355414,"lon":-90.181423,"city":"Jackson","state":"MS","address":"327 W. Northside Drive","name":""},
  {"lat":31.687575,"lon":-89.13568,"city":"Laurel","state":"MS","address":"325 Beacon Street","name":""},
  {"lat":33.892708,"lon":-118.296588,"city":"Gardena","state":"CA","address":"1203 West Redondo Beach Boulevard","name":""},
  {"lat":30.380002,"lon":-89.091338,"city":"Gulfport","state":"MS","address":"2321 Pass Road","name":""},
  {"lat":29.510638,"lon":-98.535453,"city":"San Antonio","state":"TX","address":"2602 N.W. Loop 410","name":""},
  {"lat":39.819931,"lon":-84.198751,"city":"Dayton","state":"OH","address":"5711 N. Dixie Road","name":""},
  {"lat":31.938309,"lon":-106.40885,"city":"El Paso","state":"TX","address":"11388 Gateway Blvd N.","name":""},
  {"lat":34.752025,"lon":-77.4444,"city":"Jacksonville","state":"NC","address":"244 S. Marine Boulevard","name":""},
  {"lat":28.054719,"lon":-81.955671,"city":"Lakeland","state":"FL","address":"215 W. Memorial Boulevard","name":""},
  {"lat":38.994328,"lon":-94.471933,"city":"Raytown","state":"MO","address":"9310 E. Highway 350","name":""},
  {"lat":39.014931,"lon":-95.677125,"city":"Topeka","state":"KS","address":"201 S.E. 29th Street","name":""},
  {"lat":29.79409,"lon":-95.342439,"city":"Houston","state":"TX","address":"3501 Jensen Drive","name":""},
  {"lat":33.422602,"lon":-82.020565,"city":"Augusta","state":"GA","address":"2701 Peach Orchard Road","name":""},
  {"lat":32.011254,"lon":-102.078296,"city":"Midland","state":"TX","address":"1400 N. Big Springs Street","name":""},
  {"lat":34.680279,"lon":-92.343413,"city":"Little Rock","state":"AR","address":"7621 Geyer Springs Road","name":""},
  {"lat":39.813247,"lon":-104.903982,"city":"Commerce City","state":"CO","address":"7295 E. 64th Avenue","name":""},
  {"lat":25.824956,"lon":-80.215335,"city":"Miami","state":"FL","address":"1155 N.W. 54th Street","name":""},
  {"lat":32.464557,"lon":-99.739851,"city":"Abilene","state":"TX","address":"1309 Grape Street","name":""},
  {"lat":29.418134,"lon":-98.644803,"city":"San Antonio","state":"TX","address":"7919 Marbach Road","name":""},
  {"lat":25.943975,"lon":-97.426404,"city":"Brownsville","state":"TX","address":"7460 S. Padre Island Highway","name":""},
  {"lat":27.464097,"lon":-99.47645,"city":"Laredo","state":"TX","address":"3615 Highway 83","name":""},
  {"lat":35.999325,"lon":-96.099155,"city":"Sapulpa","state":"OK","address":"2 N. Mission Street","name":""},
  {"lat":38.994149,"lon":-94.71497,"city":"Shawnee","state":"KS","address":"7404 Neiman Road","name":""},
  {"lat":32.861675,"lon":-97.304388,"city":"Fort Worth","state":"TX","address":"3605 Western Center Boulevard","name":""},
  {"lat":43.002779,"lon":-83.731952,"city":"Flint","state":"MI","address":"3410 Corunna Road","name":""},
  {"lat":33.887876,"lon":-118.082195,"city":"Norwalk","state":"CA","address":"15816 Pioneer Boulevard","name":""},
  {"lat":30.459304,"lon":-97.792173,"city":"Austin","state":"TX","address":"13729 Highway 183 N.","name":""},
  {"lat":35.405995,"lon":-97.533144,"city":"Oklahoma City","state":"OK","address":"1012 S.W. 59th Street","name":""},
  {"lat":30.032742,"lon":-93.834881,"city":"Bridge City","state":"TX","address":"1805 Texas Avenue","name":""},
  {"lat":33.614719,"lon":-84.4723,"city":"College Park","state":"GA","address":"5148 Old National Highway","name":""},
  {"lat":33.782699,"lon":-84.237633,"city":"Decatur","state":"GA","address":"4680 Memorial Drive","name":""},
  {"lat":36.069647,"lon":-80.219744,"city":"Winston-Salem","state":"NC","address":"907 Waughtown Street","name":""},
  {"lat":33.509215,"lon":-86.822557,"city":"Birmingham","state":"AL","address":"824 3rd Avenue North","name":""},
  {"lat":29.903218,"lon":-95.315526,"city":"Houston","state":"TX","address":"5125 Aldine Mail Route Road","name":""},
  {"lat":42.365095,"lon":-83.197805,"city":"Detroit","state":"MI","address":"15525 W. Chicago Street","name":""},
  {"lat":32.709094,"lon":-97.006185,"city":"Grand Prairie","state":"TX","address":"401 W. Highway 303","name":""},
  {"lat":26.233594,"lon":-98.356515,"city":"Palmview","state":"TX","address":"1117 E. Veterans Boulevard","name":""},
  {"lat":25.900901,"lon":-97.496862,"city":"Brownsville","state":"TX","address":"1264 E. Washington Street","name":""},
  {"lat":33.387536,"lon":-84.818081,"city":"Newnan","state":"GA","address":"20 Hospital Road","name":""},
  {"lat":32.905553,"lon":-90.878014,"city":"Rolling Fork","state":"MS","address":"102 E. Race Street","name":""},
  {"lat":33.59668,"lon":-112.012719,"city":"Phoenix","state":"AZ","address":"12045 N. 32nd Street","name":""},
  {"lat":33.858536,"lon":-118.116847,"city":"Lakewood","state":"CA","address":"5610 Woodruff Avenue","name":""},
  {"lat":32.22056,"lon":-110.821279,"city":"Tucson","state":"AZ","address":"7980 E. Broadway Boulevard","name":""},
  {"lat":36.747804,"lon":-108.169886,"city":"Farmington","state":"NM","address":"2711 E. 20th Street","name":""},
  {"lat":31.229925,"lon":-85.394566,"city":"Dothan","state":"AL","address":"507 N. Oates Street","name":""},
  {"lat":31.928502,"lon":-87.738091,"city":"Thomasville","state":"AL","address":"1290 W. Front Street N.","name":""},
  {"lat":33.44945,"lon":-86.926915,"city":"Midfield","state":"AL","address":"5410 Bessemer Super Highway","name":""},
  {"lat":29.346553,"lon":-98.614864,"city":"San Antonio","state":"TX","address":"8459 Five Palms Drive","name":""},
  {"lat":41.064651,"lon":-81.571764,"city":"Akron","state":"OH","address":"1391 Vernon Odom Boulevard","name":""},
  {"lat":39.690075,"lon":-105.025471,"city":"Denver","state":"CO","address":"1445 S. Federal Boulevard","name":""},
  {"lat":26.170588,"lon":-98.055826,"city":"Donna","state":"TX","address":"719 Hooks Street","name":""},
  {"lat":26.29309,"lon":-97.991833,"city":"Elsa","state":"TX","address":"130 E. Edinburg Avenue","name":""},
  {"lat":31.766387,"lon":-106.414027,"city":"El Paso","state":"TX","address":"6101 Alameda Avenue","name":""},
  {"lat":39.142684,"lon":-94.70619,"city":"Kansas City","state":"KS","address":"5501 Leavenworth Road","name":""},
  {"lat":34.062256,"lon":-117.741227,"city":"Pomona","state":"CA","address":"500 E. Holt Avenue","name":""},
  {"lat":30.374948,"lon":-81.714758,"city":"Jacksonville","state":"FL","address":"3007 Edgewood Avenue W.","name":""},
  {"lat":35.0912,"lon":-89.930627,"city":"Memphis","state":"TN","address":"1486 Getwell Road","name":""},
  {"lat":33.578321,"lon":-101.955347,"city":"Lubbock","state":"TX","address":"6410 19th Street","name":""},
  {"lat":41.852142,"lon":-87.695664,"city":"Chicago","state":"IL","address":"2806 W. Cermak Road","name":""},
  {"lat":33.508507,"lon":-112.342826,"city":"Litchfield Park","state":"AZ","address":"13144 W. Camelback Road","name":""},
  {"lat":38.630023,"lon":-90.093397,"city":"Washington Park","state":"IL","address":"5520 Caseyville Avenue","name":""},
  {"lat":33.389403,"lon":-112.134422,"city":"Phoenix","state":"AZ","address":"6260 S. 35th Avenue","name":""},
  {"lat":34.811189,"lon":-106.742658,"city":"Los Lunas","state":"NM","address":"703 Main St S.E.","name":""},
  {"lat":32.206649,"lon":-110.907523,"city":"Tucson","state":"AZ","address":"3970 E. 22nd Street","name":""},
  {"lat":29.481128,"lon":-95.399707,"city":"Manvel","state":"TX","address":"17510 Morris Avenue","name":""},
  {"lat":30.841502,"lon":-83.973899,"city":"Thomasville","state":"GA","address":"448 E. Jackson Street","name":""},
  {"lat":30.704459,"lon":-88.224736,"city":"Mobile","state":"AL","address":"670 N. Schillinger Road","name":""},
  {"lat":39.884833,"lon":-86.210873,"city":"Indianapolis","state":"IN","address":"2910 Westlane Road","name":""},
  {"lat":38.796805,"lon":-90.338328,"city":"Florissant","state":"MO","address":"410 N. Lindbergh Boulevard","name":""},
  {"lat":26.150268,"lon":-97.915732,"city":"Mercedes","state":"TX","address":"515 W. 2nd Street","name":""},
  {"lat":39.042958,"lon":-94.435091,"city":"Independence","state":"MO","address":"12003 E. US Highway 40","name":""},
  {"lat":27.963313,"lon":-82.40134,"city":"Tampa","state":"FL","address":"2301 N. 50th Street","name":""},
  {"lat":29.821563,"lon":-95.525474,"city":"Houston","state":"TX","address":"9481 Kempwood Drive","name":""},
  {"lat":33.377997,"lon":-112.073717,"city":"Phoenix","state":"AZ","address":"7444 S. Central Avenue","name":""},
  {"lat":34.19534,"lon":-90.563973,"city":"Clarksdale","state":"MS","address":"611 N. State Street","name":""},
  {"lat":33.466226,"lon":-112.204773,"city":"Phoenix","state":"AZ","address":"6730 W. McDowell Road","name":""},
  {"lat":33.509913,"lon":-112.100497,"city":"Phoenix","state":"AZ","address":"1906 W. Camelback Road","name":""},
  {"lat":41.638221,"lon":-83.663685,"city":"Toledo","state":"OH","address":"5 S. Reynolds Road","name":""},
  {"lat":38.532881,"lon":-90.287174,"city":"St. Louis","state":"MO","address":"1200 Lemay Ferry Road","name":""},
  {"lat":29.92014,"lon":-95.4931,"city":"Houston","state":"TX","address":"13648 Highway 249","name":""},
  {"lat":47.316886,"lon":-122.313801,"city":"Federal Way","state":"WA","address":"31717 Pacific Highway","name":""},
  {"lat":26.481604,"lon":-97.775777,"city":"Raymondville","state":"TX","address":"694 E. Hildalgo Avenue","name":""},
  {"lat":36.119495,"lon":-95.85156,"city":"Tulsa","state":"OK","address":"3036 S. Garnett Road","name":""},
  {"lat":38.882827,"lon":-94.788504,"city":"Olathe","state":"KS","address":"124 N. Clairborne Road","name":""},
  {"lat":34.120992,"lon":-117.279095,"city":"San Bernardino","state":"CA","address":"299 E. Baseline Street","name":""},
  {"lat":34.107134,"lon":-117.352559,"city":"Rialto","state":"CA","address":"912 E. Foothill Boulevard","name":""},
  {"lat":31.448847,"lon":-96.076971,"city":"Buffalo","state":"TX","address":"2430 W. Commerce Street","name":""},
  {"lat":41.808846,"lon":-87.670258,"city":"Chicago","state":"IL","address":"1808 W. 47th Street","name":""},
  {"lat":41.882279,"lon":-87.839309,"city":"Maywood","state":"IL","address":"600 S. 5th Avenue","name":""},
  {"lat":29.770542,"lon":-95.205775,"city":"Houston","state":"TX","address":"12802 E. Freeway","name":""},
  {"lat":38.541887,"lon":-90.022287,"city":"Belleville","state":"IL","address":"4525 N. Belt West","name":""},
  {"lat":39.827756,"lon":-86.009609,"city":"Indianapolis","state":"IN","address":"3863 N. Post Road","name":""},
  {"lat":39.722963,"lon":-86.13988,"city":"Indianapolis","state":"IN","address":"2964 Shelby Street","name":""},
  {"lat":38.765945,"lon":-90.260593,"city":"Ferguson","state":"MO","address":"10646 New Halls Ferry Road","name":""},
  {"lat":32.868263,"lon":-96.882832,"city":"Dallas","state":"TX","address":"10545 Harry Hines Boulevard","name":""},
  {"lat":29.884939,"lon":-95.474527,"city":"Houston","state":"TX","address":"8011 Antoine Drive","name":""},
  {"lat":29.519301,"lon":-98.668184,"city":"San Antonio","state":"TX","address":"9405 Guilbeau Road","name":""},
  {"lat":29.66494,"lon":-95.161153,"city":"Pasadena","state":"TX","address":"5234 Spencer Highway","name":""},
  {"lat":26.163995,"lon":-97.823777,"city":"La Feria","state":"TX","address":"716 N. Main Highway","name":""},
  {"lat":27.518556,"lon":-99.449068,"city":"Laredo","state":"TX","address":"2333 Bob Bullock Loop","name":""},
  {"lat":30.489274,"lon":-94.995456,"city":"Shepherd","state":"TX","address":"6280 Highway 59 S.","name":""},
  {"lat":30.964426,"lon":-95.88407,"city":"Madisonville","state":"TX","address":"3002 E. Main Street","name":""},
  {"lat":31.700257,"lon":-106.323024,"city":"El Paso","state":"TX","address":"338 N. Zaragoza Road","name":""},
  {"lat":34.09183,"lon":-117.434622,"city":"Fontana","state":"CA","address":"8909 Sierra Avenue","name":""},
  {"lat":32.372182,"lon":-96.098617,"city":"Mabank","state":"TX","address":"521 N. 3rd. Street","name":""},
  {"lat":35.845692,"lon":-90.683058,"city":"Jonesboro","state":"AR","address":"1902 E. Johnson Avenue","name":""},
  {"lat":32.705399,"lon":-97.098062,"city":"Arlington","state":"TX","address":"2302 S. Collins Street","name":""},
  {"lat":36.126541,"lon":-115.20769,"city":"Las Vegas","state":"NV","address":"4880 Spring Mountain Road","name":""},
  {"lat":32.317119,"lon":-90.28247,"city":"Jackson","state":"MS","address":"5673 Mississippi Highway 18","name":""},
  {"lat":34.737222,"lon":-92.289067,"city":"Little Rock","state":"AR","address":"1401 Dr. Martin Luther King Drive","name":""},
  {"lat":27.738744,"lon":-97.407457,"city":"Corpus Christi","state":"TX","address":"3140 Gollihar Road","name":""},
  {"lat":31.31625,"lon":-86.462706,"city":"Andalusia","state":"AL","address":"1518 E. 3 Notch Street","name":""},
  {"lat":38.660109,"lon":-90.218003,"city":"St. Louis","state":"MO","address":"3525 N. Grand Boulevard","name":""},
  {"lat":31.081638,"lon":-97.772793,"city":"Killeen","state":"TX","address":"2100 W. Stan Schlueter Loop","name":""},
  {"lat":30.67768,"lon":-96.369148,"city":"Bryan","state":"TX","address":"507 N. Texas Avenue","name":""},
  {"lat":26.174779,"lon":-97.990603,"city":"Weslaco","state":"TX","address":"1308 N. Texas Street","name":""},
  {"lat":36.048118,"lon":-95.796928,"city":"Broken Arrow","state":"OK","address":"415 S. Elm Place","name":""},
  {"lat":39.103187,"lon":-94.640976,"city":"Kansas City","state":"KS","address":"1222 Central Avenue","name":""},
  {"lat":29.569129,"lon":-97.968884,"city":"Seguin","state":"TX","address":"404 W. Court Street","name":""},
  {"lat":34.834014,"lon":-82.405478,"city":"Greenville","state":"SC","address":"900 Augusta Street","name":""},
  {"lat":32.794891,"lon":-97.29017,"city":"Haltom City","state":"TX","address":"3900 N.E. 28th Street","name":""},
  {"lat":27.96039,"lon":-82.771465,"city":"Clearwater","state":"FL","address":"1575 Gulf-to-Bay Boulevard","name":""},
  {"lat":39.211493,"lon":-94.576572,"city":"Gladstone","state":"MO","address":"6416 N. Oak Trafficway","name":""},
  {"lat":39.187735,"lon":-94.525561,"city":"Kansas City","state":"MO","address":"4601 N.E. Vivion Road","name":""},
  {"lat":41.70757,"lon":-87.618266,"city":"Chicago","state":"IL","address":"200 E. 103rd Street","name":""},
  {"lat":33.582486,"lon":-112.099314,"city":"Phoenix","state":"AZ","address":"1840 W. Peoria Avenue","name":""},
  {"lat":32.261221,"lon":-90.220982,"city":"Jackson","state":"MS","address":"3061 Terry Road","name":""},
  {"lat":30.085272,"lon":-94.134108,"city":"Beaumont","state":"TX","address":"3095 Calder Avenue","name":""},
  {"lat":32.719275,"lon":-96.829958,"city":"Dallas","state":"TX","address":"2410 S. Zang Boulevard","name":""},
  {"lat":33.609908,"lon":-86.687776,"city":"Birmingham","state":"AL","address":"9929 Parkway East","name":""},
  {"lat":32.351461,"lon":-86.312132,"city":"Montgomery","state":"AL","address":"311 W. Fairview Avenue","name":""},
  {"lat":32.953236,"lon":-96.884083,"city":"Carrollton","state":"TX","address":"2020 E. Belt Line Road","name":""},
  {"lat":26.194629,"lon":-98.184425,"city":"Pharr","state":"TX","address":"10 S. Cage Boulevard","name":""},
  {"lat":26.189885,"lon":-98.205292,"city":"Pharr","state":"TX","address":"801 S. Jackson Road","name":""},
  {"lat":25.906378,"lon":-97.48242,"city":"Brownsville","state":"TX","address":"2121 International Boulevard","name":""},
  {"lat":33.538284,"lon":-112.177639,"city":"Glendale","state":"AZ","address":"5505 W. Glendale Avenue","name":""},
  {"lat":33.494277,"lon":-112.220251,"city":"Phoenix","state":"AZ","address":"7451 W. Indian School Road","name":""},
  {"lat":33.480741,"lon":-112.013343,"city":"Phoenix","state":"AZ","address":"3150 E. Thomas Road","name":""},
  {"lat":33.451823,"lon":-112.131853,"city":"Phoenix","state":"AZ","address":"3350 W. Van Buren Street","name":""},
  {"lat":31.341143,"lon":-110.934717,"city":"Nogales","state":"AZ","address":"546 N. Grand Avenue","name":""},
  {"lat":33.466016,"lon":-111.917818,"city":"Scottsdale","state":"AZ","address":"7538 E. McDowell Road","name":""},
  {"lat":31.990053,"lon":-102.114959,"city":"Midland","state":"TX","address":"202 N. Midkiff Road","name":""},
  {"lat":28.406582,"lon":-97.752313,"city":"Beeville","state":"TX","address":"611 N.E. Washington Street","name":""},
  {"lat":35.348548,"lon":-97.512561,"city":"Moore","state":"OK","address":"1235 N. Santa Fe Street","name":""},
  {"lat":36.061442,"lon":-79.785068,"city":"Greensboro","state":"NC","address":"611 Martin Luther King Jr. Drive","name":""},
  {"lat":32.834369,"lon":-96.673899,"city":"Dallas","state":"TX","address":"10295 Ferguson Road","name":""},
  {"lat":33.399839,"lon":-86.950424,"city":"Bessemer","state":"AL","address":"1801 Carolina Avenue","name":""},
  {"lat":41.877406,"lon":-87.671223,"city":"Chicago","state":"IL","address":"1755 W. Jackson Boulevard","name":""},
  {"lat":38.653021,"lon":-90.263689,"city":"St. Louis","state":"MO","address":"805 N. Kingshighway Boulevard","name":""},
  {"lat":39.803699,"lon":-86.121173,"city":"Indianapolis","state":"IN","address":"2501 N. Keystone Avenue","name":""},
  {"lat":35.662285,"lon":-109.060793,"city":"Window Rock","state":"AZ","address":"Junction State Route 264 and Route 12","name":""},
  {"lat":32.683364,"lon":-114.625034,"city":"Yuma","state":"AZ","address":"2420 S. 4th Avenue","name":""},
  {"lat":31.730081,"lon":-106.297147,"city":"El Paso","state":"TX","address":"1350 Zaragoza Road","name":""},
  {"lat":32.745805,"lon":-97.21873,"city":"Fort Worth","state":"TX","address":"6500 Meadow Brook Drive","name":""},
  {"lat":32.736955,"lon":-97.232806,"city":"Fort Worth","state":"TX","address":"5662 E. Lancaster Avenue","name":""},
  {"lat":39.097692,"lon":-94.412655,"city":"Independence","state":"MO","address":"701 N. Noland Road","name":""},
  {"lat":33.586827,"lon":-101.854779,"city":"Lubbock","state":"TX","address":"905 Avenue Q","name":""},
  {"lat":32.796197,"lon":-115.570344,"city":"El Centro","state":"CA","address":"480 N. Imperial Avenue","name":""},
  {"lat":33.450249,"lon":-112.351391,"city":"Goodyear","state":"AZ","address":"13554 W. Van Buren Street","name":""},
  {"lat":35.082993,"lon":-106.698484,"city":"Albuquerque","state":"NM","address":"5407 Central Avenue N.W.","name":""},
  {"lat":35.134549,"lon":-106.641703,"city":"Albuquerque","state":"NM","address":"5112 Fourth Street N.W.","name":""},
  {"lat":35.061754,"lon":-106.644863,"city":"Albuquerque","state":"NM","address":"2100 Broadway S.E.","name":""},
  {"lat":31.880164,"lon":-102.383774,"city":"Odessa","state":"TX","address":"3800 Andrews Highway","name":""},
  {"lat":28.539788,"lon":-81.396917,"city":"Orlando","state":"FL","address":"1234 W. Church Street","name":""},
  {"lat":30.348658,"lon":-91.028308,"city":"Baton Rouge","state":"LA","address":"18149 Highland Road","name":""},
  {"lat":30.701988,"lon":-88.11534,"city":"Mobile","state":"AL","address":"3171 Moffatt Road","name":""},
  {"lat":42.409685,"lon":-83.100662,"city":"Highland Park","state":"MI","address":"15101 Woodward Avenue","name":""},
  {"lat":33.559879,"lon":-86.729828,"city":"Birmingham","state":"AL","address":"7529 1st Avenue North","name":""},
  {"lat":29.585619,"lon":-90.699896,"city":"Houma","state":"LA","address":"750 Grand Caillou Road","name":""},
  {"lat":30.486737,"lon":-90.457097,"city":"Hammond","state":"LA","address":"1610 S.W. Railroad Avenue","name":""},
  {"lat":32.700664,"lon":-96.648146,"city":"Dallas","state":"TX","address":"10201 C.F. Hawn Freeway","name":""},
  {"lat":32.591078,"lon":-96.856725,"city":"DeSoto","state":"TX","address":"114 N. Hampton Road","name":""},
  {"lat":26.299835,"lon":-98.153961,"city":"Edinburg","state":"TX","address":"820 E. University Drive","name":""},
  {"lat":38.495468,"lon":-121.472698,"city":"Sacramento","state":"CA","address":"2980 Florin Road","name":""},
  {"lat":31.57585,"lon":-106.261299,"city":"San Elizario","state":"TX","address":"13296 Socorro Road","name":""},
  {"lat":30.267834,"lon":-98.861471,"city":"Fredericksburg","state":"TX","address":"614 E. Main Street","name":""},
  {"lat":38.95525,"lon":-94.506161,"city":"Kansas City","state":"MO","address":"9325 Blue Ridge Boulevard","name":""},
  {"lat":41.909943,"lon":-87.746574,"city":"Chicago","state":"IL","address":"4812 W. North Avenue","name":""},
  {"lat":38.104457,"lon":-122.234163,"city":"Vallejo","state":"CA","address":"1920 Solano Avenue","name":""},
  {"lat":33.506259,"lon":-90.192456,"city":"Greenwood","state":"MS","address":"349 Highway 82 W.","name":""},
  {"lat":32.559269,"lon":-83.884072,"city":"Fort Valley","state":"GA","address":"100 Vineville Street","name":""},
  {"lat":28.988388,"lon":-96.649214,"city":"Edna","state":"TX","address":"110 E. Houston Highway","name":""},
  {"lat":29.669024,"lon":-95.642549,"city":"Sugar Land","state":"TX","address":"10017 S. Texas 6","name":""},
  {"lat":32.489249,"lon":-92.084632,"city":"Monroe","state":"LA","address":"1613 Arizona Avenue","name":""},
  {"lat":26.159415,"lon":-97.991858,"city":"Weslaco","state":"TX","address":"205 W. Business 83","name":""},
  {"lat":26.073953,"lon":-97.226699,"city":"Port Isabel","state":"TX","address":"1748 East TX 100","name":""},
  {"lat":33.439607,"lon":-94.042809,"city":"Texarkana","state":"AR","address":"1700 N. State Line Avenue","name":""},
  {"lat":33.481471,"lon":-112.254201,"city":"Phoenix","state":"AZ","address":"9024 W. Thomas Road","name":""},
  {"lat":29.981811,"lon":-90.071249,"city":"New Orleans","state":"LA","address":"2506 St. Bernard Avenue","name":""},
  {"lat":33.680818,"lon":-84.394922,"city":"Atlanta","state":"GA","address":"200 Cleveland Avenue S.W.","name":""},
  {"lat":32.555475,"lon":-93.610249,"city":"Haughton","state":"LA","address":"1310 Highway 80 E.","name":""},
  {"lat":32.510661,"lon":-92.102583,"city":"Monroe","state":"LA","address":"1690 Desiard Street","name":""},
  {"lat":31.102551,"lon":-87.073802,"city":"Brewton","state":"AL","address":"90 South Boulevard","name":""},
  {"lat":30.563245,"lon":-88.214879,"city":"Theodore","state":"AL","address":"7370 Old Pascagoula Road","name":""},
  {"lat":29.447917,"lon":-98.556545,"city":"San Antonio","state":"TX","address":"2856 Culebra Road","name":""},
  {"lat":32.704304,"lon":-96.799623,"city":"Dallas","state":"TX","address":"3605 S. Lancaster Road","name":""},
  {"lat":32.721249,"lon":-96.874796,"city":"Dallas","state":"TX","address":"2509 S. Westmoreland Road","name":""},
  {"lat":32.734341,"lon":-96.622384,"city":"Balch Springs","state":"TX","address":"11913 Lake June Road","name":""},
  {"lat":39.760768,"lon":-84.2537,"city":"Dayton","state":"OH","address":"1113 N. Gettysburg Avenue","name":""},
  {"lat":33.782887,"lon":-118.176628,"city":"Long Beach","state":"CA","address":"1199 E. Anaheim Street","name":""},
  {"lat":33.804127,"lon":-118.190419,"city":"Long Beach","state":"CA","address":"2533 Long Beach Boulevard","name":""},
  {"lat":37.830622,"lon":-122.264422,"city":"Oakland","state":"CA","address":"4155 Telegraph Avenue","name":""},
  {"lat":37.765362,"lon":-122.176789,"city":"Oakland","state":"CA","address":"7301 Bancroft Avenue","name":""},
  {"lat":33.715723,"lon":-84.349975,"city":"Atlanta","state":"GA","address":"1405 Moreland Avenue S.E.","name":""},
  {"lat":30.253793,"lon":-93.180217,"city":"Lake Charles","state":"LA","address":"1220 Highway 171 N.","name":""},
  {"lat":32.452696,"lon":-99.771411,"city":"Abilene","state":"TX","address":"4026 N. 1st Street","name":""},
  {"lat":29.40934,"lon":-98.40513,"city":"San Antonio","state":"TX","address":"1318 S. WW White Rd","name":""},
  {"lat":29.523435,"lon":-98.600571,"city":"San Antonio","state":"TX","address":"8757 Huebner Road","name":""},
  {"lat":29.830924,"lon":-94.804394,"city":"Baytown","state":"TX","address":"16151 W. Interstate 10 E.","name":""},
  {"lat":39.826486,"lon":-86.238116,"city":"Indianapolis","state":"IN","address":"3970 Lafayette Road","name":""},
  {"lat":26.200977,"lon":-97.682877,"city":"Harlingen","state":"TX","address":"819 N. 13th Street","name":""},
  {"lat":39.763092,"lon":-94.80421,"city":"St. Joseph","state":"MO","address":"502 S. Belt Highway","name":""},
  {"lat":35.029436,"lon":-90.024754,"city":"Memphis","state":"TN","address":"4360 Elvis Presley Boulevard","name":""},
  {"lat":34.039105,"lon":-81.040161,"city":"Columbia","state":"SC","address":"4000 N. Main Street","name":""},
  {"lat":29.713848,"lon":-95.539402,"city":"Houston","state":"TX","address":"6000 S. Gessner Road","name":""},
  {"lat":29.828716,"lon":-95.394101,"city":"Houston","state":"TX","address":"425 Crosstimbers Street","name":""},
  {"lat":29.894211,"lon":-90.124918,"city":"Marrero","state":"LA","address":"7020 Westbank Expressway","name":""},
  {"lat":35.354261,"lon":-119.017065,"city":"Bakersfield","state":"CA","address":"1300 Brundage Lane","name":""},
  {"lat":32.296073,"lon":-90.228174,"city":"Jackson","state":"MS","address":"1264 Ellis Avenue","name":""},
  {"lat":32.181303,"lon":-110.968651,"city":"Tucson","state":"AZ","address":"3602 S. 6th Avenue","name":""},
  {"lat":31.788462,"lon":-102.478822,"city":"Odessa","state":"TX","address":"10490 W. Interstate 20","name":""},
  {"lat":38.727863,"lon":-90.343291,"city":"St. Louis","state":"MO","address":"4401 Marshall Road","name":""},
  {"lat":29.557722,"lon":-95.117827,"city":"League City","state":"TX","address":"1201 Bay Area Boulevard","name":""},
  {"lat":32.816471,"lon":-96.872754,"city":"Dallas","state":"TX","address":"1035 W. Mockingbird Lane","name":""},
  {"lat":32.821699,"lon":-96.835359,"city":"Dallas","state":"TX","address":"2516 Inwood Road","name":""},
  {"lat":27.562808,"lon":-99.473099,"city":"Laredo","state":"TX","address":"6701 McPherson Road","name":""},
  {"lat":31.698779,"lon":-106.213371,"city":"Horizon City","state":"TX","address":"13658 Eastlake Blvd","name":""},
  {"lat":34.835609,"lon":-82.367617,"city":"Greenville","state":"SC","address":"302 S. Pleasantburg Drive","name":""},
  {"lat":38.998258,"lon":-94.556566,"city":"Kansas City","state":"MO","address":"2600 E. Gregory Boulevard","name":""},
  {"lat":36.854291,"lon":-76.263312,"city":"Norfolk","state":"VA","address":"2308 E. Princess Anne Road","name":""},
  {"lat":28.025486,"lon":-82.562744,"city":"Tampa","state":"FL","address":"7502 W. Waters Avenue","name":""},
  {"lat":28.009065,"lon":-82.122168,"city":"Plant City","state":"FL","address":"703 S. Collins Street","name":""},
  {"lat":29.71611,"lon":-95.476093,"city":"Houston","state":"TX","address":"6008 Chimney Rock Road","name":""},
  {"lat":31.563324,"lon":-91.351441,"city":"Natchez","state":"MS","address":"510 Highway 61 North","name":""},
  {"lat":35.321262,"lon":-106.552661,"city":"Bernalillo","state":"NM","address":"404 Highway 550","name":""},
  {"lat":35.537608,"lon":-108.759365,"city":"Gallup","state":"NM","address":"1015 N. Highway 491","name":""},
  {"lat":31.849021,"lon":-102.391442,"city":"Odessa","state":"TX","address":"1336 N. County Road W.","name":""},
  {"lat":29.366671,"lon":-98.442346,"city":"San Antonio","state":"TX","address":"1923 Goliad Road","name":""},
  {"lat":39.418275,"lon":-87.694145,"city":"Marshall","state":"IL","address":"2003 Illinois Highway 1","name":""},
  {"lat":29.357638,"lon":-98.548213,"city":"San Antonio","state":"TX","address":"3119 S.W. Military Drive","name":""},
  {"lat":32.603657,"lon":-96.818432,"city":"Lancaster","state":"TX","address":"3160 W. Pleasant Run Road","name":""},
  {"lat":28.047038,"lon":-99.348811,"city":"Encinal","state":"TX","address":"43 E. Texas State Highway 44","name":""},
  {"lat":26.072021,"lon":-97.488961,"city":"Los Fresnos","state":"TX","address":"731 W. Ocean Boulevard","name":""},
  {"lat":31.186466,"lon":-94.781193,"city":"Diboll","state":"TX","address":"208 N. Temple Drive","name":""},
  {"lat":31.769762,"lon":-106.258808,"city":"El Paso","state":"TX","address":"2112 N. Zaragoza Road","name":""},
  {"lat":34.06309,"lon":-117.641088,"city":"Ontario","state":"CA","address":"700 E. Holt Boulevard","name":""},
  {"lat":35.216808,"lon":-89.988972,"city":"Memphis","state":"TN","address":"2237 Frayser Boulevard","name":""},
  {"lat":33.329407,"lon":-91.291221,"city":"Lake Village","state":"AR","address":"315 Highway 65 and 82","name":""},
  {"lat":39.051021,"lon":-95.714667,"city":"Topeka","state":"KS","address":"3001 S.W. 10th Avenue","name":""},
  {"lat":34.000317,"lon":-118.33023,"city":"Los Angeles","state":"CA","address":"4720 Crenshaw Boulevard","name":""},
  {"lat":39.779652,"lon":-86.287486,"city":"Indianapolis","state":"IN","address":"7224 W. 10th Street","name":""},
  {"lat":29.781143,"lon":-95.950877,"city":"Brookshire","state":"TX","address":"205 Waller Avenue","name":""},
  {"lat":30.466537,"lon":-90.956156,"city":"Denham Springs","state":"LA","address":"1504 S. Range Avenue","name":""},
  {"lat":29.414836,"lon":-98.460936,"city":"San Antonio","state":"TX","address":"430 S. New Braunfels Avenue","name":""},
  {"lat":29.481752,"lon":-98.66055,"city":"San Antonio","state":"TX","address":"8995 Grissom Road","name":""},
  {"lat":29.508521,"lon":-98.308188,"city":"Converse","state":"TX","address":"9090 FM 78","name":""},
  {"lat":30.538072,"lon":-96.695844,"city":"Caldwell","state":"TX","address":"253 Highway 36 N.","name":""},
  {"lat":32.706989,"lon":-96.278814,"city":"Terrell","state":"TX","address":"1592 State Highway 34 S.","name":""},
  {"lat":25.949075,"lon":-97.502045,"city":"Brownsville","state":"TX","address":"1104 Ruben M. Torres Boulevard","name":""},
  {"lat":32.878286,"lon":-96.517556,"city":"Rowlett","state":"TX","address":"1700 Dalrock Road","name":""},
  {"lat":33.920245,"lon":-80.344929,"city":"Sumter","state":"SC","address":"202 W. Liberty Street","name":""},
  {"lat":29.693586,"lon":-95.328322,"city":"Houston","state":"TX","address":"5600 Mykawa Road","name":""},
  {"lat":33.469829,"lon":-82.064597,"city":"Augusta","state":"GA","address":"3223 Wrightsboro Road","name":""},
  {"lat":32.522578,"lon":-84.887892,"city":"Columbus","state":"GA","address":"6001 Miller Road","name":""},
  {"lat":35.075427,"lon":-106.74276,"city":"Albuquerque","state":"NM","address":"140 98th Street","name":""},
  {"lat":32.327144,"lon":-90.192064,"city":"Jackson","state":"MS","address":"238 W. Woodrow Wilson Avenue","name":""},
  {"lat":29.903352,"lon":-90.02989,"city":"Gretna","state":"LA","address":"601 Terry Parkway","name":""},
  {"lat":29.484451,"lon":-98.398249,"city":"San Antonio","state":"TX","address":"4747 Rittiman Road","name":""},
  {"lat":32.802729,"lon":-96.712273,"city":"Dallas","state":"TX","address":"8080 Ferguson Road","name":""},
  {"lat":33.681745,"lon":-84.418958,"city":"East Point","state":"GA","address":"911 Cleveland Avenue","name":""},
  {"lat":33.043093,"lon":-96.683023,"city":"Plano","state":"TX","address":"2300 E. Parker Road","name":""},
  {"lat":26.197319,"lon":-98.231467,"city":"McAllen","state":"TX","address":"620 S. 10th Street","name":""},
  {"lat":31.886936,"lon":-106.583701,"city":"El Paso","state":"TX","address":"6451 S. Desert Boulevard","name":""},
  {"lat":33.522174,"lon":-80.883067,"city":"Orangeburg","state":"SC","address":"2396 Chestnut Street","name":""},
  {"lat":36.044733,"lon":-115.244017,"city":"Las Vegas","state":"NV","address":"7925 S. Rainbow Boulevard","name":""},
  {"lat":33.399018,"lon":-91.044704,"city":"Greenville","state":"MS","address":"509 Highway 82 E.","name":""},
  {"lat":31.229673,"lon":-90.452326,"city":"McComb","state":"MS","address":"100 E. Presley Boulevard","name":""},
  {"lat":30.497924,"lon":-97.657103,"city":"Round Rock","state":"TX","address":"1500 S. A.W. Grimes Boulevard","name":""},
  {"lat":35.492611,"lon":-97.369833,"city":"Midwest City","state":"OK","address":"9010 N.E. 23rd Street","name":""},
  {"lat":32.644075,"lon":-85.348879,"city":"Opelika","state":"AL","address":"1200 Columbus Parkway","name":""},
  {"lat":29.652655,"lon":-95.063649,"city":"La Porte","state":"TX","address":"10901 Fairmont Parkway","name":""},
  {"lat":32.691581,"lon":-96.856375,"city":"Dallas","state":"TX","address":"2317 W. Ledbetter Drive","name":""},
  {"lat":29.325166,"lon":-98.552033,"city":"San Antonio","state":"TX","address":"2502 Palo Alto Road","name":""},
  {"lat":29.403463,"lon":-98.705456,"city":"San Antonio","state":"TX","address":"2840 W. Loop 1604 S.","name":""},
  {"lat":33.457901,"lon":-86.960105,"city":"Dolomite","state":"AL","address":"794 Allison-Bonnett Memorial Drive","name":""},
  {"lat":33.562532,"lon":-86.78295,"city":"Birmingham","state":"AL","address":"4009 Vanderbilt Road","name":""},
  {"lat":29.51551,"lon":-98.757643,"city":"San Antonio","state":"TX","address":"13323 Culebra Road","name":""},
  {"lat":29.173028,"lon":-95.416536,"city":"Angleton","state":"TX","address":"1341 E. Mulberry Street","name":""},
  {"lat":28.646388,"lon":-100.421749,"city":"Eagle Pass","state":"TX","address":"6995 FM 1021","name":""},
  {"lat":37.22602,"lon":-77.403096,"city":"Petersburg","state":"VA","address":"108 S. Sycamore Street","name":""},
  {"lat":29.736576,"lon":-95.347435,"city":"Houston","state":"TX","address":"3503 Gulf Freeway","name":""},
  {"lat":32.754999,"lon":-117.118195,"city":"San Diego","state":"CA","address":"3495 El Cajon Boulevard","name":""},
  {"lat":36.770182,"lon":-108.140387,"city":"Farmington","state":"NM","address":"5455 E. Main Street","name":""},
  {"lat":28.624171,"lon":-96.636148,"city":"Port Lavaca","state":"TX","address":"206 State Highway 35 S.","name":""},
  {"lat":30.295163,"lon":-92.027418,"city":"Lafayette","state":"LA","address":"105 W. Gloria Switch Road","name":""},
  {"lat":32.699287,"lon":-87.596432,"city":"Greensboro","state":"AL","address":"1411 State Street","name":""},
  {"lat":32.381791,"lon":-86.17793,"city":"Montgomery","state":"AL","address":"6826 Atlanta Highway","name":""},
  {"lat":29.598241,"lon":-95.526441,"city":"Missouri City","state":"TX","address":"1949 FM 2234","name":""},
  {"lat":29.356977,"lon":-98.484541,"city":"San Antonio","state":"TX","address":"1003 S.E. Military Drive","name":""},
  {"lat":31.480109,"lon":-100.457241,"city":"San Angelo","state":"TX","address":"2301 N. Bryant Boulevard","name":""},
  {"lat":26.24667,"lon":-98.472247,"city":"La Joya","state":"TX","address":"678 E. Highway 83","name":""},
  {"lat":26.101998,"lon":-98.267047,"city":"Hidalgo","state":"TX","address":"500 S. International Boulevard","name":""},
  {"lat":30.320342,"lon":-95.464874,"city":"Conroe","state":"TX","address":"1203 N. Frazier Street","name":""},
  {"lat":35.780353,"lon":-78.617413,"city":"Raleigh","state":"NC","address":"1401 New Bern Avenue","name":""},
  {"lat":32.127762,"lon":-81.169422,"city":"Port Wentworth","state":"GA","address":"456 Bourne Avenue","name":""},
  {"lat":30.306658,"lon":-81.749199,"city":"Jacksonville","state":"FL","address":"5870 Normandy Boulevard","name":""},
  {"lat":32.388161,"lon":-95.274408,"city":"Tyler","state":"TX","address":"120 S. S.E. Loop 323","name":""},
  {"lat":33.759822,"lon":-96.536935,"city":"Denison","state":"TX","address":"501 N. Austin Avenue","name":""},
  {"lat":35.175043,"lon":-89.980276,"city":"Memphis","state":"TN","address":"2304 Chelsea Avenue","name":""},
  {"lat":33.887696,"lon":-84.286677,"city":"Chamblee","state":"GA","address":"4995 Buford Highway","name":""},
  {"lat":34.506151,"lon":-117.3462,"city":"Victorville","state":"CA","address":"14507 Palmdale Road","name":""},
  {"lat":36.986175,"lon":-76.424328,"city":"Newport News","state":"VA","address":"3215 Jefferson Avenue","name":""},
  {"lat":29.691998,"lon":-95.528492,"city":"Houston","state":"TX","address":"8015 Beechnut Street","name":""},
  {"lat":27.751225,"lon":-98.06362,"city":"Alice","state":"TX","address":"1104 E. Main Street","name":""},
  {"lat":29.56838,"lon":-95.779602,"city":"Rosenberg","state":"TX","address":"4823 Avenue H","name":""},
  {"lat":30.249961,"lon":-92.034627,"city":"Lafayette","state":"LA","address":"1602 N. University Avenue","name":""},
  {"lat":36.158894,"lon":-115.207511,"city":"Las Vegas","state":"NV","address":"4851 W. Charleston Boulevard","name":""},
  {"lat":26.206527,"lon":-98.153025,"city":"San Juan","state":"TX","address":"1612 N. Raul Longoria Rd","name":""},
  {"lat":26.335144,"lon":-98.156957,"city":"Edinburg","state":"TX","address":"3469 North Business 281","name":""},
  {"lat":26.227119,"lon":-97.719382,"city":"Harlingen","state":"TX","address":"2310 TX-499 Loop","name":""},
  {"lat":31.755614,"lon":-106.487606,"city":"El Paso","state":"TX","address":"119 E. Paisano Drive","name":""},
  {"lat":32.500791,"lon":-94.73603,"city":"Longview","state":"TX","address":"217 E. Marshall Avenue","name":""},
  {"lat":33.091559,"lon":-80.030301,"city":"Moncks Corner","state":"SC","address":"2800 Highway 52","name":""},
  {"lat":32.796453,"lon":-79.940336,"city":"Charleston","state":"SC","address":"492 Meeting Street","name":""},
  {"lat":32.852362,"lon":-97.08526,"city":"Euless","state":"TX","address":"230 W. Harwood Road","name":""},
  {"lat":33.933992,"lon":-83.957052,"city":"Lawrenceville","state":"GA","address":"970 New Hope Road","name":""},
  {"lat":34.041879,"lon":-117.949082,"city":"La Puente","state":"CA","address":"1180 N. Hacienda Boulevard","name":""},
  {"lat":34.063175,"lon":-118.036141,"city":"El Monte","state":"CA","address":"10967 Garvey Avenue","name":""},
  {"lat":34.085913,"lon":-117.965205,"city":"Baldwin Park","state":"CA","address":"14155 Ramona Boulevard","name":""},
  {"lat":35.493056,"lon":-97.582163,"city":"Oklahoma City","state":"OK","address":"3610 N.W. 23rd Street","name":""},
  {"lat":35.478497,"lon":-97.600652,"city":"Oklahoma City","state":"OK","address":"4438 N.W. 10th Street","name":""},
  {"lat":42.410189,"lon":-83.140024,"city":"Detroit","state":"MI","address":"16100 Livernois","name":""},
  {"lat":33.563479,"lon":-86.895115,"city":"Birmingham","state":"AL","address":"1428 Forestdale Boulevard","name":""},
  {"lat":39.76471,"lon":-104.941007,"city":"Denver","state":"CO","address":"3401 Colorado Boulevard","name":""},
  {"lat":42.331416,"lon":-83.131792,"city":"Detroit","state":"MI","address":"7060 Michigan Avenue","name":""},
  {"lat":26.18933,"lon":-97.705084,"city":"Harlingen","state":"TX","address":"921 W. Tyler Avenue","name":""},
  {"lat":25.922388,"lon":-97.485722,"city":"Brownsville","state":"TX","address":"2395 Boca Chica Boulevard","name":""},
  {"lat":26.137363,"lon":-97.624318,"city":"San Benito","state":"TX","address":"295 E. Highway 77","name":""},
  {"lat":31.791742,"lon":-106.331412,"city":"El Paso","state":"TX","address":"3395 N. Yarbrough Drive","name":""},
  {"lat":31.841007,"lon":-81.601931,"city":"Hinesville","state":"GA","address":"447 E. G. Miles Parkway","name":""},
  {"lat":32.85379,"lon":-79.973873,"city":"North Charleston","state":"SC","address":"3303 Rivers Avenue","name":""},
  {"lat":28.708388,"lon":-100.494111,"city":"Eagle Pass","state":"TX","address":"1430 Main Street","name":""},
  {"lat":32.353774,"lon":-97.388222,"city":"Cleburne","state":"TX","address":"616 N. Main Street","name":""},
  {"lat":27.515407,"lon":-97.860834,"city":"Kingsville","state":"TX","address":"635 E. King Avenue","name":""},
  {"lat":32.820954,"lon":-85.211546,"city":"Valley","state":"AL","address":"608 Fob James Drive","name":""},
  {"lat":47.387202,"lon":-122.29677,"city":"Des Moines","state":"WA","address":"23839 Pacific Highway S.","name":""},
  {"lat":32.662257,"lon":-96.904511,"city":"Duncanville","state":"TX","address":"201 E. Camp Wisdom Road","name":""},
  {"lat":32.77406,"lon":-96.598759,"city":"Mesquite","state":"TX","address":"728 N. Galloway Avenue","name":""},
  {"lat":31.50916,"lon":-106.150192,"city":"Fabens","state":"TX","address":"102 C C Camp Road","name":""},
  {"lat":29.863205,"lon":-95.458394,"city":"Houston","state":"TX","address":"6962 T C Jester Boulevard","name":""},
  {"lat":36.11519,"lon":-115.069185,"city":"Las Vegas","state":"NV","address":"4800 E. Flamingo Road","name":""},
  {"lat":33.732644,"lon":-90.716843,"city":"Cleveland","state":"MS","address":"1000 S. Davis Avenue","name":""},
  {"lat":30.36079,"lon":-97.7163,"city":"Austin","state":"TX","address":"8545 Research Boulevard","name":""},
  {"lat":35.072142,"lon":-106.568946,"city":"Albuquerque","state":"NM","address":"401 Louisiana Boulevard S.E.","name":""},
  {"lat":35.328661,"lon":-94.420326,"city":"Fort Smith","state":"AR","address":"1318 Highway 71 S.","name":""},
  {"lat":33.740422,"lon":-84.413695,"city":"Atlanta","state":"GA","address":"538 Lee Street S.W.","name":""},
  {"lat":32.417572,"lon":-87.023887,"city":"Selma","state":"AL","address":"1208 Broad Street","name":""},
  {"lat":33.959865,"lon":-118.256804,"city":"Los Angeles","state":"CA","address":"1030 E. Manchester Avenue","name":""},
  {"lat":32.51769,"lon":-92.159463,"city":"West Monroe","state":"LA","address":"3426 Cypress Street","name":""},
  {"lat":30.135518,"lon":-95.287573,"city":"Porter","state":"TX","address":"21775 FM 1314","name":""},
  {"lat":30.64726,"lon":-91.148164,"city":"Zachary","state":"LA","address":"5310 Main Street","name":""},
  {"lat":29.923862,"lon":-95.201058,"city":"Houston","state":"TX","address":"13955 E. Sam Houston Parkway N.","name":""},
  {"lat":25.891787,"lon":-97.444929,"city":"Brownsville","state":"TX","address":"4826 Southmost Blvd","name":""},
  {"lat":36.226592,"lon":-95.975984,"city":"Tulsa","state":"OK","address":"5034 N. Peoria Avenue","name":""},
  {"lat":35.079524,"lon":-89.98528,"city":"Memphis","state":"TN","address":"2405 Airway Boulevard","name":""},
  {"lat":35.063145,"lon":-89.906188,"city":"Memphis","state":"TN","address":"3149 Perkins Road","name":""},
  {"lat":33.601516,"lon":-84.429036,"city":"Riverdale","state":"GA","address":"5630 Riverdale Road","name":""},
  {"lat":32.550604,"lon":-117.037013,"city":"San Ysidro","state":"CA","address":"423 E. San Ysidro Boulevard","name":""},
  {"lat":36.071125,"lon":-86.637036,"city":"Antioch","state":"TN","address":"515 Bell Road","name":""},
  {"lat":32.191404,"lon":-110.841543,"city":"Tucson","state":"AZ","address":"7090 E. Golf Links Road","name":""},
  {"lat":33.317855,"lon":-111.841117,"city":"Chandler","state":"AZ","address":"817 N. Arizona Avenue","name":""},
  {"lat":28.784004,"lon":-81.272641,"city":"Sanford","state":"FL","address":"2561 French Avenue","name":""},
  {"lat":35.546112,"lon":-97.612198,"city":"Warr Acres","state":"OK","address":"5590 N.W. Expressway","name":""},
  {"lat":32.684356,"lon":-117.075478,"city":"National City","state":"CA","address":"3040 E. 8th Street","name":""},
  {"lat":42.475943,"lon":-83.083884,"city":"Warren","state":"MI","address":"24990 Dequindre Road","name":""},
  {"lat":32.617849,"lon":-83.636563,"city":"Warner Robins","state":"GA","address":"1801 Watson Boulevard","name":""},
  {"lat":33.706147,"lon":-84.456943,"city":"Atlanta","state":"GA","address":"1796 Delowe Drive","name":""},
  {"lat":33.73853,"lon":-84.43544,"city":"Atlanta","state":"GA","address":"629 Cascade Avenue S.W.","name":""},
  {"lat":36.11096,"lon":-80.241563,"city":"Winston-Salem","state":"NC","address":"1301 Patterson Avenue","name":""},
  {"lat":31.084167,"lon":-97.364164,"city":"Temple","state":"TX","address":"1710 S. 31st Street","name":""},
  {"lat":32.706192,"lon":-96.891968,"city":"Dallas","state":"TX","address":"4411 W. Kiest Boulevard","name":""},
  {"lat":35.171146,"lon":-89.866948,"city":"Memphis","state":"TN","address":"1668 Sycamore View Road","name":""},
  {"lat":36.17544,"lon":-115.061805,"city":"Las Vegas","state":"NV","address":"868 N. Nellis Boulevard","name":""},
  {"lat":32.178311,"lon":-111.001717,"city":"Tucson","state":"AZ","address":"1704 W. Ajo Way","name":""},
  {"lat":29.437358,"lon":-98.679057,"city":"San Antonio","state":"TX","address":"9710 Potranco Road","name":""},
  {"lat":39.128952,"lon":-94.771319,"city":"Kansas City","state":"KS","address":"8234 Parallel Parkway","name":""},
  {"lat":35.149709,"lon":-89.952258,"city":"Memphis","state":"TN","address":"3264 Summer Avenue","name":""},
  {"lat":30.434682,"lon":-87.276033,"city":"Pensacola","state":"FL","address":"4502 Mobile Highway","name":""},
  {"lat":32.907524,"lon":-80.021661,"city":"North Charleston","state":"SC","address":"6138 Rivers Avenue","name":""},
  {"lat":32.857647,"lon":-80.04448,"city":"North Charleston","state":"SC","address":"5343 Dorchester Road","name":""},
  {"lat":29.696459,"lon":-98.131227,"city":"New Braunfels","state":"TX","address":"824 W. San Antonio Street","name":""},
  {"lat":32.573754,"lon":-117.053634,"city":"San Diego","state":"CA","address":"3726 Del Sol Boulevard","name":""},
  {"lat":33.407161,"lon":-112.032461,"city":"Phoenix","state":"AZ","address":"2242 E. Broadway Road","name":""},
  {"lat":30.192486,"lon":-97.738971,"city":"Austin","state":"TX","address":"5309 Nuckols Crossing","name":""},
  {"lat":34.738985,"lon":-92.372682,"city":"Little Rock","state":"AR","address":"1500 John Barrow Road","name":""},
  {"lat":29.101042,"lon":-97.285998,"city":"Cuero","state":"TX","address":"1230 N. Esplanade Street","name":""},
  {"lat":30.010806,"lon":-91.825119,"city":"New Iberia","state":"LA","address":"601 W. St. Peter Street","name":""},
  {"lat":33.206101,"lon":-87.505018,"city":"Tuscaloosa","state":"AL","address":"2501 University Boulevard E.","name":""},
  {"lat":39.739832,"lon":-104.849188,"city":"Aurora","state":"CO","address":"11900 E. Colfax Avenue","name":""},
  {"lat":42.430299,"lon":-83.220259,"city":"Detroit","state":"MI","address":"18138 W. 7 Mile Road","name":""},
  {"lat":47.151156,"lon":-122.504006,"city":"Lakewood","state":"WA","address":"11701 Bridgeport Way","name":""},
  {"lat":38.686423,"lon":-90.362141,"city":"Overland","state":"MO","address":"1753 Woodson Road","name":""},
  {"lat":26.240213,"lon":-98.237855,"city":"McAllen","state":"TX","address":"2205 Nolana Avenue","name":""},
  {"lat":26.233959,"lon":-98.180072,"city":"Pharr","state":"TX","address":"200 W. Nolana Loop","name":""},
  {"lat":35.082975,"lon":-90.019016,"city":"Memphis","state":"TN","address":"2275 Elvis Presley Boulevard","name":""},
  {"lat":29.208718,"lon":-99.787906,"city":"Uvalde","state":"TX","address":"123 W. Main Street","name":""},
  {"lat":33.862912,"lon":-84.596861,"city":"Marietta","state":"GA","address":"3720 Austell Road S.W.","name":""},
  {"lat":33.626872,"lon":-112.39351,"city":"Surprise","state":"AZ","address":"15697 N. Reems Road","name":""},
  {"lat":32.283153,"lon":-90.118571,"city":"Pearl","state":"MS","address":"3056 US Highway 80","name":""},
  {"lat":29.9459,"lon":-90.088085,"city":"New Orleans","state":"LA","address":"1600 S. Claiborne Avenue","name":""},
  {"lat":26.131871,"lon":-98.194087,"city":"Pharr","state":"TX","address":"6409 S. Cage Boulevard","name":""},
  {"lat":29.832399,"lon":-95.569512,"city":"Houston","state":"TX","address":"11778 Clay Road","name":""},
  {"lat":39.95581,"lon":-82.877946,"city":"Whitehall","state":"OH","address":"4488 E. Main Street","name":""},
  {"lat":32.819912,"lon":-83.66239,"city":"Macon","state":"GA","address":"2138 Pio Nono Avenue","name":""},
  {"lat":33.758928,"lon":-84.5041,"city":"Atlanta","state":"GA","address":"3561 Martin Luther King Jr. Drive S.W.","name":""},
  {"lat":33.690347,"lon":-84.508061,"city":"Atlanta","state":"GA","address":"3667 Campbellton Rd S.W.","name":""},
  {"lat":39.773418,"lon":-86.009746,"city":"Indianapolis","state":"IN","address":"8975 E. Washington Street","name":""},
  {"lat":29.855038,"lon":-95.129312,"city":"Houston","state":"TX","address":"17225 Crosby Freeway","name":""},
  {"lat":30.505808,"lon":-91.135783,"city":"Baton Rouge","state":"LA","address":"5460 Airline Highway","name":""},
  {"lat":29.39719,"lon":-98.557595,"city":"San Antonio","state":"TX","address":"1850 S. General McMullen Drive","name":""},
  {"lat":30.457362,"lon":-91.210147,"city":"Port Allen","state":"LA","address":"618 N. Alexander Avenue","name":""},
  {"lat":30.444436,"lon":-91.131176,"city":"Baton Rouge","state":"LA","address":"5728 Government Street","name":""},
  {"lat":32.648051,"lon":-96.533929,"city":"Seagoville","state":"TX","address":"601 Malloy Bridge Road","name":""},
  {"lat":32.916015,"lon":-96.666478,"city":"Garland","state":"TX","address":"2520 W. Walnut Street","name":""},
  {"lat":26.153334,"lon":-97.959235,"city":"Weslaco","state":"TX","address":"3218 US Highway 83","name":""},
  {"lat":26.219386,"lon":-98.261261,"city":"McAllen","state":"TX","address":"3817 Pecan Boulevard","name":""},
  {"lat":26.229547,"lon":-98.325703,"city":"Mission","state":"TX","address":"201 W. Griffin Parkway","name":""},
  {"lat":26.291236,"lon":-98.197349,"city":"Edinburg","state":"TX","address":"1607 S. McColl Road","name":""},
  {"lat":36.278196,"lon":-95.84499,"city":"Owasso","state":"OK","address":"11618 E. 86th Street","name":""},
  {"lat":32.658774,"lon":-97.115553,"city":"Arlington","state":"TX","address":"5410 Matlock Road","name":""},
  {"lat":32.650555,"lon":-97.367213,"city":"Fort Worth","state":"TX","address":"6430 McCart Avenue","name":""},
  {"lat":33.72349,"lon":-84.168436,"city":"Decatur","state":"GA","address":"6102 Covington Highway","name":""},
  {"lat":33.582659,"lon":-84.313279,"city":"Morrow","state":"GA","address":"2347 Lake Harbin Road","name":""},
  {"lat":42.444677,"lon":-83.181264,"city":"Detroit","state":"MI","address":"13611 W. 8 Mile Road","name":""},
  {"lat":32.668494,"lon":-115.498331,"city":"Calexico","state":"CA","address":"344 Imperial Avenue","name":""},
  {"lat":28.068776,"lon":-82.433093,"city":"Tampa","state":"FL","address":"2219 E. Fletcher Avenue","name":""},
  {"lat":33.896381,"lon":-84.210267,"city":"Norcross","state":"GA","address":"6111 S. Norcross Tucker Road","name":""},
  {"lat":33.949648,"lon":-84.550735,"city":"Marietta","state":"GA","address":"75 S. Marietta Parkway","name":""},
  {"lat":32.431746,"lon":-84.93981,"city":"Columbus","state":"GA","address":"1122 Fort Benning Road","name":""},
  {"lat":35.071597,"lon":-106.53365,"city":"Albuquerque","state":"NM","address":"10230 Central Avenue N.E.","name":""},
  {"lat":30.202457,"lon":-97.806615,"city":"Austin","state":"TX","address":"1945 W. William Cannon Drive","name":""},
  {"lat":33.632603,"lon":-84.357083,"city":"Forest Park","state":"GA","address":"4498 Jonesboro Road","name":""},
  {"lat":42.434879,"lon":-82.977272,"city":"Detroit","state":"MI","address":"14260 Gratiot Avenue","name":""},
  {"lat":30.498895,"lon":-91.153834,"city":"Baton Rouge","state":"LA","address":"5415 Plank Road","name":""},
  {"lat":42.389371,"lon":-82.97749,"city":"Detroit","state":"MI","address":"11965 E. Warren Avenue","name":""},
  {"lat":38.022463,"lon":-121.295241,"city":"Stockton","state":"CA","address":"8023 West Lane","name":""},
  {"lat":39.677021,"lon":-104.866309,"city":"Aurora","state":"CO","address":"2181 S. Havana Street","name":""},
  {"lat":27.530306,"lon":-99.473922,"city":"Laredo","state":"TX","address":"2201 E. Saunders Street","name":""},
  {"lat":36.034909,"lon":-78.891535,"city":"Durham","state":"NC","address":"3400 Roxboro Street","name":""},
  {"lat":27.530698,"lon":-99.504615,"city":"Laredo","state":"TX","address":"3420 San Bernardo Avenue","name":""},
  {"lat":36.161304,"lon":-95.906119,"city":"Tulsa","state":"OK","address":"6307 E. Admiral Place","name":""},
  {"lat":35.115065,"lon":-90.022005,"city":"Memphis","state":"TN","address":"1155 S. Bellevue Boulevard","name":""},
  {"lat":35.209647,"lon":-90.033108,"city":"Memphis","state":"TN","address":"3077 Thomas Street","name":""},
  {"lat":32.731118,"lon":-97.268928,"city":"Fort Worth","state":"TX","address":"3800 E. Rosedale Avenue","name":""},
  {"lat":34.628544,"lon":-98.421874,"city":"Lawton","state":"OK","address":"1925 N.W. Sheridan Road","name":""},
  {"lat":31.85619,"lon":-102.358557,"city":"Odessa","state":"TX","address":"620 N. Dixie Boulevard","name":""},
  {"lat":34.025802,"lon":-118.309358,"city":"Los Angeles","state":"CA","address":"1811 W. Jefferson Boulevard","name":""},
  {"lat":27.745653,"lon":-97.440099,"city":"Corpus Christi","state":"TX","address":"4901 Greenwood Drive","name":""},
  {"lat":33.196024,"lon":-87.561772,"city":"Tuscaloosa","state":"AL","address":"1801 Greensboro Avenue","name":""},
  {"lat":32.134271,"lon":-110.975801,"city":"Tucson","state":"AZ","address":"402 W. Valencia Road","name":""},
  {"lat":35.04667,"lon":-90.062937,"city":"Memphis","state":"TN","address":"3728 S. 3rd Street","name":""},
  {"lat":35.144977,"lon":-90.029459,"city":"Memphis","state":"TN","address":"925 Poplar Avenue","name":""},
  {"lat":30.620767,"lon":-87.0486,"city":"Milton","state":"FL","address":"6584 Highway 90","name":""},
  {"lat":32.684784,"lon":-97.350345,"city":"Fort Worth","state":"TX","address":"2120 W. Seminary Drive","name":""},
  {"lat":38.915234,"lon":-94.514228,"city":"Kansas City","state":"MO","address":"11500 Blue Ridge Boulevard","name":""},
  {"lat":39.09861,"lon":-94.551803,"city":"Kansas City","state":"MO","address":"2515 E. 12th Street","name":""},
  {"lat":27.770673,"lon":-82.681123,"city":"Saint Petersburg","state":"FL","address":"3510 Central Avenue","name":""},
  {"lat":33.802934,"lon":-83.718372,"city":"Monroe","state":"GA","address":"503 N. Broad Street","name":""},
  {"lat":35.186317,"lon":-106.68471,"city":"Albuquerque","state":"NM","address":"9250 Golf Course Road","name":""},
  {"lat":32.375094,"lon":-86.291801,"city":"Montgomery","state":"AL","address":"1144 Adams Avenue","name":""},
  {"lat":31.52505,"lon":-97.143424,"city":"Waco","state":"TX","address":"1515 S. Valley Mills Drive","name":""},
  {"lat":32.785873,"lon":-97.041416,"city":"Grand Prairie","state":"TX","address":"1407 W. North Carrier Parkway","name":""},
  {"lat":27.506837,"lon":-99.479114,"city":"Laredo","state":"TX","address":"1702 Guadalupe Street","name":""},
  {"lat":31.885813,"lon":-106.416211,"city":"El Paso","state":"TX","address":"5328 Will Ruth Avenue","name":""},
  {"lat":31.782426,"lon":-106.450568,"city":"El Paso","state":"TX","address":"812 N. Copia Street","name":""},
  {"lat":34.242487,"lon":-77.893354,"city":"Wilmington","state":"NC","address":"4205 Market Street","name":""},
  {"lat":28.68625,"lon":-100.473383,"city":"Eagle Pass","state":"TX","address":"1990 S. Veterans Boulevard","name":""},
  {"lat":39.055008,"lon":-94.544703,"city":"Kansas City","state":"MO","address":"3900 Indiana Street","name":""},
  {"lat":31.650902,"lon":-97.098594,"city":"Waco","state":"TX","address":"6615 I-35 North","name":""},
  {"lat":36.177456,"lon":-115.176395,"city":"Las Vegas","state":"NV","address":"601 N. Rancho Drive","name":""},
  {"lat":33.496362,"lon":-88.416414,"city":"Columbus","state":"MS","address":"1406 Main Street","name":""},
  {"lat":33.393843,"lon":-111.839601,"city":"Mesa","state":"AZ","address":"1151 S. Country Club Drive","name":""},
  {"lat":29.4151,"lon":-98.559238,"city":"San Antonio","state":"TX","address":"1302 Castroville Road","name":""},
  {"lat":29.466724,"lon":-98.525744,"city":"San Antonio","state":"TX","address":"1839 W. Hildebrand Avenue","name":""},
  {"lat":29.778816,"lon":-95.124939,"city":"Channelview","state":"TX","address":"415 Sheldon Road","name":""},
  {"lat":36.177413,"lon":-95.95425,"city":"Tulsa","state":"OK","address":"2555 E. Pine Street","name":""},
  {"lat":35.14614,"lon":-90.166152,"city":"West Memphis","state":"AR","address":"1503 East Broadway Avenue","name":""},
  {"lat":41.765733,"lon":-87.586747,"city":"Chicago","state":"IL","address":"7102 S. Stoney Island Avenue","name":""},
  {"lat":39.026336,"lon":-94.555523,"city":"Kansas City","state":"MO","address":"5500 Prospect Avenue","name":""},
  {"lat":33.550399,"lon":-84.415306,"city":"Riverdale","state":"GA","address":"765 Highway 138 S.W.","name":""},
  {"lat":32.336298,"lon":-90.208658,"city":"Jackson","state":"MS","address":"3280 Medgar Evers Boulevard","name":""},
  {"lat":35.449473,"lon":-97.442894,"city":"Del City","state":"OK","address":"3920 S.E. 15th Street","name":""},
  {"lat":27.719985,"lon":-97.400087,"city":"Corpus Christi","state":"TX","address":"5149 Weber Road","name":""},
  {"lat":29.978674,"lon":-95.217632,"city":"Humble","state":"TX","address":"10910 Will Clayton Parkway","name":""},
  {"lat":30.177902,"lon":-95.450686,"city":"Shenandoah","state":"TX","address":"19153 I-45 South","name":""},
  {"lat":29.488497,"lon":-98.499752,"city":"San Antonio","state":"TX","address":"5903 San Pedro Avenue","name":""},
  {"lat":32.766806,"lon":-96.740609,"city":"Dallas","state":"TX","address":"4656 Scyene Road","name":""},
  {"lat":32.749857,"lon":-96.856391,"city":"Dallas","state":"TX","address":"606 N. Hampton Road","name":""},
  {"lat":33.470229,"lon":-86.882654,"city":"Birmingham","state":"AL","address":"3052 Jefferson Avenue S.W.","name":""},
  {"lat":31.826431,"lon":-106.444637,"city":"El Paso","state":"TX","address":"5308 Dyer Street","name":""},
  {"lat":35.107633,"lon":-89.963783,"city":"Memphis","state":"TN","address":"2963 Park Avenue","name":""},
  {"lat":29.917103,"lon":-95.585311,"city":"Houston","state":"TX","address":"9825 Jones Road","name":""},
  {"lat":28.753285,"lon":-100.49619,"city":"Eagle Pass","state":"TX","address":"3195 Del Rio Boulevard","name":""},
  {"lat":33.549124,"lon":-101.855741,"city":"Lubbock","state":"TX","address":"1702 S. 50th Street","name":""},
  {"lat":35.221723,"lon":-101.832614,"city":"Amarillo","state":"TX","address":"200 E. Amarillo Boulevard","name":""},
  {"lat":32.707402,"lon":-103.127244,"city":"Hobbs","state":"NM","address":"702 N. Dal Paso Street","name":""},
  {"lat":35.192558,"lon":-101.86658,"city":"Amarillo","state":"TX","address":"2002 S. Georgia Street","name":""},
  {"lat":35.639433,"lon":-105.959048,"city":"Santa Fe","state":"NM","address":"2778 Sawmill Road","name":""},
  {"lat":35.022191,"lon":-85.24239,"city":"Chattanooga","state":"TN","address":"3816 Brainerd Road","name":""},
  {"lat":32.662536,"lon":-96.838936,"city":"Dallas","state":"TX","address":"1025 W. Camp Wisdom Road","name":""},
  {"lat":25.84662,"lon":-80.231802,"city":"Miami","state":"FL","address":"2101 N.W. 79th Street","name":""},
  {"lat":32.841381,"lon":-96.976123,"city":"Irving","state":"TX","address":"2530 N. Story Road","name":""},
  {"lat":33.924972,"lon":-116.867488,"city":"Banning","state":"CA","address":"832 E. Ramsey Street","name":""},
  {"lat":31.739588,"lon":-106.346244,"city":"El Paso","state":"TX","address":"1077 North Carolina Drive","name":""},
  {"lat":32.480106,"lon":-84.986983,"city":"Columbus","state":"GA","address":"1805 Hamilton Road","name":""},
  {"lat":35.22418,"lon":-80.898491,"city":"Charlotte","state":"NC","address":"3443 Wilkinson Boulevard","name":""},
  {"lat":36.232439,"lon":-86.758275,"city":"Nashville","state":"TN","address":"3127 Dickerson Road","name":""},
  {"lat":32.364621,"lon":-88.712342,"city":"Meridian","state":"MS","address":"3325 8th Street","name":""},
  {"lat":28.551607,"lon":-81.466353,"city":"Orlando","state":"FL","address":"6234 W. Colonial Drive","name":""},
  {"lat":33.710752,"lon":-84.271149,"city":"Decatur","state":"GA","address":"2700 Candler Road","name":""},
  {"lat":29.391439,"lon":-98.473919,"city":"San Antonio","state":"TX","address":"1209 Steves Avenue","name":""},
  {"lat":29.426215,"lon":-98.527462,"city":"San Antonio","state":"TX","address":"219 S. Zarzamora Street","name":""},
  {"lat":33.897452,"lon":-118.252602,"city":"Compton","state":"CA","address":"217 N. Central Avenue","name":""},
  {"lat":31.579015,"lon":-97.12053,"city":"Waco","state":"TX","address":"1325 E. Waco Drive","name":""},
  {"lat":33.636578,"lon":-96.607781,"city":"Sherman","state":"TX","address":"200 E. Houston Street","name":""},
  {"lat":32.085605,"lon":-96.476323,"city":"Corsicana","state":"TX","address":"1400 W. 7th Street","name":""},
  {"lat":27.995779,"lon":-82.424224,"city":"Tampa","state":"FL","address":"3201 E. Hillsborough Avenue","name":""},
  {"lat":41.888196,"lon":-87.774727,"city":"Chicago","state":"IL","address":"431 N. Austin Boulevard","name":""},
  {"lat":36.211621,"lon":-115.104411,"city":"North Las Vegas","state":"NV","address":"2839 N. Las Vegas Boulevard","name":""},
  {"lat":29.614105,"lon":-95.419884,"city":"Houston","state":"TX","address":"13350 Almeda Road","name":""},
  {"lat":35.028117,"lon":-106.68053,"city":"Albuquerque","state":"NM","address":"3335 Isleta Boulevard S.W.","name":""},
  {"lat":29.974955,"lon":-90.166544,"city":"Metairie","state":"LA","address":"3740 Airline Highway","name":""},
  {"lat":35.435514,"lon":-97.523413,"city":"Oklahoma City","state":"OK","address":"543 S.W. 29th Street","name":""},
  {"lat":35.509854,"lon":-97.503671,"city":"Oklahoma City","state":"OK","address":"3839 N. Lincoln Boulevard","name":""},
  {"lat":30.543882,"lon":-92.080588,"city":"Opelousas","state":"LA","address":"1031 N. Main Street","name":""},
  {"lat":31.335424,"lon":-85.855814,"city":"Enterprise","state":"AL","address":"1106 Boll Weevil Circle","name":""},
  {"lat":29.546287,"lon":-98.509576,"city":"San Antonio","state":"TX","address":"11623 West Avenue","name":""},
  {"lat":29.548254,"lon":-98.40841,"city":"San Antonio","state":"TX","address":"11910 Perrin Beitel Road","name":""},
  {"lat":31.117778,"lon":-97.901817,"city":"Copperas Cove","state":"TX","address":"501 E. Highway 190","name":""},
  {"lat":43.187808,"lon":-88.729077,"city":"Watertown","state":"WI","address":"605 S. Church Street","name":""},
  {"lat":40.874534,"lon":-88.66444,"city":"Pontiac","state":"IL","address":"1831 W. Reynolds Street","name":""},
  {"lat":39.607755,"lon":-86.375329,"city":"Mooresville","state":"IN","address":"366 S. Indiana Street","name":""},
  {"lat":39.525044,"lon":-87.118047,"city":"Brazil","state":"IN","address":"637 E. National Avenue","name":""},
  {"lat":37.66117,"lon":-120.957972,"city":"Modesto","state":"CA","address":"1233 Oakdale Road","name":""},
  {"lat":32.582089,"lon":-95.874162,"city":"Canton","state":"TX","address":"13951 South FM 859","name":""},
  {"lat":30.131185,"lon":-93.959974,"city":"Vidor","state":"TX","address":"17160 Interstate 10","name":""},
  {"lat":34.586795,"lon":-112.323013,"city":"Prescott Valley","state":"AZ","address":"8176 East State Route 69","name":""},
  {"lat":29.746352,"lon":-94.977436,"city":"Baytown","state":"TX","address":"1931 Garth Road","name":""},
  {"lat":29.378659,"lon":-94.97209,"city":"La Marque","state":"TX","address":"1901 FM 1765","name":""},
  {"lat":28.98301,"lon":-95.959923,"city":"Bay City","state":"TX","address":"2514 7th Street","name":""},
  {"lat":37.688773,"lon":-121.030053,"city":"Modesto","state":"CA","address":"2020 Standiford Avenue","name":""},
  {"lat":29.460836,"lon":-95.054358,"city":"Dickinson","state":"TX","address":"2401 Main Street","name":""},
  {"lat":28.969638,"lon":-95.371019,"city":"Freeport","state":"TX","address":"1001 N. Brazosport Boulevard","name":""},
  {"lat":35.193397,"lon":-101.70842,"city":"Amarillo","state":"TX","address":"11215 E. Interstate 40","name":""},
  {"lat":41.205335,"lon":-87.870572,"city":"Bourbonnais","state":"IL","address":"5210 Quebec Drive","name":""},
  {"lat":47.600968,"lon":-122.628854,"city":"Bremerton","state":"WA","address":"4000 Wheaton Way","name":""}]}