{"key":"crossfit","displayName":"CrossFit","category":"fitness","useLocationName":false,"locations":[
  {"lat":36.959959,"lon":-122.050167,"city":"Santa Cruz","state":"CA","address":"2521 Mission St, Suite C","name":""},
  {"lat":30.272315,"lon":-97.76141,"city":"Austin","state":"TX","address":"410 Pressler Street","name":""},
  {"lat":41.282688,"lon":-72.833862,"city":"Branford","state":"CT","address":"131 Commercial Parkway","name":""},
  {"lat":42.335085,"lon":-71.057245,"city":"Boston","state":"MA","address":"383 Dorchester Ave, Suite 100","name":""},
  {"lat":47.728581,"lon":-122.63853,"city":"Poulsbo","state":"WA","address":"20714 SR 305, #1E","name":""},
  {"lat":40.702715,"lon":-73.31728,"city":"Babylon","state":"NY","address":"41 John Street","name":""},
  {"lat":35.379425,"lon":-83.208345,"city":"Sylva","state":"NC","address":"470 Asheville Highway","name":""},
  {"lat":32.52296,"lon":-94.68489,"city":"Longview","state":"TX","address":"1919 E Loop 281","name":""},
  {"lat":29.77394,"lon":-95.41228,"city":"Houston","state":"TX","address":"1418 Roy St","name":""},
  {"lat":47.683862,"lon":-122.137498,"city":"Redmond","state":"WA","address":"15207 NE 92nd Street","name":""},
  {"lat":41.636915,"lon":-72.751481,"city":"Berlin","state":"CT","address":"213 Christian Lane, Unit A","name":""},
  {"lat":41.6819,"lon":-85.91595,"city":"Elkhart","state":"IN","address":"3200 Middlebury St. Suite C","name":""},
  {"lat":43.652925,"lon":-70.281919,"city":"Portland","state":"ME","address":"1000 Congress Street","name":""},
  {"lat":35.65484,"lon":-78.461942,"city":"Clayton","state":"NC","address":"318 West Main Street","name":""},
  {"lat":37.912694,"lon":-122.35642,"city":"Richmond","state":"CA","address":"1401 Marina Way South, Suite 290","name":""},
  {"lat":47.111619,"lon":-88.580906,"city":"Houghton","state":"MI","address":"909 Evergreen Dr.","name":""},
  {"lat":40.597796,"lon":-111.992918,"city":"West Jordan","state":"UT","address":"8455 SOUTH WELBY FARM RD, UNITS B &amp;amp; C","name":""},
  {"lat":21.420565,"lon":-157.808313,"city":"Kaneohe","state":"HI","address":"46-026 Alaloa St. Unit E/F","name":""},
  {"lat":42.622471,"lon":-71.315525,"city":"Lowell","state":"MA","address":"2 Foundry Industrial Park","name":""},
  {"lat":38.03844,"lon":-84.475251,"city":"Lexington","state":"KY","address":"938 National Avenue","name":""},
  {"lat":26.159997,"lon":-81.758566,"city":"Naples","state":"FL","address":"4110 Enterprise Ave #106","name":""},
  {"lat":40.49902,"lon":-79.978047,"city":"Pittsburgh","state":"PA","address":"1600 Evergreen Ave","name":""},
  {"lat":35.646922,"lon":-117.694819,"city":"Ridgecrest","state":"CA","address":"1200 W. Reeves St. Suite B","name":""},
  {"lat":43.597771,"lon":-72.974665,"city":"Rutland","state":"VT","address":"1 Scales Avenue, Building 11A","name":""},
  {"lat":28.375657,"lon":-80.700496,"city":"Merritt Island","state":"FL","address":"119 Mustang Way","name":""},
  {"lat":38.522559,"lon":-106.028374,"city":"Salida","state":"CO","address":"8100 US-50 Unit B","name":""},
  {"lat":41.77684,"lon":-87.98172,"city":"Westmont","state":"IL","address":"263 West 61st Street","name":""},
  {"lat":40.405678,"lon":-74.129317,"city":"Middletown","state":"NJ","address":"1680 Route 35","name":""},
  {"lat":40.015407,"lon":-105.26101,"city":"Boulder","state":"CO","address":"2525 Arapahoe, Unit E-60","name":""},
  {"lat":35.778127,"lon":-86.913396,"city":"Spring Hill","state":"TN","address":"5002 Spedale Ct","name":""},
  {"lat":42.690642,"lon":-110.930724,"city":"Afton","state":"WY","address":"82717 U.S. 89","name":""},
  {"lat":42.262362,"lon":-71.466235,"city":"Ashland","state":"MA","address":"50 Main Street","name":""},
  {"lat":40.138687,"lon":-75.117726,"city":"Willow Grove","state":"PA","address":"2232 Maplewood Ave.","name":""},
  {"lat":36.402912,"lon":-87.032536,"city":"Pleasant View","state":"TN","address":"1014 Christopher Dr.","name":""},
  {"lat":34.740946,"lon":-76.809408,"city":"Morehead City","state":"NC","address":"127 Industrial Drive","name":""},
  {"lat":41.95452,"lon":-71.400335,"city":"Cumberland","state":"RI","address":"30 Industrial Road","name":""},
  {"lat":35.451619,"lon":-82.523884,"city":"Arden","state":"NC","address":"221A Airport Rd","name":""},
  {"lat":32.91089,"lon":-96.742477,"city":"Dallas","state":"TX","address":"11836 Judd Ct, Suite 304C","name":""},
  {"lat":44.254745,"lon":-71.839175,"city":"Lisbon","state":"NH","address":"2572 Route 302","name":""},
  {"lat":36.24373,"lon":-86.63579,"city":"Old Hickory","state":"TN","address":"3323 Old Hickory Blvd","name":""},
  {"lat":45.04765,"lon":-93.045726,"city":"Saint Paul","state":"MN","address":"3527 English St","name":""},
  {"lat":27.34022,"lon":-82.54087,"city":"Sarasota","state":"FL","address":"423 N Lemon Ave","name":""},
  {"lat":27.90173,"lon":-82.518807,"city":"Tampa","state":"FL","address":"4315 S. Manhattan Avenue","name":""},
  {"lat":40.642752,"lon":-74.831711,"city":"Lebanon","state":"NJ","address":"1271 US-22","name":""},
  {"lat":43.974518,"lon":-71.129988,"city":"Conway","state":"NH","address":"64 Hobbs Street","name":""},
  {"lat":44.548855,"lon":-122.902133,"city":"Lebanon","state":"OR","address":"489 N Williams St","name":""},
  {"lat":35.144949,"lon":-80.737201,"city":"Charlotte","state":"NC","address":"9535 Monroe Road, Suite 100","name":""},
  {"lat":38.917817,"lon":-77.002324,"city":"Washington","state":"DC","address":"2020 3rd ST NE","name":""},
  {"lat":34.626964,"lon":-112.311882,"city":"Prescott Valley","state":"AZ","address":"8701 E. Laredo Drive","name":""},
  {"lat":39.952351,"lon":-75.178779,"city":"Philadelphia","state":"PA","address":"2300 Chestnut St. Unit B7","name":""},
  {"lat":47.618061,"lon":-122.354849,"city":"Seattle","state":"WA","address":"3025 1st Ave","name":""},
  {"lat":33.120649,"lon":-117.267528,"city":"Carlsbad","state":"CA","address":"6353 El Camino Real, Suites F & G","name":""},
  {"lat":39.383719,"lon":-104.86299,"city":"Castle Rock","state":"CO","address":"185 Caprice Ct.","name":""},
  {"lat":42.359404,"lon":-71.138587,"city":"Brighton","state":"MA","address":"100 Holton Street Rear","name":""},
  {"lat":40.006551,"lon":-105.051379,"city":"Erie","state":"CO","address":"3000 Airport Dr. building 502","name":""},
  {"lat":30.313408,"lon":-98.115214,"city":"Dripping Springs","state":"TX","address":"2800 Stagecoach Ranch Loop","name":""},
  {"lat":29.86935,"lon":-81.33476,"city":"St. Augustine","state":"FL","address":"1741 Dobbs Road, #16","name":""},
  {"lat":35.19344,"lon":-111.71715,"city":"Flagstaff","state":"AZ","address":"6200 W Belle Springs Wy.","name":""},
  {"lat":27.50843,"lon":-82.71455,"city":"Holmes Beach","state":"FL","address":"5602 Marina Drive","name":""},
  {"lat":38.95824,"lon":-77.378429,"city":"Herndon","state":"VA","address":"310 Victory Drive","name":""},
  {"lat":33.50026,"lon":-117.65659,"city":"San Juan Capistrano","state":"CA","address":"27130A Paseo Espada","name":""},
  {"lat":47.822045,"lon":-122.261095,"city":"Lynnwood","state":"WA","address":"2031 196th St SW B-101","name":""},
  {"lat":33.758518,"lon":-116.300363,"city":"Bermuda Dunes","state":"CA","address":"78-078 Country Club Dr, Suite 210","name":""},
  {"lat":41.893274,"lon":-87.636394,"city":"Chicago","state":"IL","address":"330 W Ontario St","name":""},
  {"lat":41.309749,"lon":-81.463191,"city":"Twinsburg","state":"OH","address":"2130 East Aurora Road","name":""},
  {"lat":41.298518,"lon":-73.888658,"city":"Cortlandt Manor","state":"NY","address":"2050 East Main Street","name":""},
  {"lat":33.909474,"lon":-117.328452,"city":"Riverside","state":"CA","address":"7899 Mission Grove Parkway South","name":""},
  {"lat":41.15199,"lon":-96.23491,"city":"Gretna","state":"NE","address":"10807 S. 204th Ave. Circle","name":""},
  {"lat":38.7326,"lon":-83.0012,"city":"Portsmouth","state":"OH","address":"549 3rd Street","name":""},
  {"lat":34.939597,"lon":-82.253948,"city":"Greer","state":"SC","address":"199 Hunt Street","name":""},
  {"lat":32.582255,"lon":-85.439957,"city":"Auburn","state":"AL","address":"1747 Ogletree Road, Suite F","name":""},
  {"lat":32.748714,"lon":-117.14671,"city":"San Diego","state":"CA","address":"3904 Park Blvd","name":""},
  {"lat":35.43496,"lon":-97.37361,"city":"Midwest City","state":"OK","address":"2750 Global Parkway","name":""},
  {"lat":40.679475,"lon":-73.983603,"city":"Brooklyn","state":"NY","address":"597 Degraw St","name":""},
  {"lat":30.51643,"lon":-87.88717,"city":"Fairhope","state":"AL","address":"807 Nichols Avenue","name":""},
  {"lat":47.284234,"lon":-122.56137,"city":"Gig Harbor","state":"WA","address":"2817 Jahn Ave NW #1","name":""},
  {"lat":33.949793,"lon":-84.333943,"city":"Dunwoody","state":"GA","address":"1343 Dunwoody Village Pkwy","name":""},
  {"lat":39.988689,"lon":-74.260684,"city":"Toms River","state":"NJ","address":"1301 North Industrial Way","name":""},
  {"lat":34.106268,"lon":-118.036452,"city":"Arcadia","state":"CA","address":"142 W Live Oak Ave","name":""},
  {"lat":30.19488,"lon":-97.97163,"city":"Austin","state":"TX","address":"12909 Nutty Brown Rd.","name":""},
  {"lat":28.85345,"lon":-82.46626,"city":"Lecanto","state":"FL","address":"1943 W Gulf to Lake Hwy","name":""},
  {"lat":42.505248,"lon":-90.663411,"city":"Dubuque","state":"IA","address":"340 E 12th Street","name":""},
  {"lat":29.796384,"lon":-98.44978,"city":"Bulverde","state":"TX","address":"21965 West Hwy 46","name":""},
  {"lat":37.360672,"lon":-118.398524,"city":"Bishop","state":"CA","address":"149 S. Fowler St","name":""},
  {"lat":37.7938,"lon":-122.42261,"city":"San Francisco","state":"CA","address":"1946 Van Ness Avenue","name":""},
  {"lat":29.57337,"lon":-98.41898,"city":"San Antonio","state":"TX","address":"14627 Bulverde Rd","name":""},
  {"lat":41.48092,"lon":-81.84299,"city":"Rocky River","state":"OH","address":"19910 Ingersoll Drive","name":""},
  {"lat":38.960993,"lon":-92.310877,"city":"Columbia","state":"MO","address":"901 Old 63 N","name":""},
  {"lat":40.536279,"lon":-79.843506,"city":"Pittsburgh","state":"PA","address":"2585 Freeport Road","name":""},
  {"lat":33.93621,"lon":-84.380279,"city":"Sandy Springs","state":"GA","address":"6650 Roswell Rd, Suite 50","name":""},
  {"lat":42.976163,"lon":-88.228354,"city":"Waukesha","state":"WI","address":"200 Travis Lane","name":""},
  {"lat":41.41926,"lon":-75.60091,"city":"Dunmore","state":"PA","address":"1000 Dunham Dr.","name":""},
  {"lat":39.699988,"lon":-104.999663,"city":"Denver","state":"CO","address":"901 S Jason St Unit C","name":""},
  {"lat":48.352292,"lon":-114.238828,"city":"Columbia Falls","state":"MT","address":"125 Canyon View Ln, Unit #1","name":""},
  {"lat":25.998375,"lon":-80.166944,"city":"Hollywood","state":"FL","address":"1425A S. 30th Ave","name":""},
  {"lat":38.720393,"lon":-76.662867,"city":"Dunkirk","state":"MD","address":"10406 Southern Maryland Blvd","name":""},
  {"lat":32.972775,"lon":-80.042647,"city":"North Charleston","state":"SC","address":"2131 N.A.D. Road","name":""},
  {"lat":39.289167,"lon":-76.573129,"city":"Baltimore","state":"MD","address":"3700 O'Donnell Street, #240","name":""},
  {"lat":42.566141,"lon":-71.109118,"city":"North Reading","state":"MA","address":"20 Main St., Suite J","name":""},
  {"lat":30.358754,"lon":-81.412438,"city":"Jacksonville","state":"FL","address":"2593 Mayport Rd #105","name":""},
  {"lat":41.97528,"lon":-87.952775,"city":"Bensenville","state":"IL","address":"869 Fairway Dr","name":""},
  {"lat":44.55157,"lon":-68.42954,"city":"Ellsworth","state":"ME","address":"248 State Street Suite 10","name":""},
  {"lat":40.217886,"lon":-77.015149,"city":"Mechanicsburg","state":"PA","address":"507 North York Street\\nSuite #6","name":""},
  {"lat":35.33797,"lon":-97.4893,"city":"Moore","state":"OK","address":"220 W Main St.","name":""},
  {"lat":39.508064,"lon":-106.052217,"city":"Breckenridge","state":"CO","address":"1805 Airport Rd.","name":""},
  {"lat":35.49299,"lon":-97.31729,"city":"Choctaw","state":"OK","address":"12010 NE 23rd St.","name":""},
  {"lat":43.096265,"lon":-77.566187,"city":"Rochester","state":"NY","address":"1200 Edgewood Avenue","name":""},
  {"lat":39.986675,"lon":-82.997863,"city":"Columbus","state":"OH","address":"279 E 5th Ave","name":""},
  {"lat":38.954273,"lon":-76.349578,"city":"Stevensville","state":"MD","address":"1625 Sonny Schulz Blvd, Suite D","name":""},
  {"lat":42.40048,"lon":-71.037728,"city":"Chelsea","state":"MA","address":"265 Carter St","name":""},
  {"lat":30.504291,"lon":-97.607216,"city":"Round Rock","state":"TX","address":"1 Valley Trl","name":""},
  {"lat":46.700571,"lon":-68.007861,"city":"Presque Isle","state":"ME","address":"830 Main Street","name":""},
  {"lat":41.29064,"lon":-96.17149,"city":"Omaha","state":"NE","address":"3601 N 165th St","name":""},
  {"lat":39.44349,"lon":-76.320375,"city":"Joppa","state":"MD","address":"1809 Fashion Ct Suite 107","name":""},
  {"lat":36.73291,"lon":-76.216187,"city":"Chesapeake","state":"VA","address":"624 Innovation Drive, Suite 105","name":""},
  {"lat":40.160989,"lon":-83.084209,"city":"Powell","state":"OH","address":"324 West Case St.","name":""},
  {"lat":40.74575,"lon":-73.99006,"city":"New York City","state":"NY","address":"50 West 28th Street","name":""},
  {"lat":26.110602,"lon":-80.351091,"city":"Sunrise","state":"FL","address":"701 Shotgun Rd.","name":""},
  {"lat":32.898495,"lon":-96.917884,"city":"Dallas","state":"TX","address":"11488 Luna Road, Suite 1101","name":""},
  {"lat":34.470981,"lon":-117.3302,"city":"Victorville","state":"CA","address":"15290 Bear Valley Rd","name":""},
  {"lat":22.070463,"lon":-159.31996,"city":"Kapa'a","state":"HI","address":"4516 Akoa Rd.","name":""},
  {"lat":32.227363,"lon":-97.77967,"city":"Glen Rose","state":"TX","address":"1497 W Highway 67","name":""},
  {"lat":41.189013,"lon":-96.179384,"city":"Omaha","state":"NE","address":"16919 Audrey Street","name":""},
  {"lat":38.918297,"lon":-104.785927,"city":"Colorado Springs","state":"CO","address":"5975 N Academy Blvd, Suite 116","name":""},
  {"lat":47.908168,"lon":-122.226471,"city":"Everett","state":"WA","address":"406 SE Everett Mall Way #103","name":""},
  {"lat":39.976075,"lon":-75.454249,"city":"Newtown Square","state":"PA","address":"3954 Miller Rd.","name":""},
  {"lat":33.531994,"lon":-101.920091,"city":"Lubbock","state":"TX","address":"5152 69th Street, Suite 108","name":""},
  {"lat":40.375478,"lon":-74.583296,"city":"Monmouth Junction","state":"NJ","address":"4260 U.S. Hwy 1, Suite 6","name":""},
  {"lat":28.17366,"lon":-82.59253,"city":"Odessa","state":"FL","address":"1017 Gunn Highway","name":""},
  {"lat":42.017655,"lon":-87.844251,"city":"Park Ridge","state":"IL","address":"542 Busse Hwy","name":""},
  {"lat":40.61486,"lon":-98.381575,"city":"Hastings","state":"NE","address":"2850 Osborne Dr E","name":""},
  {"lat":39.822591,"lon":-105.16687,"city":"Arvada","state":"CO","address":"6945 Indiana Ct, Unit 100","name":""},
  {"lat":40.33783,"lon":-75.959351,"city":"Wyomissing","state":"PA","address":"1007 Hill Ave Building 17 Suite 102","name":""},
  {"lat":32.671,"lon":-114.62435,"city":"Yuma","state":"AZ","address":"3117 S. 4th Ave","name":""},
  {"lat":32.737979,"lon":-97.330268,"city":"Fort Worth","state":"TX","address":"608 S Jennings Ave","name":""},
  {"lat":38.843927,"lon":-77.640336,"city":"Haymarket","state":"VA","address":"5401 Merchant View Square","name":""},
  {"lat":40.869489,"lon":-81.435599,"city":"North Canton","state":"OH","address":"6065 Strip Ave NW","name":""},
  {"lat":42.148107,"lon":-71.516731,"city":"Milford","state":"MA","address":"47 Sumner Street","name":""},
  {"lat":42.11423,"lon":-87.82646,"city":"Northbrook","state":"IL","address":"1852 Janke Drive, Suite B","name":""},
  {"lat":38.977096,"lon":-95.688274,"city":"Topeka","state":"KS","address":"5005 SW Topeka Blvd.","name":""},
  {"lat":43.106513,"lon":-87.912284,"city":"Glendale","state":"WI","address":"4927 N Lydell Avenue","name":""},
  {"lat":31.091035,"lon":-97.66738,"city":"Harker Heights","state":"TX","address":"127 WEST VETERANS MEMORIAL","name":""},
  {"lat":43.718772,"lon":-98.046818,"city":"Mitchell","state":"SD","address":"960 N Ohlman St., #1","name":""},
  {"lat":40.056021,"lon":-82.479565,"city":"Newark","state":"OH","address":"80 Westgate Drive","name":""},
  {"lat":36.848253,"lon":-121.39344,"city":"Hollister","state":"CA","address":"320 Hillcrest Road, Suite 104","name":""},
  {"lat":41.85952,"lon":-72.42081,"city":"Tolland","state":"CT","address":"60 Industrial Park Road West, Unit 10J","name":""},
  {"lat":25.779915,"lon":-80.14126,"city":"Miami Beach","state":"FL","address":"930 Alton Rd","name":""},
  {"lat":37.976266,"lon":-122.560458,"city":"San Anselmo","state":"CA","address":"34 Greenfield Avenue","name":""},
  {"lat":39.449263,"lon":-75.717353,"city":"Middletown","state":"DE","address":"14 W. Main Street","name":""},
  {"lat":38.78062,"lon":-89.963221,"city":"Glen Carbon","state":"IL","address":"18 Kettle River","name":""},
  {"lat":26.225504,"lon":-81.784261,"city":"Naples","state":"FL","address":"6563 Taylor Road, Ste 8","name":""},
  {"lat":45.03632,"lon":-93.78013,"city":"Delano","state":"MN","address":"600 East Babcock Blvd","name":""},
  {"lat":35.510267,"lon":-97.592595,"city":"Oklahoma City","state":"OK","address":"3901 N Tulsa Ave","name":""},
  {"lat":35.19212,"lon":-92.391564,"city":"Greenbrier","state":"AR","address":"2 Becky Lane","name":""},
  {"lat":27.699691,"lon":-97.377693,"city":"Corpus Christi","state":"TX","address":"5432 Holly Rd.","name":""},
  {"lat":38.054201,"lon":-87.539602,"city":"Evansville","state":"IN","address":"1230 Heinlein Road","name":""},
  {"lat":44.74682,"lon":-85.59524,"city":"Traverse City","state":"MI","address":"1209 S. Garfield Ave, Ste A","name":""},
  {"lat":43.045969,"lon":-87.990278,"city":"Wauwatosa","state":"WI","address":"1169 N 62nd St","name":""},
  {"lat":42.994504,"lon":-87.910253,"city":"Milwaukee","state":"WI","address":"2715 S. Gladstone Place","name":""},
  {"lat":32.931803,"lon":-97.083061,"city":"Grapevine","state":"TX","address":"607 W Dallas Rd, Suite 1000","name":""},
  {"lat":42.56519,"lon":-84.84914,"city":"Charlotte","state":"MI","address":"800 W. Lawrence Ave.","name":""},
  {"lat":32.103931,"lon":-110.810377,"city":"Tucson","state":"AZ","address":"8620 East Old Vail Road #130","name":""},
  {"lat":43.06126,"lon":-83.797154,"city":"Flushing","state":"MI","address":"6122 W. Pierson Road, Suite 10B","name":""},
  {"lat":41.983893,"lon":-88.65799,"city":"Sycamore","state":"IL","address":"1330 East State Street","name":""},
  {"lat":33.36347,"lon":-111.91131,"city":"Tempe","state":"AZ","address":"6426 South McClintock Drive #113","name":""},
  {"lat":35.18552,"lon":-80.880935,"city":"Charlotte","state":"NC","address":"215 Southside Dr","name":""},
  {"lat":39.589476,"lon":-104.874932,"city":"Centennial","state":"CO","address":"9809 E. Easter Ave, Ste. B","name":""},
  {"lat":42.483424,"lon":-71.265857,"city":"Bedford","state":"MA","address":"65 Wiggins Ave","name":""},
  {"lat":34.634186,"lon":-79.00802,"city":"Lumberton","state":"NC","address":"109 24th Street","name":""},
  {"lat":32.295853,"lon":-110.973336,"city":"Tucson","state":"AZ","address":"75 W River Rd., Suite 101","name":""},
  {"lat":46.133587,"lon":-122.933986,"city":"Longview","state":"WA","address":"1112 12th Avenue","name":""},
  {"lat":41.922165,"lon":-87.950273,"city":"Elmhurst","state":"IL","address":"747 N. Church Road, Suite G5","name":""},
  {"lat":45.80138,"lon":-88.070395,"city":"Kingsford","state":"MI","address":"660 s. Carpenter Ave","name":""},
  {"lat":32.705197,"lon":-117.125983,"city":"San Diego","state":"CA","address":"3167 Commercial St.","name":""},
  {"lat":29.563696,"lon":-98.661289,"city":"Helotes","state":"TX","address":"13302 Western Oak","name":""},
  {"lat":40.292764,"lon":-79.68939,"city":"Irwin","state":"PA","address":"348 Wendel Road","name":""},
  {"lat":33.045868,"lon":-96.860558,"city":"Carrollton","state":"TX","address":"2425 West Parker Rd., Building #6D","name":""},
  {"lat":26.683006,"lon":-80.165248,"city":"West Palm Beach","state":"FL","address":"342 Pike Road, Suite 27","name":""},
  {"lat":35.039879,"lon":-89.663065,"city":"Collierville","state":"TN","address":"192 South Main Street, Suite 2","name":""},
  {"lat":40.660727,"lon":-74.000424,"city":"Brooklyn","state":"NY","address":"148 26th Street","name":""},
  {"lat":29.69554,"lon":-95.899995,"city":"Fulshear","state":"TX","address":"30415 5th St. Suite C","name":""},
  {"lat":27.822109,"lon":-82.670254,"city":"St. Petersburg","state":"FL","address":"5514 Haines Rd N","name":""},
  {"lat":30.467486,"lon":-97.660106,"city":"Round Rock","state":"TX","address":"16801 Radholme Court, Suite A","name":""},
  {"lat":30.40267,"lon":-86.98662,"city":"Gulf Breeze","state":"FL","address":"5674 Gulf Breeze Parkway, Unit C2","name":""},
  {"lat":28.41283,"lon":-81.40726,"city":"Orlando","state":"FL","address":"2120 Orinoco Dr","name":""},
  {"lat":41.52644,"lon":-73.58818,"city":"Pawling","state":"NY","address":"31 Rt. 22","name":""},
  {"lat":32.837326,"lon":-97.138046,"city":"Bedford","state":"TX","address":"1801 Airport Freeway","name":""},
  {"lat":35.19104,"lon":-78.984879,"city":"Spring Lake","state":"NC","address":"1530 N Bragg Blvd","name":""},
  {"lat":39.428645,"lon":-76.997637,"city":"Eldersburg","state":"MD","address":"5320 Enterprise St. Suite H & I","name":""},
  {"lat":39.368733,"lon":-82.134704,"city":"The Plains","state":"OH","address":"32 W First St.","name":""},
  {"lat":41.676906,"lon":-73.855221,"city":"Poughkeepsie","state":"NY","address":"60 Firemens Way","name":""},
  {"lat":41.341942,"lon":-83.156254,"city":"Fremont","state":"OH","address":"2711 Hayes Ave","name":""},
  {"lat":38.083676,"lon":-122.107786,"city":"Benicia","state":"CA","address":"6002 Egret Court","name":""},
  {"lat":40.01001,"lon":-75.295704,"city":"Ardmore","state":"PA","address":"210 W. Lancaster Ave","name":""},
  {"lat":40.47654,"lon":-86.164997,"city":"Kokomo","state":"IN","address":"1080 S Dixon Rd.","name":""},
  {"lat":28.675214,"lon":-81.182154,"city":"Oviedo","state":"FL","address":"1717 Kennedy Point, Unit 1019","name":""},
  {"lat":35.971495,"lon":-114.846287,"city":"Boulder City","state":"NV","address":"1007 Elm St. Ste. G","name":""},
  {"lat":47.756297,"lon":-122.239903,"city":"Kenmore","state":"WA","address":"7524 NE 175th St.","name":""},
  {"lat":38.960155,"lon":-85.887154,"city":"Seymour","state":"IN","address":"209 East 2nd St.","name":""},
  {"lat":47.133184,"lon":-119.27622,"city":"Moses Lake","state":"WA","address":"318 E. Broadway Ave.","name":""},
  {"lat":37.369468,"lon":-108.588836,"city":"Cortez","state":"CO","address":"2005 Industrial Rd","name":""},
  {"lat":38.422303,"lon":-75.134023,"city":"Bishopville","state":"MD","address":"12040 Industrial Park Rd Unit E 3&4","name":""},
  {"lat":41.587297,"lon":-109.216563,"city":"Rock Springs","state":"WY","address":"701 2nd St","name":""},
  {"lat":30.185319,"lon":-81.571285,"city":"Jacksonville","state":"FL","address":"5530 Florida Mining Blvd S.","name":""},
  {"lat":39.0101,"lon":-94.226525,"city":"Grain Valley","state":"MO","address":"1500 NW Broadway St.","name":""},
  {"lat":44.526298,"lon":-103.889798,"city":"Spearfish","state":"SD","address":"1927 Russell St.","name":""},
  {"lat":36.372285,"lon":-82.370918,"city":"Johnson City","state":"TN","address":"3314 Wayfield Drive","name":""},
  {"lat":40.574166,"lon":-74.559763,"city":"Bound Brook","state":"NJ","address":"1EA Chimney Rock Road","name":""},
  {"lat":38.800461,"lon":-77.127992,"city":"Alexandria","state":"VA","address":"5418 Eisenhower Ave","name":""},
  {"lat":32.4224,"lon":-90.142525,"city":"Ridgeland","state":"MS","address":"210 Industrial Cove","name":""},
  {"lat":34.661555,"lon":-120.47668,"city":"Lompoc","state":"CA","address":"1601 West Central Ave. suite A/B","name":""},
  {"lat":32.338252,"lon":-111.028596,"city":"Tucson","state":"AZ","address":"2840 W Ina Rd Suite 148","name":""},
  {"lat":40.715925,"lon":-74.069318,"city":"Jersey City","state":"NJ","address":"517 Communipaw Ave","name":""},
  {"lat":30.220757,"lon":-95.593715,"city":"Magnolia","state":"TX","address":"8375 Farm to Market Rd 1488 suite a","name":""},
  {"lat":31.590424,"lon":-94.666125,"city":"Nacogdoches","state":"TX","address":"1716 South St","name":""},
  {"lat":41.313943,"lon":-81.685127,"city":"Broadview Heights","state":"OH","address":"203 E Royalton Rd., Suites 105-107","name":""},
  {"lat":21.421687,"lon":-157.996814,"city":"Waipahu","state":"HI","address":"94-1388 Moaniani Street, Suite 102","name":""},
  {"lat":41.082068,"lon":-74.142682,"city":"Mahwah","state":"NJ","address":"31 Industrial Ave.","name":""},
  {"lat":29.911895,"lon":-95.583096,"city":"Houston","state":"TX","address":"9526-B Jones Rd","name":""},
  {"lat":40.687863,"lon":-74.442613,"city":"Berkeley Heights","state":"NJ","address":"10 Summit Ave","name":""},
  {"lat":40.915008,"lon":-74.267384,"city":"Wayne","state":"NJ","address":"156-158 Mountain View Blvd","name":""},
  {"lat":40.154291,"lon":-82.923068,"city":"Westerville","state":"OH","address":"5901 Chandler Ct Suite A","name":""},
  {"lat":40.541484,"lon":-84.574619,"city":"Celina","state":"OH","address":"715 S. Sugar St","name":""},
  {"lat":37.623295,"lon":-77.504119,"city":"Henrico","state":"VA","address":"8002 Staples Mill Rd.","name":""},
  {"lat":29.716846,"lon":-82.352078,"city":"Gainesville","state":"FL","address":"2106 NW 67th Place Suite #11","name":""},
  {"lat":37.27978,"lon":-80.03746,"city":"Salem","state":"VA","address":"1354 Roanoke Blvd.","name":""},
  {"lat":32.844084,"lon":-96.868347,"city":"Dallas","state":"TX","address":"9233 Denton Dr. #100","name":""},
  {"lat":39.72387,"lon":-82.611998,"city":"Lancaster","state":"OH","address":"560 W. Fair Ave.","name":""},
  {"lat":30.638307,"lon":-91.155707,"city":"Zachary","state":"LA","address":"3204 Highway 19","name":""},
  {"lat":35.29962,"lon":-82.45349,"city":"Hendersonville","state":"NC","address":"1034 Greenville Highway Suite A-B","name":""},
  {"lat":21.30196,"lon":-157.860669,"city":"Honolulu","state":"HI","address":"556 Reed Lane","name":""},
  {"lat":45.431851,"lon":-122.762622,"city":"Tigard","state":"OR","address":"12120 SW Garden Place","name":""},
  {"lat":41.403647,"lon":-74.324402,"city":"Goshen","state":"NY","address":"31 St. John St","name":""},
  {"lat":31.150259,"lon":-81.388141,"city":"St. Simons Island","state":"GA","address":"201 Skyland Road","name":""},
  {"lat":28.50187,"lon":-81.44022,"city":"Orlando","state":"FL","address":"4614 36th Street","name":""},
  {"lat":34.57885,"lon":-83.32791,"city":"Toccoa","state":"GA","address":"209 East Foreacre Street","name":""},
  {"lat":35.059175,"lon":-92.425046,"city":"Conway","state":"AR","address":"1195 South Harkrider Street","name":""},
  {"lat":33.51634,"lon":-81.95635,"city":"North Augusta","state":"SC","address":"1764 Knox Ave","name":""},
  {"lat":38.941056,"lon":-95.220801,"city":"Lawrence","state":"KS","address":"1204 E 24th Street, Suite A","name":""},
  {"lat":43.132335,"lon":-77.495475,"city":"Rochester","state":"NY","address":"1601 Penfield Rd","name":""},
  {"lat":45.129335,"lon":-93.428856,"city":"Maple Grove","state":"MN","address":"11650 96th Ave N. Suite B","name":""},
  {"lat":34.281887,"lon":-118.893713,"city":"Moorpark","state":"CA","address":"5260 Bonsai Street, Unit F","name":""},
  {"lat":25.099109,"lon":-80.435323,"city":"Key Largo","state":"FL","address":"100109 Oversees Hwy","name":""},
  {"lat":42.508235,"lon":-83.533855,"city":"Wixom","state":"MI","address":"48845 West Road","name":""},
  {"lat":26.38013,"lon":-81.80636,"city":"Bonita Springs","state":"FL","address":"24850 Old 41 Suite 22","name":""},
  {"lat":42.019417,"lon":-88.271521,"city":"Elgin","state":"IL","address":"368 Bluff City Boulevard","name":""},
  {"lat":21.398733,"lon":-157.770049,"city":"Kailua","state":"HI","address":"905 Kalanianaole Hwy\\\\r\\\\nUnit 3101","name":""},
  {"lat":47.29886,"lon":-122.323675,"city":"Federal Way","state":"WA","address":"33753 9th Avenue S, Building D","name":""},
  {"lat":47.53294,"lon":-122.26977,"city":"Seattle","state":"WA","address":"7722 Rainier Ave S","name":""},
  {"lat":36.840447,"lon":-119.70365,"city":"Clovis","state":"CA","address":"567 Park Creek Drive","name":""},
  {"lat":42.719844,"lon":-84.541604,"city":"Lansing","state":"MI","address":"701 E South Street, Suite 02","name":""},
  {"lat":38.833519,"lon":-94.67442,"city":"Overland Park","state":"KS","address":"16147 Foster St.","name":""},
  {"lat":42.62308,"lon":-73.787496,"city":"Glenmont","state":"NY","address":"35 Hamilton Lane, Unit 2","name":""},
  {"lat":30.299995,"lon":-90.92129,"city":"Prairieville","state":"LA","address":"16038 LA HWY 44","name":""},
  {"lat":47.599025,"lon":-122.18361,"city":"Bellevue","state":"WA","address":"1331 118th Ave SE, Suite 250","name":""},
  {"lat":41.466308,"lon":-93.68447,"city":"Norwalk","state":"IA","address":"399 Hakes Drive","name":""},
  {"lat":24.561651,"lon":-81.763078,"city":"Key West","state":"FL","address":"3224 Flagler Ave","name":""},
  {"lat":40.6957,"lon":-89.595245,"city":"Peoria","state":"IL","address":"706 N William Kumpf Blvd","name":""},
  {"lat":37.76305,"lon":-87.95876,"city":"Morganfield","state":"KY","address":"6035 St Rt 360","name":""},
  {"lat":38.109854,"lon":-122.570001,"city":"Novato","state":"CA","address":"7427 Redwood Blvd., Suite B","name":""},
  {"lat":33.596564,"lon":-111.714504,"city":"Fountain Hills","state":"AZ","address":"16939 E. Colony Dr.","name":""},
  {"lat":46.277586,"lon":-96.07204,"city":"Fergus Falls","state":"MN","address":"619 S. Cascade St.","name":""},
  {"lat":39.568409,"lon":-76.360334,"city":"Forest Hill","state":"MD","address":"350 Granary Road","name":""},
  {"lat":42.89246,"lon":-71.33108,"city":"Derry","state":"NH","address":"8 Tinkham Ave, Bldg E, Unit 2","name":""},
  {"lat":42.077439,"lon":-71.284945,"city":"Foxboro","state":"MA","address":"127 Washington St","name":""},
  {"lat":48.02768,"lon":-122.057654,"city":"Lake Stevens","state":"WA","address":"3304 Old Hartford Rd","name":""},
  {"lat":29.579738,"lon":-95.027037,"city":"Seabrook","state":"TX","address":"2111 Seabrook Cir","name":""},
  {"lat":37.063351,"lon":-120.837172,"city":"Los Banos","state":"CA","address":"1220 E Street, Suite B","name":""},
  {"lat":40.84997,"lon":-74.348507,"city":"Parsippany","state":"NJ","address":"323 New Road","name":""},
  {"lat":32.83724,"lon":-117.13451,"city":"San Diego","state":"CA","address":"5745 Kearny Villa Road #113-115","name":""},
  {"lat":41.953396,"lon":-87.749793,"city":"Chicago","state":"IL","address":"4864 W. Irving Park Rd","name":""},
  {"lat":33.88577,"lon":-84.30518,"city":"Chamblee","state":"GA","address":"2050-F Chamblee Tucker Road","name":""},
  {"lat":30.324585,"lon":-95.402795,"city":"Conroe","state":"TX","address":"3511 N Loop 336 E","name":""},
  {"lat":37.27177,"lon":-121.952394,"city":"Campbell","state":"CA","address":"186 E Sunnyoaks Avenue, Suite H","name":""},
  {"lat":38.509414,"lon":-121.503608,"city":"Sacramento","state":"CA","address":"6430 Freeport Blvd. #3","name":""},
  {"lat":36.26662,"lon":-95.849111,"city":"Owasso","state":"OK","address":"7770 N Owasso Expwy #175","name":""},
  {"lat":45.59885,"lon":-122.732951,"city":"Portland","state":"WA","address":"7024 N Richards St","name":""},
  {"lat":45.863816,"lon":-122.797953,"city":"Saint Helen's","state":"OR","address":"200 S 1st St.","name":""},
  {"lat":26.891669,"lon":-82.248582,"city":"Rotonda West","state":"FL","address":"887 Rotonda Cir.","name":""},
  {"lat":47.613533,"lon":-122.317029,"city":"Seattle","state":"WA","address":"1415 12th Ave","name":""},
  {"lat":41.493138,"lon":-73.167168,"city":"Southbury","state":"CT","address":"1432 Old Waterbury Rd.","name":""},
  {"lat":41.572964,"lon":-71.485702,"city":"North Kingstown","state":"RI","address":"660 Ten Rod Road","name":""},
  {"lat":35.409538,"lon":-80.86482,"city":"Huntersville","state":"NC","address":"9705 Rosewood Meadow Ln C","name":""},
  {"lat":38.389316,"lon":-105.115983,"city":"Florence","state":"CO","address":"202 E Main St","name":""},
  {"lat":38.925534,"lon":-90.198434,"city":"Godfrey","state":"IL","address":"2920 Greenwood Lane","name":""},
  {"lat":29.138909,"lon":-82.217203,"city":"Ocala","state":"FL","address":"4869 SW 60th avenue unit 100","name":""},
  {"lat":36.333155,"lon":-94.20608,"city":"Rogers","state":"AR","address":"401 S Rainbow Road Suite 1","name":""},
  {"lat":41.150822,"lon":-81.636023,"city":"Akron","state":"OH","address":"537 N Cleveland Massillon Rd","name":""},
  {"lat":42.00816,"lon":-71.31117,"city":"Plainvile","state":"MA","address":"1 George St, #5","name":""},
  {"lat":41.088369,"lon":-112.040829,"city":"Syracuse","state":"UT","address":"1754 South 750 West","name":""},
  {"lat":39.637807,"lon":-106.907436,"city":"Gypsum","state":"CO","address":"101 Airpark Dr. #B9","name":""},
  {"lat":39.163476,"lon":-86.546673,"city":"Bloomington","state":"IN","address":"340 South Walker Street","name":""},
  {"lat":36.182685,"lon":-82.748565,"city":"Greeneville","state":"TN","address":"75 Tusculum Heights Drive","name":""},
  {"lat":33.342704,"lon":-96.591423,"city":"Anna","state":"TX","address":"801 Country Road 286, Suite 506","name":""},
  {"lat":47.410454,"lon":-122.240823,"city":"Kent","state":"WA","address":"7405 S 212th St #101","name":""},
  {"lat":37.43484,"lon":-79.16648,"city":"Lynchburg","state":"VA","address":"2306 Bedford Avenue","name":""},
  {"lat":42.192215,"lon":-70.939241,"city":"Weymouth","state":"MA","address":"242 Libbey Industrial parkway","name":""},
  {"lat":38.954573,"lon":-76.936104,"city":"Hyattsville","state":"MD","address":"4616 Ingraham Street, Unit B","name":""},
  {"lat":27.882001,"lon":-82.85016,"city":"Indian Rocks Beach","state":"FL","address":"321 Gulf Blvd","name":""},
  {"lat":37.258742,"lon":-121.779366,"city":"San Jose","state":"CA","address":"474 Piercy Rd","name":""},
  {"lat":36.757557,"lon":-76.230384,"city":"Chesapeake","state":"VA","address":"1021 Executive Blvd., Suite 104","name":""},
  {"lat":35.879499,"lon":-106.283749,"city":"Los Alamos","state":"NM","address":"278A DP Road","name":""},
  {"lat":43.617806,"lon":-116.21599,"city":"Boise","state":"ID","address":"528 S Americana","name":""},
  {"lat":36.151355,"lon":-80.265583,"city":"Winston-Salem","state":"NC","address":"104 Progress Court \\nSTE 60","name":""},
  {"lat":37.892764,"lon":-122.115247,"city":"Lafayette","state":"CA","address":"3474 Mount Diablo Blvd.","name":""},
  {"lat":46.833994,"lon":-95.909948,"city":"Detroit Lakes","state":"MN","address":"2667 US 10","name":""},
  {"lat":39.524212,"lon":-107.758268,"city":"Rifle","state":"CO","address":"1850 Enterprise Court","name":""},
  {"lat":35.13666,"lon":-89.97041,"city":"Memphis","state":"TN","address":"74-80 Cumberland Street","name":""},
  {"lat":30.368944,"lon":-97.677141,"city":"Austin","state":"TX","address":"10604-A Bluff Bend Dr.","name":""},
  {"lat":39.869803,"lon":-86.097758,"city":"Indianapolis","state":"IN","address":"6238 Allisonville Road","name":""},
  {"lat":37.33471,"lon":-92.920228,"city":"Marshfield","state":"MO","address":"900 W Washington Ste 300","name":""},
  {"lat":43.091324,"lon":-77.609842,"city":"Rochester","state":"NY","address":"1460 East Henrietta Rd","name":""},
  {"lat":40.798359,"lon":-74.06494,"city":"Secaucus","state":"NJ","address":"10 Meadowlands Pkwy.","name":""},
  {"lat":37.321698,"lon":-79.870338,"city":"Roanoke","state":"VA","address":"4509 Bonsack Rd.","name":""},
  {"lat":42.235142,"lon":-83.681397,"city":"Ypsilanti","state":"MI","address":"3840 Carpenter Rd","name":""},
  {"lat":41.804705,"lon":-88.32566,"city":"North Aurora","state":"IL","address":"11 John Street","name":""},
  {"lat":42.102568,"lon":-70.763751,"city":"Pembroke","state":"MA","address":"201 Oak Street Unit 11","name":""},
  {"lat":42.688722,"lon":-89.028477,"city":"Janesville","state":"WI","address":"545 N. Main Street","name":""},
  {"lat":43.184369,"lon":-89.436014,"city":"Waunakee","state":"WI","address":"315 Raemisch Road","name":""},
  {"lat":30.064008,"lon":-90.483472,"city":"Laplace","state":"LA","address":"509 Main St","name":""},
  {"lat":28.396477,"lon":-81.403043,"city":"Orlando","state":"FL","address":"11709 South Orange Blossom Trail #103","name":""},
  {"lat":29.285202,"lon":-81.067914,"city":"Ormond Beach","state":"FL","address":"123 N Orchard Street, Ste 6-B","name":""},
  {"lat":42.331956,"lon":-83.04932,"city":"Detroit","state":"MI","address":"150 Michigan Ave.","name":""},
  {"lat":40.746098,"lon":-73.055584,"city":"Bayport","state":"NY","address":"734 Montauk Hwy","name":""},
  {"lat":28.593233,"lon":-81.350916,"city":"Winter Park","state":"FL","address":"125 West Fairbanks Ave","name":""},
  {"lat":37.64096,"lon":-84.76353,"city":"Danville","state":"KY","address":"472 Stanford Ave.","name":""},
  {"lat":36.014775,"lon":-114.958336,"city":"Henderson","state":"NV","address":"1331 S Boulder Hwy, Suite 120","name":""},
  {"lat":43.766143,"lon":-88.00051,"city":"Plymouth","state":"WI","address":"1799 County Road C","name":""},
  {"lat":20.867771,"lon":-156.340116,"city":"Makawao","state":"HI","address":"888 Haliimaile Road","name":""},
  {"lat":43.042277,"lon":-70.778704,"city":"Portsmouth","state":"NH","address":"210 West Rd. Unit 9","name":""},
  {"lat":40.467726,"lon":-104.880107,"city":"Windsor","state":"CO","address":"1297 Main Street","name":""},
  {"lat":34.053552,"lon":-117.312883,"city":"Colton","state":"CA","address":"1012 Cooley Drive, Suite J","name":""},
  {"lat":40.650301,"lon":-74.344083,"city":"Westfield","state":"NJ","address":"260 North Avenue East","name":""},
  {"lat":39.110326,"lon":-88.546506,"city":"Effingham","state":"IL","address":"1310 S Banker Street","name":""},
  {"lat":26.684374,"lon":-80.211241,"city":"Royal Palm Beach","state":"FL","address":"583 105th Ave North, Unit 7","name":""},
  {"lat":33.692184,"lon":-117.857938,"city":"Irvine","state":"CA","address":"17875 Sky Park Circle, Ste A and B","name":""},
  {"lat":26.82654,"lon":-80.091351,"city":"Palm Beach Gardens","state":"FL","address":"10190 Riverside Dr. Unit 101","name":""},
  {"lat":30.586483,"lon":-84.250474,"city":"Tallahassee","state":"FL","address":"1580 Bannerman Rd. Suite 3","name":""},
  {"lat":33.123566,"lon":-117.079877,"city":"Escondido","state":"CA","address":"237 E Valley Parkway","name":""},
  {"lat":37.758949,"lon":-120.837431,"city":"Oakdale","state":"CA","address":"794 Wakefield Court","name":""},
  {"lat":40.415309,"lon":-82.478103,"city":"Mount Vernon","state":"OH","address":"781 Fairgrounds Road","name":""},
  {"lat":39.816246,"lon":-105.163908,"city":"Arvada","state":"CO","address":"14700 W 66th Place, Unit 6","name":""},
  {"lat":40.86092,"lon":-79.91454,"city":"Butler","state":"PA","address":"542 Fairground Hill Rd.","name":""},
  {"lat":43.200792,"lon":-86.267583,"city":"Muskegon","state":"MI","address":"975 W. Broadway Ave.","name":""},
  {"lat":30.45005,"lon":-97.78598,"city":"Austin","state":"TX","address":"9313 Anderson Mill Dr","name":""},
  {"lat":30.15193,"lon":-97.833876,"city":"Austin","state":"TX","address":"11600 Manchaca Rd. Suite 301","name":""},
  {"lat":33.534139,"lon":-112.341679,"city":"Glendale","state":"AZ","address":"6808 N Dysart Rd #164","name":""},
  {"lat":35.81787,"lon":-80.26039,"city":"Lexington","state":"NC","address":"706 S Main St","name":""},
  {"lat":30.348374,"lon":-95.087504,"city":"Cleveland","state":"TX","address":"601 N. Washington Ave","name":""},
  {"lat":32.653342,"lon":-116.967259,"city":"Chula Vista","state":"CA","address":"821 Kuhn Dr. Suite 106","name":""},
  {"lat":37.087663,"lon":-76.479777,"city":"Newport News","state":"VA","address":"11836 Fishing Point Drive, Suite 400 - 500","name":""},
  {"lat":32.933168,"lon":-97.323907,"city":"Fort Worth","state":"TX","address":"12803 Harmon Road","name":""},
  {"lat":30.294861,"lon":-89.72077,"city":"Slidell","state":"LA","address":"200 N. Military Road","name":""},
  {"lat":34.29242,"lon":-88.75485,"city":"Tupelo","state":"MS","address":"1892 McCullough Blvd.","name":""},
  {"lat":39.275724,"lon":-76.606561,"city":"Baltimore","state":"MD","address":"1220 Key Highway","name":""},
  {"lat":35.392456,"lon":-86.241436,"city":"Tullahoma","state":"TN","address":"2121 N Jackson Street","name":""},
  {"lat":32.880543,"lon":-111.737537,"city":"Casa Grande","state":"AZ","address":"1150 E Florence Blvd Suite 5","name":""},
  {"lat":39.058957,"lon":-84.263044,"city":"Cincinnati","state":"OH","address":"1014 Ohio Pike","name":""},
  {"lat":30.097884,"lon":-95.542864,"city":"Tomball","state":"TX","address":"8028 Dowdell Rd Suite 104","name":""},
  {"lat":35.006442,"lon":-80.574499,"city":"Monroe","state":"NC","address":"2468 Old Charlotte Hwy","name":""},
  {"lat":38.70336,"lon":-90.433886,"city":"St. Louis","state":"MO","address":"2302 Centerline Industrial Dr.","name":""},
  {"lat":41.81278,"lon":-71.34633,"city":"East Providence","state":"MA","address":"10 Almeida Way","name":""},
  {"lat":42.248316,"lon":-88.97378,"city":"Rockford","state":"IL","address":"7326 N Cherryvale Mall Dr. Suite G","name":""},
  {"lat":40.81476,"lon":-72.943557,"city":"Yaphank","state":"NY","address":"54 E Old Dock Rd","name":""},
  {"lat":40.827071,"lon":-115.768014,"city":"Elko","state":"NV","address":"460 West Silver Street","name":""},
  {"lat":34.090805,"lon":-118.359473,"city":"Los Angeles","state":"CA","address":"7811 Santa Monica Blvd","name":""},
  {"lat":34.038462,"lon":-118.68486,"city":"Malibu","state":"CA","address":"3728 Cross Creek Road","name":""},
  {"lat":37.012091,"lon":-121.595719,"city":"Gilroy","state":"CA","address":"1300 First St. Suite B","name":""},
  {"lat":21.303135,"lon":-157.857388,"city":"Honolulu","state":"HI","address":"883 Mission Lane","name":""},
  {"lat":38.58439,"lon":-90.59805,"city":"Ellisville","state":"MO","address":"16176 Westwoods Business Park","name":""},
  {"lat":42.105568,"lon":-71.515596,"city":"Hopedale","state":"MA","address":"4E Rosenfeld Dr.","name":""},
  {"lat":48.3105,"lon":-114.24204,"city":"Kalispell","state":"MT","address":"1049 Prospector Trail, Unit A","name":""},
  {"lat":30.73778,"lon":-97.66534,"city":"Georgetown","state":"TX","address":"748 County Road 234, # 300","name":""},
  {"lat":30.178865,"lon":-82.657067,"city":"Lake City","state":"FL","address":"144 SW Waterford Ct","name":""},
  {"lat":32.851224,"lon":-97.101646,"city":"Bedford","state":"TX","address":"2804 Renee Street","name":""},
  {"lat":33.653811,"lon":-96.641201,"city":"Sherman","state":"TX","address":"2001 Skyline Dr, Suite D400","name":""},
  {"lat":29.684814,"lon":-82.446835,"city":"Gainesville","state":"FL","address":"3417 NW 97th Blvd","name":""},
  {"lat":45.039613,"lon":-93.098503,"city":"Little Canada","state":"MN","address":"3225 Country Drive Ste 140","name":""},
  {"lat":38.77532,"lon":-121.30694,"city":"Roseville","state":"CA","address":"7211 Galilee Rd #145","name":""},
  {"lat":34.72004,"lon":-82.25914,"city":"Simpsonville","state":"SC","address":"3710 Grandview Drive","name":""},
  {"lat":34.751564,"lon":-77.449624,"city":"Jacksonville","state":"NC","address":"111 Wilmington Hwy.","name":""},
  {"lat":34.016209,"lon":-84.361882,"city":"Roswell","state":"GA","address":"23 Maple St","name":""},
  {"lat":39.960174,"lon":-75.335731,"city":"Broomall","state":"PA","address":"575 Abbott Drive","name":""},
  {"lat":39.78215,"lon":-86.162564,"city":"Indianapolis","state":"IN","address":"1060 N Capitol Avenue, Suite 7-101","name":""},
  {"lat":40.385911,"lon":-80.043507,"city":"Pittsburgh","state":"PA","address":"439 Washington Rd.","name":""},
  {"lat":29.610672,"lon":-98.446168,"city":"San Antonio","state":"TX","address":"18347 Redland Rd","name":""},
  {"lat":25.747258,"lon":-80.314616,"city":"Miami","state":"FL","address":"7360 SW 24th St #31","name":""},
  {"lat":37.781776,"lon":-121.191784,"city":"Manteca","state":"CA","address":"1433 Moffat Blvd, Ste. 1","name":""},
  {"lat":39.36699,"lon":-104.859101,"city":"Castle Rock","state":"CO","address":"136 South Wilcox St","name":""},
  {"lat":46.770869,"lon":-92.118332,"city":"Duluth","state":"MN","address":"1621 West Michigan St","name":""},
  {"lat":41.901201,"lon":-87.64363,"city":"Chicago","state":"IL","address":"1030 N Larrabee St","name":""},
  {"lat":30.14403,"lon":-93.25021,"city":"Lake Charles","state":"LA","address":"1857 Easy St.","name":""},
  {"lat":37.979627,"lon":-87.501086,"city":"Evansville","state":"IN","address":"301 N Stockwell Rd","name":""},
  {"lat":36.927854,"lon":-121.79077,"city":"Watsonville","state":"CA","address":"57 Hangar Way","name":""},
  {"lat":34.22219,"lon":-84.153977,"city":"Cumming","state":"GA","address":"533 Canton HWY","name":""},
  {"lat":33.80603,"lon":-84.3412,"city":"Atlanta","state":"GA","address":"1185 Zonolite Road","name":""},
  {"lat":44.034473,"lon":-92.50112,"city":"Rochester","state":"MN","address":"2625 Hwy 14 West Suite HIJ","name":""},
  {"lat":41.337716,"lon":-72.046608,"city":"Groton","state":"CT","address":"90 Leonard Dr","name":""},
  {"lat":38.348393,"lon":-121.987442,"city":"Vacaville","state":"CA","address":"192 Bella Vista Dr. Suite D","name":""},
  {"lat":39.051845,"lon":-77.109269,"city":"Rockville","state":"MD","address":"12143 Nebel St","name":""},
  {"lat":40.125344,"lon":-75.534728,"city":"Phoenixville","state":"PA","address":"1041 W. Bridge Street, Suite 102","name":""},
  {"lat":38.424486,"lon":-121.483558,"city":"Elk Grove","state":"CA","address":"2232 Longport Court, Suite 100","name":""},
  {"lat":34.985253,"lon":-92.048473,"city":"Cabot","state":"AR","address":"12 Douglas Rd.","name":""},
  {"lat":40.040437,"lon":-82.470042,"city":"Newark","state":"OH","address":"1917 Coffman Rd","name":""},
  {"lat":41.803395,"lon":-87.621555,"city":"Chicago","state":"IL","address":"5000 S Indiana","name":""},
  {"lat":36.17072,"lon":-79.996925,"city":"Oak Ridge","state":"NC","address":"8309 Linville Rd","name":""},
  {"lat":40.518475,"lon":-105.046309,"city":"Fort Collins","state":"CO","address":"4862 Innovation Drive","name":""},
  {"lat":33.829328,"lon":-84.365199,"city":"Atlanta","state":"GA","address":"674 Miami Circle","name":""},
  {"lat":42.364111,"lon":-71.031474,"city":"Boston","state":"MA","address":"256 Marginal Street, Building 16B","name":""},
  {"lat":33.559472,"lon":-117.136626,"city":"Murrieta","state":"CA","address":"38444 Sky Canyon Drive #170","name":""},
  {"lat":39.114219,"lon":-84.417729,"city":"Cincinnati","state":"OH","address":"673 Wilmer Avenue","name":""},
  {"lat":39.788589,"lon":-105.134508,"city":"Wheat Ridge","state":"CO","address":"12090 W. 50th Place","name":""},
  {"lat":28.576055,"lon":-81.40463,"city":"Orlando","state":"FL","address":"2630 Taft Avenue","name":""},
  {"lat":39.739824,"lon":-104.904213,"city":"Denver","state":"CO","address":"7200 E. Colfax Ave.","name":""},
  {"lat":40.822197,"lon":-74.22022,"city":"Montclair","state":"NJ","address":"130 Valley Road","name":""},
  {"lat":44.547995,"lon":-123.266895,"city":"Corvallis","state":"OR","address":"1780 SW 3rd St. Suite B & C","name":""},
  {"lat":41.963903,"lon":-87.674782,"city":"Chicago","state":"IL","address":"4510 North Ravenswood Ave.","name":""},
  {"lat":40.711941,"lon":-73.885846,"city":"Middle Village","state":"NY","address":"69-08-69-12 Metropolitan Ave","name":""},
  {"lat":29.56121,"lon":-98.22961,"city":"Cibolo","state":"TX","address":"275 Pfeil Rd.","name":""},
  {"lat":40.53947,"lon":-75.49005,"city":"Emmaus","state":"PA","address":"100 Keystone Ave.","name":""},
  {"lat":41.20458,"lon":-81.454768,"city":"Hudson","state":"OH","address":"5170 Hudson Drive, Suite O","name":""},
  {"lat":42.406385,"lon":-71.069888,"city":"Everett","state":"MA","address":"69 Norman Street","name":""},
  {"lat":40.92812,"lon":-73.771572,"city":"New Rochelle","state":"NY","address":"5 Plain Ave","name":""},
  {"lat":39.886737,"lon":-75.120391,"city":"Gloucester City","state":"NJ","address":"514 S Broadway","name":""},
  {"lat":34.466894,"lon":-92.96568,"city":"Hot Springs","state":"AR","address":"172 Stanage Dr.","name":""},
  {"lat":37.504638,"lon":-77.598481,"city":"North Chesterfield","state":"VA","address":"10910 Southlake Ct. Suite C","name":""},
  {"lat":36.67,"lon":-121.66,"city":"Salinas","state":"CA","address":"635 Sanborn Pl. Suite 14","name":""},
  {"lat":44.32836,"lon":-69.763243,"city":"Augusta","state":"ME","address":"170 Riverside Drive","name":""},
  {"lat":45.464425,"lon":-89.729062,"city":"Tomahawk","state":"WI","address":"19 Theiler Drive","name":""},
  {"lat":34.009123,"lon":-84.61354,"city":"Kennesaw","state":"GA","address":"2000 Cobb International Blvd, Suite A","name":""},
  {"lat":34.974687,"lon":-89.860769,"city":"Olive Branch","state":"MS","address":"7300 Craft-Goodman Road Suite 2B","name":""},
  {"lat":36.12338,"lon":-115.297687,"city":"Las Vegas","state":"NV","address":"3665 S. Ft. Apache Rd. #104","name":""},
  {"lat":42.774229,"lon":-88.941808,"city":"Milton","state":"WI","address":"525 College Street","name":""},
  {"lat":34.541958,"lon":-82.626175,"city":"Anderson","state":"SC","address":"201 East Reed Road","name":""},
  {"lat":32.697193,"lon":-117.17174,"city":"Coronado","state":"CA","address":"160 C. Avenue","name":""},
  {"lat":43.6618,"lon":-116.64139,"city":"Caldwell","state":"ID","address":"4611 Enterprise Way","name":""},
  {"lat":41.413658,"lon":-81.998889,"city":"North Ridgeville","state":"OH","address":"5160 Mills Ind Pkwy","name":""},
  {"lat":42.113844,"lon":-72.745421,"city":"Westfield","state":"MA","address":"4 Coleman Ave","name":""},
  {"lat":43.14521,"lon":-77.707075,"city":"Rochester","state":"NY","address":"2147 Buffalo Rd","name":""},
  {"lat":32.711056,"lon":-96.45205,"city":"Forney","state":"TX","address":"12019 Lewis Circle","name":""},
  {"lat":45.467461,"lon":-122.722515,"city":"Portland","state":"OR","address":"4356 SW Multnomah Blvd","name":""},
  {"lat":34.11967,"lon":-116.45143,"city":"Yucca Valley","state":"CA","address":"7351 Hopi Trail","name":""},
  {"lat":27.589451,"lon":-97.223644,"city":"Corpus Christi","state":"TX","address":"15715 South Padre Island Drive Suite 102","name":""},
  {"lat":40.23889,"lon":-74.72326,"city":"Hamilton","state":"NJ","address":"2101 East State Street Extension","name":""},
  {"lat":31.36757,"lon":-110.932738,"city":"Nogales","state":"AZ","address":"156 W. Mariposa Rd","name":""},
  {"lat":30.01106,"lon":-95.724289,"city":"Cypress","state":"TX","address":"16326 Mueschke Rd E-13","name":""},
  {"lat":40.29039,"lon":-83.079,"city":"Delaware","state":"OH","address":"311 London Road","name":""},
  {"lat":38.9268,"lon":-78.18612,"city":"Front Royal","state":"VA","address":"520A East 6th Street","name":""},
  {"lat":37.00862,"lon":-76.30888,"city":"Fort Monroe","state":"VA","address":"21 North Gate Road","name":""},
  {"lat":43.681896,"lon":-92.996332,"city":"Austin","state":"MN","address":"803 18th Ave NW","name":""},
  {"lat":40.327066,"lon":-75.303645,"city":"Telford","state":"PA","address":"4210 Bethlehem Pike, Bld 1, Space C","name":""},
  {"lat":41.454495,"lon":-71.505192,"city":"South Kingstown","state":"RI","address":"1425 Kingstown Road","name":""},
  {"lat":45.374561,"lon":-84.925442,"city":"Petoskey","state":"MI","address":"345 N. Division Rd., Unit A","name":""},
  {"lat":42.606637,"lon":-87.827288,"city":"Kenosha","state":"WI","address":"3417-14th Avenue","name":""},
  {"lat":43.176253,"lon":-87.914943,"city":"Fox Point","state":"WI","address":"8797 N Port Washington Road","name":""},
  {"lat":33.235894,"lon":-96.897011,"city":"Aubrey","state":"TX","address":"1875 FM 1385","name":""},
  {"lat":44.929962,"lon":-74.889799,"city":"Massena","state":"NY","address":"54 East Orvis St","name":""},
  {"lat":32.301493,"lon":-106.802098,"city":"Las Cruces","state":"NM","address":"1810 W Amador Ave","name":""},
  {"lat":41.274416,"lon":-73.939139,"city":"Peekskill","state":"NY","address":"8 John Walsh Boulevard, Suite 120","name":""},
  {"lat":35.634537,"lon":-78.711288,"city":"Raleigh","state":"NC","address":"10113 Division Dr","name":""},
  {"lat":28.124858,"lon":-82.760415,"city":"Tarpon Springs","state":"FL","address":"1888 S Pinellas Ave","name":""},
  {"lat":32.510527,"lon":-94.794892,"city":"Longview","state":"TX","address":"408 Pine Tree Road","name":""},
  {"lat":33.038854,"lon":-97.427529,"city":"Rhome","state":"TX","address":"138 Leopard Road Suite 350","name":""},
  {"lat":40.602446,"lon":-105.082398,"city":"Fort Collins","state":"CO","address":"325 Hickory Street Suites 120 & 130","name":""},
  {"lat":30.34226,"lon":-86.06675,"city":"Santa Rosa Beach","state":"FL","address":"170 Serenoa Rd","name":""},
  {"lat":38.55819,"lon":-76.603923,"city":"Prince Frederick","state":"MD","address":"1030 Prince Frederick Blvd., Suite C","name":""},
  {"lat":28.334087,"lon":-81.529417,"city":"Kissimmee","state":"FL","address":"6123 W Irlo Bronson Memorial Hwy.","name":""},
  {"lat":39.916794,"lon":-83.134322,"city":"Columbus","state":"OH","address":"5320 Krieger Court","name":""},
  {"lat":29.13893,"lon":-80.99949,"city":"Port Orange","state":"FL","address":"709 Samms Avenue Unit G H F","name":""},
  {"lat":34.87863,"lon":-92.19324,"city":"Sherwood","state":"AR","address":"15517 Hwy 107","name":""},
  {"lat":41.512072,"lon":-82.941918,"city":"Port Clinton","state":"OH","address":"116 East 2nd street","name":""},
  {"lat":32.733785,"lon":-80.062477,"city":"Johns Island","state":"SC","address":"3226 Maybank Hwy, Unit F11","name":""},
  {"lat":38.261487,"lon":-77.437725,"city":"Fredericksburg","state":"VA","address":"11050 Pierson Dr Ste 101","name":""},
  {"lat":40.116558,"lon":-88.231933,"city":"Champaign","state":"IL","address":"508 E University Ave","name":""},
  {"lat":37.849038,"lon":-122.291126,"city":"Emeryville","state":"CA","address":"1313 67th Street","name":""},
  {"lat":42.349009,"lon":-83.088203,"city":"Detroit","state":"MI","address":"4885 15th Street","name":""},
  {"lat":26.273787,"lon":-81.71158,"city":"Naples","state":"FL","address":"7740 Preserve Lane, Unit 7","name":""},
  {"lat":39.42472,"lon":-86.4289,"city":"Martinsville","state":"IN","address":"240 S Main","name":""},
  {"lat":42.271388,"lon":-73.763938,"city":"Hudson","state":"NY","address":"351 Fairview Avenue Ste 500","name":""},
  {"lat":33.131121,"lon":-117.240591,"city":"Carlsbad","state":"CA","address":"3146 Tiger Run Ct.\\\\r\\\\nSte 120","name":""},
  {"lat":36.985109,"lon":-121.989204,"city":"Santa Cruz","state":"CA","address":"2724 Soquel Ave, Suite C","name":""},
  {"lat":36.171496,"lon":-86.673377,"city":"Nashville","state":"TN","address":"219 Shady Grove Rd","name":""},
  {"lat":41.656189,"lon":-71.49851,"city":"East Greenwich","state":"RI","address":"1485 S County Trail","name":""},
  {"lat":34.728736,"lon":-112.009368,"city":"Cottonwood","state":"AZ","address":"1329 E State Rt 89A, Suite E","name":""},
  {"lat":37.947233,"lon":-122.330074,"city":"Richmond","state":"CA","address":"4920 McBryde Ave","name":""},
  {"lat":41.971565,"lon":-70.974321,"city":"Bridgewater","state":"MA","address":"620 Bedford Street","name":""},
  {"lat":37.771691,"lon":-87.080133,"city":"Owensboro","state":"KY","address":"1316 Alsop Lane","name":""},
  {"lat":41.030835,"lon":-74.038262,"city":"Park Ridge","state":"NJ","address":"33 South Maple Ave, Unit C","name":""},
  {"lat":45.297563,"lon":-92.975173,"city":"Forest Lake","state":"MN","address":"24078 Greenway Road, Suite 7","name":""},
  {"lat":37.486838,"lon":-122.185901,"city":"Menlo Park","state":"CA","address":"3585 Haven Dr. Units E and J","name":""},
  {"lat":42.86478,"lon":-112.44819,"city":"Pocatello","state":"ID","address":"209 E Clark St.","name":""},
  {"lat":36.081312,"lon":-79.507924,"city":"Burlington","state":"NC","address":"3319 South Church St.","name":""},
  {"lat":37.20975,"lon":-80.40157,"city":"Blacksburg","state":"VA","address":"201 Hubbard Street","name":""},
  {"lat":40.189676,"lon":-80.134642,"city":"Eighty Four","state":"PA","address":"1019 Rt. 519","name":""},
  {"lat":32.718177,"lon":-97.875106,"city":"Weatherford","state":"TX","address":"706 Dennis Rd","name":""},
  {"lat":36.58946,"lon":-119.44013,"city":"Reedley","state":"CA","address":"821 East Dinuba Avenue","name":""},
  {"lat":44.843392,"lon":-93.78238,"city":"Waconia","state":"MN","address":"219 E. Frontage Rd","name":""},
  {"lat":32.798713,"lon":-79.945839,"city":"Charleston","state":"SC","address":"700 King Street, Suite D","name":""},
  {"lat":33.746984,"lon":-84.353445,"city":"Atlanta","state":"GA","address":"1046 Memorial Drive SE","name":""},
  {"lat":43.602176,"lon":-116.386864,"city":"Meridian","state":"ID","address":"490 E. Schiller Ln. Suite 100","name":""},
  {"lat":44.878774,"lon":-93.398741,"city":"Edina","state":"MN","address":"6883 Washington Ave S","name":""},
  {"lat":25.841729,"lon":-80.189336,"city":"Miami","state":"FL","address":"7269 NE 4th Ave., Suite 101","name":""},
  {"lat":42.209715,"lon":-71.54668,"city":"Hopkinton","state":"MA","address":"45R South Street","name":""},
  {"lat":21.322322,"lon":-158.090489,"city":"Kapolei","state":"HI","address":"2045 Lauwiliwili Street #802","name":""},
  {"lat":41.426674,"lon":-91.036716,"city":"Muscatine","state":"IA","address":"913 E 2nd ST","name":""},
  {"lat":44.904746,"lon":-89.55554,"city":"Weston","state":"WI","address":"5408 Westfair Ave, Suite 5","name":""},
  {"lat":41.516433,"lon":-88.181064,"city":"Joliet","state":"IL","address":"353Airport Dr","name":""},
  {"lat":30.215415,"lon":-90.929855,"city":"Gonzales","state":"LA","address":"2123 S Philippe Avenue","name":""},
  {"lat":34.612425,"lon":-120.07847,"city":"Santa Ynez","state":"CA","address":"3640 Sagunto Rd.","name":""},
  {"lat":42.036847,"lon":-91.703069,"city":"Hiawatha","state":"IA","address":"205 Miller Road","name":""},
  {"lat":34.055658,"lon":-84.553894,"city":"Kennesaw","state":"GA","address":"4290 Bells Ferry Road, Suite 148","name":""},
  {"lat":33.636274,"lon":-117.60993,"city":"Rancho Santa Margarita","state":"CA","address":"29821 Aventura, Suite D-F","name":""},
  {"lat":41.996498,"lon":-87.808535,"city":"Chicago","state":"IL","address":"6325 N. Avondale Ave","name":""},
  {"lat":37.767949,"lon":-122.401586,"city":"San Francisco","state":"CA","address":"175 De Haro Street","name":""},
  {"lat":36.12465,"lon":-79.90585,"city":"Greensboro","state":"NC","address":"2231 Fleming Rd","name":""},
  {"lat":38.772071,"lon":-90.581588,"city":"St. Peters","state":"MO","address":"929 Jungermann Rd","name":""},
  {"lat":45.162109,"lon":-95.017166,"city":"Willmar","state":"MN","address":"3904 HWY 71 NE","name":""},
  {"lat":42.621723,"lon":-84.499388,"city":"Mason","state":"MI","address":"1334 N Cedar St","name":""},
  {"lat":33.22099,"lon":-97.76404,"city":"Bridgeport","state":"TX","address":"301 Center Ct Dr.","name":""},
  {"lat":34.781218,"lon":-86.918277,"city":"Athens","state":"AL","address":"15487 Hastings Road","name":""},
  {"lat":29.947592,"lon":-90.135073,"city":"New Orleans","state":"LA","address":"8422 Burthe St","name":""},
  {"lat":34.009537,"lon":-118.41488,"city":"Culver City","state":"CA","address":"3961 Sepulveda Blvd.","name":""},
  {"lat":42.591202,"lon":-71.149982,"city":"Wilmington","state":"MA","address":"10 Upton Dr, Ste 7","name":""},
  {"lat":39.09177,"lon":-94.576923,"city":"Kansas City","state":"MO","address":"516 E 18th","name":""},
  {"lat":39.635325,"lon":-84.182967,"city":"Centerville","state":"OH","address":"923 Senate Dr.","name":""},
  {"lat":38.978686,"lon":-94.857322,"city":"Shawnee","state":"KS","address":"8245 Hedge Lane Terr","name":""},
  {"lat":41.102163,"lon":-83.201364,"city":"Tiffin","state":"OH","address":"1617 County Road 54","name":""},
  {"lat":41.165424,"lon":-81.740069,"city":"Medina","state":"OH","address":"4049 Ridge Rd","name":""},
  {"lat":20.026446,"lon":-155.659715,"city":"Kamuela","state":"HI","address":"64-1032 Mamalahoa Hwy, #303","name":""},
  {"lat":43.825235,"lon":-91.25244,"city":"La Crosse","state":"WI","address":"303 Causeway Blvd","name":""},
  {"lat":35.928082,"lon":-84.001487,"city":"Knoxville","state":"TN","address":"412 Erin Drive","name":""},
  {"lat":35.241675,"lon":-80.811465,"city":"Charlotte","state":"NC","address":"2508 N Davidson St","name":""},
  {"lat":36.27237,"lon":-119.312,"city":"Visalia","state":"CA","address":"6420 S. Mooney Blvd, Unit P","name":""},
  {"lat":31.232693,"lon":-81.455121,"city":"Brunswick","state":"GA","address":"1036 Glynn Park Rd","name":""},
  {"lat":35.26677,"lon":-94.36541,"city":"Fort Smith","state":"AR","address":"6315 Old Harrison Ln.","name":""},
  {"lat":38.497003,"lon":-122.455161,"city":"Saint Helena","state":"CA","address":"995 Vintage Avenue, Suite 104","name":""},
  {"lat":45.305694,"lon":-93.609536,"city":"Elk River","state":"MN","address":"13469 Business Center Drive","name":""},
  {"lat":38.822372,"lon":-77.058619,"city":"Alexandria","state":"VA","address":"1712 Mount Vernon Avenue","name":""},
  {"lat":40.749978,"lon":-73.910764,"city":"Sunnyside","state":"NY","address":"52-25 Barnett Avenue","name":""},
  {"lat":33.748583,"lon":-84.36009,"city":"Atlanta","state":"GA","address":"215B Chester Avenue SE","name":""},
  {"lat":36.860168,"lon":-87.519558,"city":"Hopkinsville","state":"KY","address":"3300 Canton Pike, Suite A","name":""},
  {"lat":44.458548,"lon":-73.212996,"city":"Burlington","state":"VT","address":"39 Birchcliff Parkway","name":""},
  {"lat":44.539899,"lon":-68.452646,"city":"Ellsworth","state":"ME","address":"249 Bucksport Rd","name":""},
  {"lat":35.738578,"lon":-78.785092,"city":"Cary","state":"NC","address":"305 Ashville Ave., Suite G","name":""},
  {"lat":42.54532,"lon":-71.74555,"city":"Leominster","state":"MA","address":"100 Crawford Street, Suite 5","name":""},
  {"lat":41.717933,"lon":-72.262553,"city":"Columbia","state":"CT","address":"106 Route 66 East","name":""},
  {"lat":38.59254,"lon":-89.911221,"city":"O'Fallon","state":"IL","address":"102 West State Street","name":""},
  {"lat":35.813627,"lon":-78.614811,"city":"Raleigh","state":"NC","address":"1317 Hodges Street","name":""},
  {"lat":38.744065,"lon":-77.67642,"city":"Vint Hill","state":"VA","address":"7142 Farm Station Rd","name":""},
  {"lat":32.447409,"lon":-96.997936,"city":"Midlothian","state":"TX","address":"3271 FM 663 Suite C","name":""},
  {"lat":37.935289,"lon":-122.520461,"city":"Corte Madera","state":"CA","address":"405 Tamal Plaza","name":""},
  {"lat":34.180585,"lon":-84.4977,"city":"Canton","state":"GA","address":"127 P. Rickman Industrial Drive","name":""},
  {"lat":32.702025,"lon":-97.030226,"city":"Grand Prairie","state":"TX","address":"2960 Epic Place","name":""},
  {"lat":41.637285,"lon":-85.000795,"city":"Angola","state":"IN","address":"422 N. Elizabeth St","name":""},
  {"lat":41.048623,"lon":-81.732908,"city":"Wadsworth","state":"OH","address":"251 Great Oaks Trail","name":""},
  {"lat":42.713908,"lon":-73.81024,"city":"Albany","state":"NY","address":"444 Sand Creek Rd.","name":""},
  {"lat":48.03259,"lon":-122.059845,"city":"Lake Stevens","state":"WA","address":"3910 127th Drive NE","name":""},
  {"lat":39.724877,"lon":-105.098694,"city":"Lakewood","state":"CO","address":"9110 W. 6th Ave","name":""},
  {"lat":40.124336,"lon":-83.191339,"city":"Dublin","state":"OH","address":"7670 Commerce Pl, Suite E","name":""},
  {"lat":44.387287,"lon":-103.510684,"city":"Sturgis","state":"SD","address":"948 Pine View Dr","name":""},
  {"lat":42.982532,"lon":-70.940516,"city":"Exeter","state":"NH","address":"38 Portsmouth Ave","name":""},
  {"lat":35.128296,"lon":-106.622381,"city":"Albuquerque","state":"NM","address":"4201 Yale Blvd NE Suite H","name":""},
  {"lat":43.156112,"lon":-88.7308,"city":"Watertown","state":"WI","address":"1936 Gateway Dr.","name":""},
  {"lat":39.835999,"lon":-86.371356,"city":"Brownsburg","state":"IN","address":"1650 E. Northfield Dr. Suite 100","name":""},
  {"lat":43.183835,"lon":-84.112815,"city":"Chesaning","state":"MI","address":"301 Broad St","name":""},
  {"lat":41.719505,"lon":-73.968466,"city":"Highland","state":"NY","address":"10 Commercial Ave","name":""},
  {"lat":42.19014,"lon":-71.75999,"city":"Millbury","state":"MA","address":"19 S Main Street","name":""},
  {"lat":46.31224,"lon":-114.1227,"city":"Corvallis","state":"MT","address":"345 Woodside Cut Off Road","name":""},
  {"lat":39.482802,"lon":-76.649807,"city":"Cockeysville","state":"MD","address":"10821 Williamson Lane, Unit 4","name":""},
  {"lat":47.241364,"lon":-122.524979,"city":"Fircrest","state":"WA","address":"2079 Mildred St W","name":""},
  {"lat":38.780579,"lon":-77.076623,"city":"Alexandria","state":"VA","address":"6301A Richmond Highway","name":""},
  {"lat":35.713751,"lon":-78.808692,"city":"Cary","state":"NC","address":"11301 Penny Rd, Suite A","name":""},
  {"lat":38.575272,"lon":-90.636727,"city":"Wildwood","state":"MO","address":"16966 Manchester Rd","name":""},
  {"lat":40.005925,"lon":-75.66507,"city":"Downingtown","state":"PA","address":"1150 Boot rd Suite #6","name":""},
  {"lat":39.978443,"lon":-74.846104,"city":"Hainesport","state":"NJ","address":"3440 Sylon Blvd","name":""},
  {"lat":35.20121,"lon":-90.18532,"city":"Marion","state":"AR","address":"2394 State HWY 77","name":""},
  {"lat":48.75757,"lon":-122.46964,"city":"Bellingham","state":"WA","address":"2031 Grant Street","name":""},
  {"lat":26.23,"lon":-80.09,"city":"Pompano Beach","state":"FL","address":"429 N Federal Hwy","name":""},
  {"lat":38.501433,"lon":-90.629027,"city":"Eureka","state":"MO","address":"134 S Virginia Ave","name":""},
  {"lat":42.920927,"lon":-112.46243,"city":"Chubbuck","state":"ID","address":"4841 Cloverdell Rd","name":""},
  {"lat":43.621543,"lon":-116.238368,"city":"Boise","state":"ID","address":"3235 W Chinden Blvd.","name":""},
  {"lat":37.514046,"lon":-122.262811,"city":"San Carlos","state":"CA","address":"551 Taylor Way #5","name":""},
  {"lat":34.095437,"lon":-117.869671,"city":"Covina","state":"CA","address":"1028 E. Cypress Street","name":""},
  {"lat":38.780473,"lon":-90.787978,"city":"Lake St. Louis","state":"MO","address":"21 Meadows Circle Dr Suite 314","name":""},
  {"lat":33.28185,"lon":-111.687239,"city":"Gilbert","state":"AZ","address":"7400 S Power Rd Suite 108","name":""},
  {"lat":45.327833,"lon":-118.09688,"city":"La Grande","state":"OR","address":"1802 4th Street, Suite B","name":""},
  {"lat":39.8107,"lon":-74.927074,"city":"Berlin Township","state":"NJ","address":"419 Commerce Lane, Ste 6 & 7","name":""},
  {"lat":42.017515,"lon":-87.915802,"city":"Des Plaines","state":"IL","address":"200 E. Howard St. Suite 230","name":""},
  {"lat":30.35512,"lon":-88.5561,"city":"Pascagoula","state":"MS","address":"903 Ingalls Ave.","name":""},
  {"lat":29.084948,"lon":-81.322655,"city":"DeLand","state":"FL","address":"3128 N Woodland Blvd","name":""},
  {"lat":39.704253,"lon":-82.576313,"city":"Lancaster","state":"OH","address":"702 S Ewing St","name":""},
  {"lat":38.448088,"lon":-90.204087,"city":"Columbia","state":"IL","address":"618 North Main St.","name":""},
  {"lat":30.419497,"lon":-95.516383,"city":"Willis","state":"TX","address":"10653 FM 1097 W. Ste. B","name":""},
  {"lat":40.986646,"lon":-74.741739,"city":"Andover Borough","state":"NJ","address":"134 Main Street","name":""},
  {"lat":37.121095,"lon":-94.473617,"city":"Joplin","state":"MO","address":"3231 Enterprise Ave","name":""},
  {"lat":28.327383,"lon":-80.730498,"city":"Rockledge","state":"FL","address":"402 Hawk Street, Suite E","name":""},
  {"lat":36.111508,"lon":-115.182772,"city":"Las Vegas","state":"NV","address":"4325 Dean Martin Dr Unit 315","name":""},
  {"lat":44.05023,"lon":-121.30201,"city":"Bend","state":"OR","address":"310 SE Railroad St.","name":""},
  {"lat":41.60933,"lon":-93.85184,"city":"Waukee","state":"IA","address":"1105 SE Westbrooke Dr","name":""},
  {"lat":26.305817,"lon":-80.101575,"city":"Deerfield Beach","state":"FL","address":"905 SE 1st Way","name":""},
  {"lat":37.32419,"lon":-76.76294,"city":"Williamsburg","state":"VA","address":"5700 Warhill Trail","name":""},
  {"lat":40.901193,"lon":-72.385644,"city":"Southampton","state":"NY","address":"395 county rd 39a","name":""},
  {"lat":37.196066,"lon":-113.275489,"city":"La Verkin","state":"UT","address":"296 S. State Street","name":""},
  {"lat":33.452462,"lon":-112.376039,"city":"Goodyear","state":"AZ","address":"540 N Bullard Ave, #13-18","name":""},
  {"lat":31.091424,"lon":-97.372984,"city":"Temple","state":"TX","address":"2509 W Avenue M","name":""},
  {"lat":36.8464,"lon":-76.129497,"city":"Virginia Beach","state":"VA","address":"316, 320, 322, 324 Constitution Drive","name":""},
  {"lat":44.737059,"lon":-93.20617,"city":"Apple Valley","state":"MN","address":"6950 146th St. West Suite 106","name":""},
  {"lat":33.560979,"lon":-112.342252,"city":"El Mirage","state":"AZ","address":"8628 N Dysart Rd #101","name":""},
  {"lat":33.435971,"lon":-117.621896,"city":"San Clemente","state":"CA","address":"1504 Avenida de la Estrella, Unit H","name":""},
  {"lat":40.016709,"lon":-82.890952,"city":"Gahanna","state":"OH","address":"145 South Stygler Road","name":""},
  {"lat":28.12254,"lon":-80.63976,"city":"Melbourne","state":"FL","address":"1236 Sarno Road","name":""},
  {"lat":43.23089,"lon":-71.37004,"city":"Epsom","state":"NH","address":"2008 Dover Road, Unit 2","name":""},
  {"lat":36.585171,"lon":-79.389133,"city":"Danville","state":"VA","address":"416 Lynn Street","name":""},
  {"lat":41.824995,"lon":-72.896452,"city":"Canton","state":"CT","address":"130 Dowd Ave","name":""},
  {"lat":33.797288,"lon":-117.872974,"city":"Orange","state":"CA","address":"635 North Eckhoff Street, Unit K","name":""},
  {"lat":40.00231,"lon":-82.81412,"city":"Blacklick","state":"OH","address":"6788 Kilowatt Circle","name":""},
  {"lat":32.93626,"lon":-96.627102,"city":"Garland","state":"TX","address":"2360 Crist Rd. #B800","name":""},
  {"lat":46.912161,"lon":-102.780473,"city":"Dickinson","state":"ND","address":"340 29th St. E, Unit A","name":""},
  {"lat":47.468348,"lon":-120.332026,"city":"Wenatchee","state":"WA","address":"151 Easy Way, Suite 100","name":""},
  {"lat":43.67731,"lon":-72.260319,"city":"Lebanon","state":"NH","address":"33 Morgan Drive","name":""},
  {"lat":39.694349,"lon":-75.021003,"city":"Williamstown","state":"NJ","address":"1165 N. Tuckahoe Road","name":""},
  {"lat":37.98352,"lon":-84.529255,"city":"Lexington","state":"KY","address":"3801 Nicholasville Center Drive","name":""},
  {"lat":29.701971,"lon":-95.740626,"city":"Richmond","state":"TX","address":"20527 FM 1093, #C6","name":""},
  {"lat":32.124141,"lon":-81.263017,"city":"Pooler","state":"GA","address":"1018 West Highway 80 Unit 703","name":""},
  {"lat":41.103322,"lon":-111.951322,"city":"Layton","state":"UT","address":"825 East Hwy 193","name":""},
  {"lat":29.65226,"lon":-82.495589,"city":"Newberry","state":"FL","address":"251 SW 143rd Street","name":""},
  {"lat":39.803585,"lon":-75.740012,"city":"Avondale","state":"PA","address":"9035 Gap Newport Pike","name":""},
  {"lat":39.1837,"lon":-119.763516,"city":"Carson City","state":"NV","address":"403 Hot Springs Road #2","name":""},
  {"lat":32.47856,"lon":-93.69416,"city":"Shreveport","state":"LA","address":"3455 Knight Street","name":""},
  {"lat":27.481771,"lon":-82.438343,"city":"Bradenton","state":"FL","address":"10530 Portal Crossing","name":""},
  {"lat":41.037275,"lon":-80.65619,"city":"Youngstown","state":"OH","address":"6001 Southern Blvd.","name":""},
  {"lat":25.986804,"lon":-80.128815,"city":"Hallandale Beach","state":"FL","address":"1935 E Hallandale Beach Blvd","name":""},
  {"lat":28.003336,"lon":-82.14857,"city":"Plant City","state":"FL","address":"1402 Mercantile Ct., Suite B","name":""},
  {"lat":41.331476,"lon":-74.120691,"city":"Central Valley","state":"NY","address":"262 Route 32","name":""},
  {"lat":29.35936,"lon":-100.89919,"city":"Del Rio","state":"TX","address":"601 S. Main St.","name":""},
  {"lat":40.107577,"lon":-82.96408,"city":"Columbus","state":"OH","address":"1948 Schrock Road","name":""},
  {"lat":32.890511,"lon":-96.468106,"city":"Rockwall","state":"TX","address":"760 W. Ralph Hall Pkwy., Ste. 110","name":""},
  {"lat":36.823445,"lon":-76.001273,"city":"Virginia Beach","state":"VA","address":"545 S. Birdneck Road, Suite 108","name":""},
  {"lat":39.105429,"lon":-77.146524,"city":"Rockville","state":"MD","address":"15265 Display Ct","name":""},
  {"lat":40.340284,"lon":-75.120161,"city":"Doylestown","state":"PA","address":"4099 Landisville Road West","name":""},
  {"lat":34.56467,"lon":-92.58469,"city":"Benton","state":"AR","address":"216 E Sevier St","name":""},
  {"lat":41.618819,"lon":-93.734134,"city":"Urbandale","state":"IA","address":"2749 86th St.","name":""},
  {"lat":41.4511,"lon":-75.5932,"city":"Olyphant","state":"PA","address":"943 Underwood Rd Bldg 2","name":""},
  {"lat":42.50812,"lon":-94.15843,"city":"Fort Dodge","state":"IA","address":"16 N. 29th Street","name":""},
  {"lat":42.282411,"lon":-87.94621,"city":"Libertyville","state":"IL","address":"748 E Park Ave","name":""},
  {"lat":40.68276,"lon":-73.84416,"city":"Ozone Park","state":"NY","address":"95-01 103 Avenue","name":""},
  {"lat":40.718723,"lon":-73.270764,"city":"Brightwaters","state":"NY","address":"283 Orinoco Drive","name":""},
  {"lat":34.73667,"lon":-76.73138,"city":"Morehead City","state":"NC","address":"1209A North 20th Street","name":""},
  {"lat":42.022567,"lon":-93.715301,"city":"Ames","state":"IA","address":"2316 230th St Suite #102","name":""},
  {"lat":33.51121,"lon":-84.431633,"city":"Fayetteville","state":"GA","address":"122 Kenwood Road, Suite B","name":""},
  {"lat":33.380079,"lon":-84.57911,"city":"Peachtree City","state":"GA","address":"303 Kelly Drive, Suite 7","name":""},
  {"lat":40.680065,"lon":-74.338925,"city":"Mountainside","state":"NJ","address":"1100 Globe Ave.","name":""},
  {"lat":34.754354,"lon":-92.423294,"city":"Little Rock","state":"AR","address":"13401 Chenal Parkway","name":""},
  {"lat":35.001679,"lon":-80.712208,"city":"Weddington","state":"NC","address":"5207 Weddington Monroe Rd","name":""},
  {"lat":35.761055,"lon":-83.965973,"city":"Maryville","state":"TN","address":"208 College St","name":""},
  {"lat":35.913064,"lon":-84.092593,"city":"Knoxville","state":"TN","address":"9311 and 9309C Kingston Pike","name":""},
  {"lat":36.542535,"lon":-82.558045,"city":"Kingsport","state":"TN","address":"501 E Main St","name":""},
  {"lat":35.798859,"lon":-78.384559,"city":"Wendell","state":"NC","address":"2555 Wendell Blvd.","name":""},
  {"lat":39.775042,"lon":-75.982255,"city":"Oxford","state":"PA","address":"501 S. Third Street Unit #4","name":""},
  {"lat":33.803451,"lon":-84.43717,"city":"Atlanta","state":"GA","address":"1800 Marietta Blvd NW","name":""},
  {"lat":39.015135,"lon":-84.531339,"city":"Fort Wright","state":"KY","address":"3755 Old KY 17","name":""},
  {"lat":28.113046,"lon":-80.6765,"city":"Melbourne","state":"FL","address":"3110 SKYWAY CIRCLE #110","name":""},
  {"lat":47.49999,"lon":-111.286655,"city":"Great Falls","state":"MT","address":"1201 5th St S","name":""},
  {"lat":35.609989,"lon":-78.566726,"city":"Garner","state":"NC","address":"139 Technology Drive, Suite A","name":""},
  {"lat":40.700325,"lon":-111.826045,"city":"Salt Lake City","state":"UT","address":"2261 E. 3300 S.","name":""},
  {"lat":41.092354,"lon":-73.926934,"city":"Nyack","state":"NY","address":"256 Main Street","name":""},
  {"lat":35.25535,"lon":-81.04563,"city":"Belmont","state":"NC","address":"81 McAdenville Road","name":""},
  {"lat":34.273517,"lon":-118.702291,"city":"Simi Valley","state":"CA","address":"4685 Industrial St, Unit 3I","name":""},
  {"lat":30.468901,"lon":-84.286275,"city":"Tallahassee","state":"FL","address":"2057 N Monroe St.","name":""},
  {"lat":36.99666,"lon":-86.436702,"city":"Bowling Green","state":"KY","address":"512 College Street","name":""},
  {"lat":35.14057,"lon":-89.80545,"city":"Cordova","state":"TN","address":"7730B Trinity Road","name":""},
  {"lat":39.956746,"lon":-105.038237,"city":"Broomfield","state":"CO","address":"3800 West 144th Avenue #1700","name":""},
  {"lat":36.327076,"lon":-119.656667,"city":"Hanford","state":"CA","address":"730 Vaughn St","name":""},
  {"lat":25.91623,"lon":-80.15857,"city":"North Miami Beach","state":"FL","address":"2060 NE 153rd Street","name":""},
  {"lat":25.907306,"lon":-80.301662,"city":"Miami Lakes","state":"FL","address":"14660 NW 60 Ave","name":""},
  {"lat":38.56805,"lon":-90.438439,"city":"St. Louis","state":"MO","address":"12309 Old Big Bend Road","name":""},
  {"lat":42.640663,"lon":-82.972814,"city":"Macomb","state":"MI","address":"46856 Hayes Rd","name":""},
  {"lat":34.690049,"lon":-86.508187,"city":"Huntsville","state":"AL","address":"5534 US-431","name":""},
  {"lat":34.107598,"lon":-117.69332,"city":"Upland","state":"CA","address":"1120 Dewey Way \\nSuites B-D","name":""},
  {"lat":33.78077,"lon":-118.102267,"city":"Long Beach","state":"CA","address":"1180 Studebaker Rd. Suite C","name":""},
  {"lat":33.34367,"lon":-84.544408,"city":"Peachtree City","state":"GA","address":"825 Hwy 74 S","name":""},
  {"lat":40.80923,"lon":-74.213267,"city":"Montclair","state":"NJ","address":"19 Elm St.","name":""},
  {"lat":29.958054,"lon":-95.668097,"city":"Cypress","state":"TX","address":"12511 Woodworth Dr","name":""},
  {"lat":43.47981,"lon":-112.073261,"city":"Idaho Falls","state":"ID","address":"2135 Grizzly Ave","name":""},
  {"lat":32.274185,"lon":-90.338585,"city":"Raymond","state":"MS","address":"2930 Springridge Road","name":""},
  {"lat":40.31645,"lon":-80.12098,"city":"Bridgeville","state":"PA","address":"1901 Mayview Ave Unit 5","name":""},
  {"lat":40.853899,"lon":-81.76325,"city":"Orrville","state":"OH","address":"1330 N. Main St","name":""},
  {"lat":42.058146,"lon":-72.449825,"city":"Hampden","state":"MA","address":"106 East Longmeadow Rd","name":""},
  {"lat":37.211838,"lon":-93.249656,"city":"Springfield","state":"MO","address":"2355 East Chestnut, Building D, Suite 100","name":""},
  {"lat":33.877683,"lon":-84.15079,"city":"Lilburn","state":"GA","address":"40 Rockbridge Rd., Suite 500","name":""},
  {"lat":41.964709,"lon":-87.814355,"city":"Harwood Heights","state":"IL","address":"4635 N. Olcott Ave.","name":""},
  {"lat":39.616411,"lon":-75.853324,"city":"Elkton","state":"MD","address":"505 Blue Ball Road","name":""},
  {"lat":28.459853,"lon":-81.272421,"city":"Orlando","state":"FL","address":"7444 Narcoossee Rd STE 406","name":""},
  {"lat":35.903383,"lon":-78.761372,"city":"Raleigh","state":"NC","address":"8804 Gulf Court, Suite C","name":""},
  {"lat":30.283661,"lon":-94.23401,"city":"Lumberton","state":"TX","address":"565 N LHS Dr, Unit 107","name":""},
  {"lat":29.9718,"lon":-95.688048,"city":"Cypress","state":"TX","address":"13529 Skinner Road, Suite F","name":""},
  {"lat":27.883272,"lon":-82.694337,"city":"Clearwater","state":"FL","address":"4477 122nd Ave N. Unit A","name":""},
  {"lat":28.471034,"lon":-81.276286,"city":"Orlando","state":"FL","address":"6663 Narcoossee Rd, Suite 184","name":""},
  {"lat":46.28,"lon":-114.14932,"city":"Hamilton","state":"MT","address":"484 Old Corvallis Rd","name":""},
  {"lat":32.834872,"lon":-116.761259,"city":"Alpine","state":"CA","address":"2435 Alpine Blvd, Suite A","name":""},
  {"lat":39.162934,"lon":-77.160158,"city":"Gaithersburg","state":"MD","address":"7851 Beechcraft Avenue, Unit F & G","name":""},
  {"lat":30.428236,"lon":-87.218612,"city":"Pensacola","state":"FL","address":"1500 N Palafox St","name":""},
  {"lat":33.939019,"lon":-84.510895,"city":"Marietta","state":"GA","address":"1400 S Marietta Parkway","name":""},
  {"lat":41.457813,"lon":-81.509623,"city":"Beachwood OH","state":"OH","address":"23500 Mercantile Rd. Suite K","name":""},
  {"lat":45.708993,"lon":-121.536674,"city":"Hood River","state":"OR","address":"210 Clearwater Lane Suite 101","name":""},
  {"lat":33.996833,"lon":-85.051518,"city":"Rockmart","state":"GA","address":"120 South Marble Street","name":""},
  {"lat":41.033339,"lon":-83.660824,"city":"Findlay","state":"OH","address":"750 Western Ave","name":""},
  {"lat":38.60339,"lon":-90.35082,"city":"Webster Groves","state":"MO","address":"3158 S Brentwood Blvd","name":""},
  {"lat":29.99888,"lon":-95.19951,"city":"Humble","state":"TX","address":"19103 Continental Parkway, Suite D","name":""},
  {"lat":32.819017,"lon":-117.153643,"city":"San Diego","state":"CA","address":"4250 Pepsi Drive, Suite E","name":""},
  {"lat":43.4658,"lon":-110.792,"city":"Jackson","state":"WY","address":"1240 Huff Lane","name":""},
  {"lat":44.90422,"lon":-123.017569,"city":"Salem","state":"OR","address":"3589 Fairview Industrial Dr. S","name":""},
  {"lat":34.203245,"lon":-82.156598,"city":"Greenwood","state":"SC","address":"310 Durst Ave. E","name":""},
  {"lat":38.754918,"lon":-90.532482,"city":"Saint Charles","state":"MO","address":"991 Portwest Drive","name":""},
  {"lat":40.181892,"lon":-74.025688,"city":"Belmar","state":"NJ","address":"702 8th Avenue","name":""},
  {"lat":43.05464,"lon":-75.277015,"city":"New Hartford","state":"NY","address":"54 Kellogg Road (Rear of Plaza)","name":""},
  {"lat":37.417713,"lon":-121.888601,"city":"Milpitas","state":"CA","address":"1090 S Milpitas Blvd.","name":""},
  {"lat":30.603287,"lon":-87.838772,"city":"Daphne","state":"AL","address":"10758 County Rd 64","name":""},
  {"lat":30.465625,"lon":-97.625574,"city":"Pflugerville","state":"TX","address":"100 W Pflugerville Pkwy, Unit 108","name":""},
  {"lat":32.856748,"lon":-97.345346,"city":"Saginaw","state":"TX","address":"1001 Kennedy Lane","name":""},
  {"lat":34.696967,"lon":-85.273414,"city":"LaFayette","state":"GA","address":"217 Foster Blvd.","name":""},
  {"lat":43.950642,"lon":-69.992027,"city":"Topsham","state":"ME","address":"6 Center Park Road Building 2 Unit #4","name":""},
  {"lat":38.50676,"lon":-75.2358,"city":"Frankford","state":"DE","address":"34752 Delaware Ave, Suite A","name":""},
  {"lat":37.578296,"lon":-122.322869,"city":"San Mateo","state":"CA","address":"345 North Amphlett Blvd","name":""},
  {"lat":39.23303,"lon":-121.04158,"city":"Grass Valley","state":"CA","address":"139 Joerschke Drive","name":""},
  {"lat":42.523279,"lon":-82.897411,"city":"Saint Clair Shores","state":"MI","address":"31020 Harper Ave.","name":""},
  {"lat":38.989972,"lon":-77.097141,"city":"Bethesda","state":"MD","address":"4848 Cordell Ave","name":""},
  {"lat":28.774756,"lon":-81.292468,"city":"Sanford","state":"FL","address":"1602/1604 W. Airport Blvd","name":""},
  {"lat":36.898417,"lon":-76.185593,"city":"Virginia Beach","state":"VA","address":"5741 Bayside Drive Suite 101","name":""},
  {"lat":42.557052,"lon":-83.127536,"city":"Troy","state":"MI","address":"1050 Wheaton Dr.","name":""},
  {"lat":34.141905,"lon":-118.002471,"city":"Monrovia","state":"CA","address":"143 West Maple Avenue","name":""},
  {"lat":30.086745,"lon":-95.420711,"city":"Spring","state":"TX","address":"27323 W Hardy Rd\\\\r\\\\nSuite 416","name":""},
  {"lat":42.80508,"lon":-86.10017,"city":"Holland","state":"MI","address":"156 E Lakewood","name":""},
  {"lat":37.335522,"lon":-79.516131,"city":"Bedford","state":"VA","address":"625 Railroad Ave","name":""},
  {"lat":36.19927,"lon":-81.66245,"city":"Boone","state":"NC","address":"220 Postal St.","name":""},
  {"lat":42.970949,"lon":-78.69286,"city":"Williamsville","state":"NY","address":"4545 Transit Rd","name":""},
  {"lat":41.308702,"lon":-105.568878,"city":"Laramie","state":"WY","address":"411 S. 20th Street","name":""},
  {"lat":29.531601,"lon":-98.585506,"city":"San Antonio","state":"TX","address":"4903 Golden Quail","name":""},
  {"lat":33.843125,"lon":-118.257651,"city":"Carson","state":"CA","address":"20720 Leapwood Ave, Suite 400B","name":""},
  {"lat":37.76234,"lon":-122.417646,"city":"San Francisco","state":"CA","address":"674 South Van Ness Ave","name":""},
  {"lat":40.813897,"lon":-81.908023,"city":"Wooster","state":"OH","address":"2084 Long Rd.","name":""},
  {"lat":42.307062,"lon":-72.644436,"city":"Northampton","state":"MA","address":"375 South Street","name":""},
  {"lat":41.953798,"lon":-85.6675,"city":"Three Rivers","state":"MI","address":"14791 Hoffman Rd","name":""},
  {"lat":38.740894,"lon":-77.177481,"city":"Newington","state":"VA","address":"6825-C Hill Park Drive","name":""},
  {"lat":30.43492,"lon":-86.6034,"city":"Fort Walton Beach","state":"FL","address":"314 Eglin Pkwy NE","name":""},
  {"lat":35.743034,"lon":-78.737525,"city":"Raleigh","state":"NC","address":"2845 Jones Franklin Road","name":""},
  {"lat":38.906992,"lon":-77.269635,"city":"Vienna","state":"VA","address":"434 Mill Street NE","name":""},
  {"lat":28.088111,"lon":-82.578479,"city":"Odessa","state":"FL","address":"8515 Gunn Highway","name":""},
  {"lat":44.019668,"lon":-103.242746,"city":"Rapid City","state":"SD","address":"1555 Catron Boulevard","name":""},
  {"lat":43.871821,"lon":-91.219606,"city":"Onalaska","state":"WI","address":"990 12th Ave S.","name":""},
  {"lat":32.845752,"lon":-116.958988,"city":"Santee","state":"CA","address":"10969 Wheatlands Ave","name":""},
  {"lat":40.936917,"lon":-124.102011,"city":"McKinleyville","state":"CA","address":"1590 Nursery Road, Suite 7","name":""},
  {"lat":32.45979,"lon":-84.99424,"city":"Columbus","state":"GA","address":"710 Front Ave, Suite B","name":""},
  {"lat":48.15346,"lon":-103.60851,"city":"Williston","state":"ND","address":"816 11th St East","name":""},
  {"lat":38.958014,"lon":-76.483445,"city":"Annapolis","state":"MD","address":"7364 Edgewood Rd. Bay 1","name":""},
  {"lat":39.025954,"lon":-76.909059,"city":"Beltsville","state":"MD","address":"10747 Tucker Street Unit E","name":""},
  {"lat":36.145087,"lon":-85.478791,"city":"Cookeville","state":"TN","address":"601 Rich Froning Way","name":""},
  {"lat":35.304788,"lon":-80.936244,"city":"Charlotte","state":"NC","address":"8416 Bellhaven Boulevard","name":""},
  {"lat":32.526728,"lon":-83.72341,"city":"Fort Valley","state":"GA","address":"92 Mossy Creek Dr","name":""},
  {"lat":40.230575,"lon":-88.965843,"city":"Wapella","state":"IL","address":"708 Walnut Circle","name":""},
  {"lat":47.733398,"lon":-121.988736,"city":"Duvall","state":"WA","address":"14701 C4 Main Street NE","name":""},
  {"lat":42.992518,"lon":-88.114612,"city":"New Berlin","state":"WI","address":"2865 S. 160th St.","name":""},
  {"lat":33.89119,"lon":-118.396325,"city":"Manhattan Beach","state":"CA","address":"1731 North Sepulveda Blvd.","name":""},
  {"lat":39.604347,"lon":-74.33547,"city":"Tuckerton","state":"NJ","address":"227 E. Main St.","name":""},
  {"lat":41.130266,"lon":-85.005794,"city":"Fort Wayne","state":"IN","address":"10538 Maysville Road","name":""},
  {"lat":38.2103,"lon":-86.12613,"city":"Corydon","state":"IN","address":"101 Hwy 62 W, Ste 400","name":""},
  {"lat":37.110757,"lon":-76.458119,"city":"Yorktown","state":"VA","address":"107 Production Drive","name":""},
  {"lat":28.015963,"lon":-81.914457,"city":"Lakeland","state":"FL","address":"2295 Commerce Point Drive Suite 180","name":""},
  {"lat":34.0125,"lon":-86.001946,"city":"Gadsden","state":"AL","address":"117 North 3rd St","name":""},
  {"lat":40.495381,"lon":-74.855391,"city":"Flemington","state":"NJ","address":"19 Commerce Street","name":""},
  {"lat":42.698457,"lon":-70.916456,"city":"Rowley","state":"MA","address":"64 Forest Ridge Drive Unit 8","name":""},
  {"lat":42.995734,"lon":-84.171551,"city":"Owosso","state":"MI","address":"210 S Water St","name":""},
  {"lat":40.383065,"lon":-111.83409,"city":"Lehi","state":"UT","address":"401 S 850 E, Suite A-3","name":""},
  {"lat":39.543171,"lon":-105.294502,"city":"Conifer","state":"CO","address":"25797 Conifer Rd., A-114","name":""},
  {"lat":41.746159,"lon":-87.939226,"city":"Willowbrook","state":"IL","address":"7890 S Quincy","name":""},
  {"lat":39.00091,"lon":-104.79528,"city":"Colorado Springs","state":"CO","address":"11665 Ridgeline Dr #140","name":""},
  {"lat":39.554723,"lon":-119.723284,"city":"Sparks","state":"NV","address":"1231 Baring Blvd.","name":""},
  {"lat":40.08939,"lon":-82.79432,"city":"New Albany","state":"OH","address":"5900 Zarley Street","name":""},
  {"lat":36.41524,"lon":-100.78631,"city":"Perryton","state":"TX","address":"1502 N. Maple","name":""},
  {"lat":39.397309,"lon":-107.17722,"city":"Carbondale","state":"CO","address":"1676 County Road 100 Unit L5","name":""},
  {"lat":39.970883,"lon":-104.830598,"city":"Brighton","state":"CO","address":"975 Platte River Blvd. Unit G","name":""},
  {"lat":33.142105,"lon":-84.320251,"city":"Zebulon","state":"GA","address":"11500 Hwy 19 North","name":""},
  {"lat":39.19858,"lon":-78.158018,"city":"Winchester","state":"VA","address":"725 N. Loudoun Street","name":""},
  {"lat":30.472785,"lon":-88.99451,"city":"Biloxi","state":"MS","address":"13033 Kayleigh Cove","name":""},
  {"lat":39.67408,"lon":-76.072466,"city":"Colora","state":"MD","address":"6 Barnes Corner Road","name":""},
  {"lat":32.78502,"lon":-97.06013,"city":"Grand Prairie","state":"TX","address":"2045 N HWY 360 Suite #130","name":""},
  {"lat":38.939761,"lon":-104.630638,"city":"Peyton","state":"CO","address":"10620 Maltese Point","name":""},
  {"lat":39.26819,"lon":-76.732379,"city":"Catonsville","state":"MD","address":"91 Mellor Avenue","name":""},
  {"lat":45.622858,"lon":-122.653359,"city":"Vancouver","state":"WA","address":"223 E. Reserve St., Unit 101","name":""},
  {"lat":30.491249,"lon":-97.680521,"city":"Round Rock","state":"TX","address":"350 Old West Drive Ste C","name":""},
  {"lat":42.49604,"lon":-96.46355,"city":"Sioux City","state":"SD","address":"4101 War Eagle Drive, Building B","name":""},
  {"lat":39.36647,"lon":-94.38898,"city":"Kearney","state":"MO","address":"15020 Nation Road","name":""},
  {"lat":39.684939,"lon":-74.239462,"city":"Manahawkin","state":"NJ","address":"609 East Bay Ave, Units 6&7","name":""},
  {"lat":27.16629,"lon":-80.22636,"city":"Stuart","state":"FL","address":"2201 SE Indian St, Unit A-4","name":""},
  {"lat":37.362506,"lon":-79.240903,"city":"Lynchburg","state":"VA","address":"801 Wyndhurst Drive","name":""},
  {"lat":40.42172,"lon":-74.26338,"city":"Matawan","state":"NJ","address":"443 Rt 34","name":""},
  {"lat":41.475035,"lon":-90.16209,"city":"Geneseo","state":"IL","address":"1451 Gorman Drive","name":""},
  {"lat":29.485772,"lon":-98.451394,"city":"San Antonio","state":"TX","address":"1035 Austin Highway","name":""},
  {"lat":43.554935,"lon":-116.573855,"city":"Nampa","state":"ID","address":"1331 12th Ave","name":""},
  {"lat":40.800914,"lon":-74.492251,"city":"Morristown","state":"NJ","address":"173 Washington St","name":""},
  {"lat":34.114735,"lon":-84.237307,"city":"Alpharetta","state":"GA","address":"1320 Union Hill Industrial Court, Suite A","name":""},
  {"lat":30.89924,"lon":-83.3391,"city":"Valdosta","state":"GA","address":"4512 Val North Drive","name":""},
  {"lat":41.564287,"lon":-72.113352,"city":"Norwich","state":"CT","address":"2 Wisconsin Ave","name":""},
  {"lat":36.305648,"lon":-119.7915,"city":"Lemoore","state":"CA","address":"711 West Cinnamon","name":""},
  {"lat":47.255087,"lon":-122.489897,"city":"Tacoma","state":"WA","address":"3914 6th Avenue","name":""},
  {"lat":34.36277,"lon":-89.514099,"city":"Oxford","state":"MS","address":"603 S 16th St","name":""},
  {"lat":39.146761,"lon":-123.207446,"city":"Ukiah","state":"CA","address":"511 S School Street","name":""},
  {"lat":38.915273,"lon":-120.003686,"city":"South Lake Tahoe","state":"CA","address":"2050 Dunlap Drive","name":""},
  {"lat":28.001146,"lon":-80.631344,"city":"Palm Bay","state":"FL","address":"200 Ring Ave NE, Unit 109","name":""},
  {"lat":36.004031,"lon":-78.900504,"city":"Durham","state":"NC","address":"410 West Geer Street","name":""},
  {"lat":39.372925,"lon":-107.080587,"city":"Basalt","state":"CO","address":"40 Sunset Dr #9","name":""},
  {"lat":28.55018,"lon":-81.648655,"city":"Oakland","state":"FL","address":"200 Countyline Court, Suite 7","name":""},
  {"lat":39.231316,"lon":-94.571505,"city":"Kansas City","state":"MO","address":"727 N. 76th St.","name":""},
  {"lat":40.28489,"lon":-84.19651,"city":"Sidney","state":"OH","address":"205 S. Stolle Ave.","name":""},
  {"lat":34.441753,"lon":-83.987595,"city":"Dahlonega","state":"GA","address":"101 Ethan Allen Drive","name":""},
  {"lat":41.76248,"lon":-88.219436,"city":"Aurora","state":"IL","address":"481 N Commons Dr. Unit D and E","name":""},
  {"lat":39.289017,"lon":-94.677537,"city":"Kansas City","state":"MO","address":"10767 North Ambassador Drive","name":""},
  {"lat":32.383787,"lon":-96.847195,"city":"Waxahachie","state":"TX","address":"200 E Jefferson","name":""},
  {"lat":35.43263,"lon":-83.43051,"city":"Bryson City","state":"NC","address":"1131 Main Street","name":""},
  {"lat":40.28522,"lon":-75.35751,"city":"Souderton","state":"PA","address":"261 Schoolhouse Rd Unit 3","name":""},
  {"lat":46.379005,"lon":-94.252867,"city":"Baxter","state":"MN","address":"15620 Edgewood Dr, Suite 225","name":""},
  {"lat":33.479634,"lon":-111.981442,"city":"Phoenix","state":"AZ","address":"4633 E. Thomas Rd","name":""},
  {"lat":40.80868,"lon":-72.7785,"city":"Center Moriches","state":"NY","address":"15 Frowein Blvd, Building F-1","name":""},
  {"lat":32.33886,"lon":-99.74584,"city":"Abilene","state":"TX","address":"408 Highway 83-84","name":""},
  {"lat":44.92225,"lon":-123.31724,"city":"Dallas","state":"OR","address":"745 Main Street","name":""},
  {"lat":42.36267,"lon":-71.42723,"city":"Sudbury","state":"MA","address":"31 Union Ave","name":""},
  {"lat":44.66119,"lon":-73.459094,"city":"Plattsburgh","state":"NY","address":"130 Arizona Ave","name":""},
  {"lat":37.53427,"lon":-77.426025,"city":"Richmond","state":"VA","address":"121 N 18th St","name":""},
  {"lat":41.543156,"lon":-87.821175,"city":"Mokena","state":"IL","address":"8401 W. 191st St.","name":""},
  {"lat":31.566872,"lon":-97.28287,"city":"Waco","state":"TX","address":"6600 North State Highway 6, Suite D","name":""},
  {"lat":47.57715,"lon":-122.324947,"city":"Seattle","state":"WA","address":"2920 6th Ave S.","name":""},
  {"lat":41.50662,"lon":-90.54446,"city":"Rock Island","state":"IL","address":"4015 6th Ave. Suite 3","name":""},
  {"lat":32.55089,"lon":-95.85155,"city":"Canton","state":"TX","address":"25093 State Hwy 64 unit H","name":""},
  {"lat":46.065112,"lon":-118.337192,"city":"Walla Walla","state":"WA","address":"16 E. Poplar St","name":""},
  {"lat":36.072755,"lon":-115.108123,"city":"Las Vegas","state":"NV","address":"2960 E. Sunset Road, Suite 125","name":""},
  {"lat":35.51783,"lon":-78.554439,"city":"Benson","state":"NC","address":"27 Annette Drive Suite 110","name":""},
  {"lat":41.750935,"lon":-91.647165,"city":"North Liberty","state":"IA","address":"2910 Stoner CT, Unit 8","name":""},
  {"lat":36.301372,"lon":-95.320902,"city":"Pryor","state":"OK","address":"325 S Mill St.","name":""},
  {"lat":39.220936,"lon":-84.383158,"city":"Cincinnati","state":"OH","address":"8980 Blue Ash Rd","name":""},
  {"lat":29.7233,"lon":-95.462545,"city":"Bellaire","state":"TX","address":"1308 North 1st Street","name":""},
  {"lat":41.236861,"lon":-73.699142,"city":"Bedford Hills","state":"NY","address":"52A Babbitt Road","name":""},
  {"lat":40.568671,"lon":-74.647754,"city":"Raritan","state":"NJ","address":"2 Johnson Drive","name":""},
  {"lat":45.375074,"lon":-122.778146,"city":"Tualatin","state":"OR","address":"20203 SW 95th Avenue","name":""},
  {"lat":36.109006,"lon":-80.090779,"city":"Kernersville","state":"NC","address":"556 Arbor Hill Road, Suite A","name":""},
  {"lat":40.858016,"lon":-73.155674,"city":"Saint James","state":"NY","address":"648 Middle Country Rd","name":""},
  {"lat":44.067133,"lon":-70.162345,"city":"Lewiston","state":"ME","address":"1929 Lisbon Street","name":""},
  {"lat":37.946665,"lon":-107.875942,"city":"Telluride","state":"CO","address":"137 Society Drive","name":""},
  {"lat":38.02377,"lon":-78.484296,"city":"Charlottesville","state":"VA","address":"237 Elliot Avenue, Suite 202","name":""},
  {"lat":34.194144,"lon":-118.922879,"city":"Newbury Park","state":"CA","address":"1111 Rancho Conejo Boulevard","name":""},
  {"lat":29.740712,"lon":-98.456415,"city":"Bulverde","state":"TX","address":"29905 Bulverde Ln","name":""},
  {"lat":42.51757,"lon":-70.88923,"city":"Salem","state":"MA","address":"45 Congress St, Dock 19/20","name":""},
  {"lat":38.888191,"lon":-121.07461,"city":"Auburn","state":"CA","address":"345 Sacramento Street, Unit G","name":""},
  {"lat":35.89303,"lon":-78.88881,"city":"Durham","state":"NC","address":"4909 South Alston Avenue","name":""},
  {"lat":48.281881,"lon":-101.293766,"city":"Minot","state":"ND","address":"4542 N. Broadway","name":""},
  {"lat":34.50413,"lon":-97.12086,"city":"Davis","state":"OK","address":"103 N. 2nd St","name":""},
  {"lat":34.020742,"lon":-84.425586,"city":"Marietta","state":"GA","address":"3000 Johnson Ferry Rd, Unit 110","name":""},
  {"lat":38.803718,"lon":-90.718199,"city":"O'Fallon","state":"MO","address":"821 West Terra Lane","name":""},
  {"lat":37.415879,"lon":-122.101735,"city":"Mountain View","state":"CA","address":"2598 W Middlefield Rd","name":""},
  {"lat":42.661372,"lon":-73.743114,"city":"Albany","state":"NY","address":"18 Thacher Street","name":""},
  {"lat":39.901728,"lon":-75.560136,"city":"West Chester","state":"PA","address":"276 Dilworthtown Road, Suite C","name":""},
  {"lat":41.45774,"lon":-82.709844,"city":"Sandusky","state":"OH","address":"216 E Water St","name":""},
  {"lat":32.51168,"lon":-92.158456,"city":"West Monroe","state":"LA","address":"105 D Blanchard St","name":""},
  {"lat":39.95097,"lon":-105.16591,"city":"Superior","state":"CO","address":"1 Superior Dr, Unit B","name":""},
  {"lat":42.93287,"lon":-72.27027,"city":"Keene","state":"NH","address":"40 Carpenter St","name":""},
  {"lat":38.209551,"lon":-85.262317,"city":"Shelbyville","state":"KY","address":"998 Brooks Industrial Road","name":""},
  {"lat":43.770999,"lon":-71.765325,"city":"Plymouth","state":"NH","address":"31 Route 25 Unit 2","name":""},
  {"lat":38.684023,"lon":-76.614653,"city":"Owings","state":"MD","address":"874 Keith Lane","name":""},
  {"lat":35.577212,"lon":-82.581298,"city":"Asheville","state":"NC","address":"438 Haywood Road","name":""},
  {"lat":44.70823,"lon":-93.428495,"city":"Prior Lake","state":"MN","address":"16535 Anna Trail SE","name":""},
  {"lat":42.08462,"lon":-71.409811,"city":"Franklin","state":"MA","address":"90 Hayward Street","name":""},
  {"lat":36.044996,"lon":-84.206468,"city":"Oak Ridge","state":"TN","address":"106 Melton Lake Drive","name":""},
  {"lat":37.667535,"lon":-97.449614,"city":"Wichita","state":"KS","address":"9223 W Kellogg Dr","name":""},
  {"lat":41.388303,"lon":-82.209329,"city":"Amherst","state":"OH","address":"7511 Leavitt Rd, Suite C","name":""},
  {"lat":40.240211,"lon":-75.41117,"city":"Skippack","state":"PA","address":"4440 Township Line Rd","name":""},
  {"lat":38.046949,"lon":-85.541684,"city":"Mt. Washington","state":"KY","address":"10559 Hwy 44 E Building B","name":""},
  {"lat":34.12913,"lon":-118.216812,"city":"Los Angeles","state":"CA","address":"4662 Eagle Rock Blvd","name":""},
  {"lat":34.82029,"lon":-87.64738,"city":"Florence","state":"AL","address":"853 Sweetwater Avenue","name":""},
  {"lat":41.565553,"lon":-72.902086,"city":"Southington","state":"CT","address":"1657 Meriden Waterbury Turnpike","name":""},
  {"lat":37.380104,"lon":-79.246629,"city":"Forest","state":"VA","address":"1076 Corporate Park Dr. Suite C","name":""},
  {"lat":47.733767,"lon":-122.310633,"city":"Seattle","state":"WA","address":"1557 NE 145th","name":""},
  {"lat":39.920125,"lon":-104.98634,"city":"Thornton","state":"CO","address":"12301 N. Grant St., Unit 150","name":""},