{"key":"cvs","displayName":"CVS","category":"pharmacy","useLocationName":false,"locations":[
  {"lat":26.52947,"lon":-80.05865,"city":"Boynton Beach","state":"FL","address":"301 N Federal Hwy Boynton Beach","name":""},
  {"lat":34.02041,"lon":-85.25313,"city":"Cedartown","state":"GA","address":"511 N. Main St. Cedartown","name":""},
  {"lat":26.61504,"lon":-81.65382,"city":"Lehigh Acres","state":"FL","address":"1350 Lee Blvd Lehigh Acres","name":""},
  {"lat":26.33298,"lon":-81.80545,"city":"Bonita Springs","state":"FL","address":"27841 Crown Lake Blvd.","name":""},
  {"lat":35.47418,"lon":-120.65633,"city":"Atascadero","state":"CA","address":"8320 El Camino Real Atascadero","name":""},
  {"lat":34.12079,"lon":-117.45432,"city":"Fontana","state":"CA","address":"16049 Baseline Avenue #1 Fontana","name":""},
  {"lat":40.75394,"lon":-73.97147,"city":"New York City","state":"NY","address":"757 3Rd Ave.","name":""},
  {"lat":34.46865,"lon":-117.24356,"city":"Apple Valley","state":"CA","address":"19201 Bear Valley Rd Apple Valley","name":""},
  {"lat":34.07816,"lon":-117.35227,"city":"Colton","state":"CA","address":"1010 N. Pepper Avenue Colton","name":""},
  {"lat":38.54929,"lon":-121.53657,"city":"West","state":"CA","address":"2005 Town Center Plz West Sacramento","name":""},
  {"lat":38.67284,"lon":-121.27466,"city":"Citrus Heights","state":"CA","address":"5837 Sunrise Blvd Citrus Heights","name":""},
  {"lat":32.33697,"lon":-111.04619,"city":"Tucson","state":"AZ","address":"3785 W Ina Rd. Tucson","name":""},
  {"lat":33.83095,"lon":-118.27951,"city":"Carson","state":"CA","address":"150 West Carson Street Carson","name":""},
  {"lat":41.56846,"lon":-75.25314,"city":"Honesdale","state":"PA","address":"202 4th St.","name":""},
  {"lat":32.33317,"lon":-95.26667,"city":"Tyler","state":"TX","address":"2626 East 5th St. Tyler","name":""},
  {"lat":33.74066,"lon":-84.36768,"city":"Atlanta","state":"GA","address":"520 Boulevard Se Atlanta","name":""},
  {"lat":42.6792,"lon":-74.47657,"city":"Cobleskill","state":"NY","address":"726 East Main St. Cobleskill","name":""},
  {"lat":41.6491,"lon":-91.49981,"city":"Iowa City","state":"IA","address":"2425 Muscatine Avenue Iowa City","name":""},
  {"lat":38.50595,"lon":-90.32723,"city":"St. Louis","state":"MO","address":"7334 Lindbergh Blvd. Saint Louis","name":""},
  {"lat":27.44551,"lon":-82.50601,"city":"Bradenton","state":"FL","address":"5310 45th St.","name":""},
  {"lat":41.65663,"lon":-70.20626,"city":"South Yarmouth","state":"MA","address":"976 Route 28 South Yarmouth","name":""},
  {"lat":37.78208,"lon":-122.42096,"city":"San Francisco","state":"CA","address":"701 Van Ness Avenue San Francisco","name":""},
  {"lat":43.23469,"lon":-86.19349,"city":"Muskegon","state":"MI","address":"2010 East Apple Ave. Muskegon","name":""},
  {"lat":21.29244,"lon":-157.84214,"city":"Honolulu","state":"HI","address":"1450 Ala Moana Blvd. Ste 2401 Honolulu","name":""},
  {"lat":37.26358,"lon":-121.8786,"city":"San Jose","state":"CA","address":"1125 Branham Ln San Jose","name":""},
  {"lat":25.74633,"lon":-80.35074,"city":"Miami","state":"FL","address":"9686 Sw 24th Street Miami","name":""},
  {"lat":39.82699,"lon":-76.99789,"city":"Hanover","state":"PA","address":"31 Wilson Ave Hanover","name":""},
  {"lat":30.4583,"lon":-90.08163,"city":"Covington","state":"LA","address":"1850 N. Highway 190 Covington","name":""},
  {"lat":40.41992,"lon":-86.84732,"city":"Lafayette","state":"IN","address":"3630 South Street Lafayette","name":""},
  {"lat":41.15693,"lon":-73.241,"city":"Fairfield","state":"CT","address":"330 Grasmere Ave. Fairfield","name":""},
  {"lat":34.71864,"lon":-81.63897,"city":"Union","state":"SC","address":"599 Rice Ave. Union","name":""},
  {"lat":45.36609,"lon":-122.83806,"city":"Sherwood","state":"OR","address":"21365 Sw Baler Way Sherwood","name":""},
  {"lat":34.68902,"lon":-82.82612,"city":"Clemson","state":"SC","address":"1300 Tiger Blvd. Clemson","name":""},
  {"lat":41.66227,"lon":-72.6397,"city":"Rocky Hill","state":"CT","address":"2427 Main Street Rocky Hill","name":""},
  {"lat":35.82553,"lon":-82.54543,"city":"Mars Hill","state":"NC","address":"191 Carl Eller Rd. Mars Hill","name":""},
  {"lat":36.60214,"lon":-79.41947,"city":"Danville","state":"VA","address":"155 Holt Garrison Pkwy Danville","name":""},
  {"lat":32.74695,"lon":-117.24968,"city":"San Diego","state":"CA","address":"4949 Santa Monica Ave. San Diego","name":""},
  {"lat":38.90942,"lon":-77.03281,"city":"Washington","state":"DC","address":"1418 P Street Nw Washington","name":""},
  {"lat":26.16443,"lon":-80.18642,"city":"Oakland Park","state":"FL","address":"3090 W Oakland Park Blvd Oakland Park","name":""},
  {"lat":38.90942,"lon":-77.04436,"city":"Washington","state":"DC","address":"6 Dupont Circle Nw Washington","name":""},
  {"lat":32.86451,"lon":-96.83714,"city":"Dallas","state":"TX","address":"9215 Midway Rd. Dallas","name":""},
  {"lat":42.51326,"lon":-83.36019,"city":"Farmington Hills","state":"MI","address":"29425 Orchard Lake Rd. Farmington Hills","name":""},
  {"lat":38.81564,"lon":-77.64218,"city":"Haymarket","state":"VA","address":"15250 Washington St. Haymarket","name":""},
  {"lat":42.02094,"lon":-91.66435,"city":"Cedar Rapids","state":"IA","address":"4116 Center Point Rd N.e. Cedar Rapids","name":""},
  {"lat":41.35488,"lon":-87.62082,"city":"Beecher","state":"IL","address":"1277 Dixie Hwy Beecher","name":""},
  {"lat":32.90902,"lon":-96.55871,"city":"Rowlett","state":"TX","address":"4701 Lakeview Pkwy Rowlett","name":""},
  {"lat":42.78635,"lon":-73.97152,"city":"Rotterdam","state":"NY","address":"2801 Guilderland Ave. Rotterdam","name":""},
  {"lat":43.23887,"lon":-77.69594,"city":"Rochester","state":"NY","address":"878 Long Pond Road Rochester","name":""},
  {"lat":42.46521,"lon":-82.92757,"city":"Eastpointe","state":"MI","address":"18640 Nine Mile Rd. Eastpointe","name":""},
  {"lat":40.58848,"lon":-75.34142,"city":"Hellertown","state":"PA","address":"1332 Main Street Hellertown","name":""},
  {"lat":41.48044,"lon":-72.90646,"city":"Cheshire","state":"CT","address":"905 South Main St. Cheshire","name":""},
  {"lat":35.36524,"lon":-81.95736,"city":"Rutherfordton","state":"NC","address":"111 S. Main St. Rutherfordton","name":""},
  {"lat":42.65332,"lon":-73.7734,"city":"Albany","state":"NY","address":"16 New Scotland Ave. Albany","name":""},
  {"lat":39.17465,"lon":-84.23696,"city":"Milford","state":"OH","address":"1137 State Route 131 Milford","name":""},
  {"lat":33.54839,"lon":-101.95315,"city":"Lubbock","state":"TX","address":"6064 Marsha Sharp Freeway Lubbock","name":""},
  {"lat":35.28413,"lon":-80.67094,"city":"Charlotte","state":"NC","address":"9805 Rocky River Rd. Charlotte","name":""},
  {"lat":42.33678,"lon":-83.39081,"city":"Westland","state":"MI","address":"35401 Warren Rd Westland","name":""},
  {"lat":25.70124,"lon":-80.38167,"city":"Miami","state":"FL","address":"7199 Sw 117th Avenue Miami","name":""},
  {"lat":32.43438,"lon":-97.77226,"city":"Granbury","state":"TX","address":"1101 East Highway 377 Granbury","name":""},
  {"lat":33.00871,"lon":-96.59392,"city":"Wylie","state":"TX","address":"3440 W Fm 544 Wylie","name":""},
  {"lat":34.01938,"lon":-118.49067,"city":"Santa Monica","state":"CA","address":"1411 Lincoln Boulevard Santa Monica","name":""},
  {"lat":38.97207,"lon":-95.30608,"city":"Lawrence","state":"KS","address":"4841 Bauer Farms Dr. Lawrence","name":""},
  {"lat":42.18866,"lon":-70.98573,"city":"Braintree","state":"MA","address":"357 Grove St. Braintree","name":""},
  {"lat":38.93831,"lon":-77.33032,"city":"Reston","state":"VA","address":"11160 South Lakes Drive Reston","name":""},
  {"lat":32.96775,"lon":-96.60711,"city":"Garland","state":"TX","address":"5702 Lavon Dr Garland","name":""},
  {"lat":41.10088,"lon":-85.06072,"city":"Fort","state":"IN","address":"6279 E. State Blvd. Fort Wayne","name":""},
  {"lat":36.71128,"lon":-119.5575,"city":"Sanger","state":"CA","address":"333 Academy Ave Sanger","name":""},
  {"lat":38.98901,"lon":-77.09483,"city":"Bethesda","state":"MD","address":"7809 Wisconsin Ave Bethesda","name":""},
  {"lat":28.1789,"lon":-81.64072,"city":"Davenport","state":"FL","address":"39902 Highway 27 Davenport","name":""},
  {"lat":25.73357,"lon":-80.28759,"city":"Miami","state":"FL","address":"5748 Sw 40th St. Miami","name":""},
  {"lat":35.81973,"lon":-80.24917,"city":"Lexington","state":"NC","address":"CVS at 309 East Center St. Lexington, NC 27292 | CVS Pharmacy","name":""},
  {"lat":27.80236,"lon":-82.80198,"city":"Madeira Beach","state":"FL","address":"15129 Madeira Way Madeira Beach","name":""},
  {"lat":39.62743,"lon":-84.17083,"city":"Centerville","state":"OH","address":"400 Miamisburg-centerville Road Centerville","name":""},
  {"lat":40.50847,"lon":-112.00934,"city":"Herriman","state":"UT","address":"4968 West 13400 South Herriman","name":""},
  {"lat":32.7051,"lon":-100.91988,"city":"Snyder","state":"TX","address":"3611 College Ave. Snyder","name":""},
  {"lat":39.88646,"lon":-105.07925,"city":"Westminster","state":"CO","address":"10445 Reed St Westminster","name":""},
  {"lat":29.79671,"lon":-98.41839,"city":"Spring Branch","state":"TX","address":"19995 Highway 46 West Spring Branch","name":""},
  {"lat":30.63887,"lon":-81.45647,"city":"Fernandina Beach","state":"FL","address":"870 Sadler Rd Fernandina Beach","name":""},
  {"lat":41.22452,"lon":-85.3164,"city":"Churubusco","state":"IN","address":"601 S Main St. Churubusco","name":""},
  {"lat":35.29557,"lon":-81.57374,"city":"Shelby","state":"NC","address":"1830 West Dixon Boulevard Shelby","name":""},
  {"lat":42.51659,"lon":-83.22235,"city":"Southfield","state":"MI","address":"30920 Southfield Rd. Southfield","name":""},
  {"lat":33.71564,"lon":-117.989,"city":"Huntington Beach","state":"CA","address":"16961 Beach Boulevard Huntington Beach","name":""},
  {"lat":41.41305,"lon":-73.66909,"city":"Carmel","state":"NY","address":"1905 Rt 6 Carmel","name":""},
  {"lat":41.83771,"lon":-87.64539,"city":"Chicago","state":"IL","address":"741 W 31st Chicago","name":""},
  {"lat":33.08558,"lon":-96.73597,"city":"Plano","state":"TX","address":"2140 Hedgcoxe Rd. Plano","name":""},
  {"lat":36.03886,"lon":-114.99474,"city":"Henderson","state":"NV","address":"350 W Lake Mead Pkwy Henderson","name":""},
  {"lat":33.67588,"lon":-84.44185,"city":"East Point","state":"GA","address":"2907 Main Street East Point","name":""},
  {"lat":42.03242,"lon":-97.42683,"city":"Norfolk","state":"NE","address":"1301 West Norfolk Ave. Norfolk","name":""},
  {"lat":42.57022,"lon":-71.99256,"city":"Gardner","state":"MA","address":"314 Main Street Gardner","name":""},
  {"lat":35.26133,"lon":-79.04537,"city":"Cameron","state":"NC","address":"1025 Nc 24-87 Cameron","name":""},
  {"lat":40.25741,"lon":-76.82066,"city":"Harrisburg","state":"PA","address":"3865 Derry Street Harrisburg","name":""},
  {"lat":25.94377,"lon":-80.34179,"city":"Hialeah","state":"FL","address":"8641 Nw 186th St Hialeah","name":""},
  {"lat":32.51607,"lon":-92.19216,"city":"West","state":"LA","address":"5350 Cypress St. West Monroe","name":""},
  {"lat":44.56275,"lon":-88.07291,"city":"Green Bay","state":"WI","address":"2400 Velp Avenue Green Bay","name":""},
  {"lat":35.96518,"lon":-88.93214,"city":"Trenton","state":"TN","address":"2058 Hwy 45 Bypass Trenton","name":""},
  {"lat":44.72596,"lon":-85.63752,"city":"Traverse City","state":"MI","address":"3130 S Airport Rd W Traverse City","name":""},
  {"lat":39.48218,"lon":-88.37056,"city":"Mattoon","state":"IL","address":"1316 Charleston Ave. Mattoon","name":""},
  {"lat":37.97552,"lon":-87.47011,"city":"Evansville","state":"IN","address":"6625 E Lloyd Expy Evansville","name":""},
  {"lat":37.7536,"lon":-87.05796,"city":"Owensboro","state":"KY","address":"3311 Highway 54 Owensboro","name":""},
  {"lat":42.04687,"lon":-88.12456,"city":"Schaumburg","state":"IL","address":"1801 W. Golf Road Schaumburg","name":""},
  {"lat":40.41817,"lon":-86.12644,"city":"Kokomo","state":"IN","address":"4026 S 00 Ew Kokomo","name":""},
  {"lat":41.66718,"lon":-72.80589,"city":"New Britain","state":"CT","address":"713 West Main Street New Britain","name":""},
  {"lat":42.01747,"lon":-88.2003,"city":"Streamwood","state":"IL","address":"1001 Sutton Rd Streamwood","name":""},
  {"lat":27.68952,"lon":-97.33056,"city":"Corpus Christi","state":"TX","address":"7798 So. Padre Island Dr. Corpus Christi","name":""},
  {"lat":41.95684,"lon":-78.64447,"city":"Bradford","state":"PA","address":"CVS at 10 Davis St Bradford, PA 16701 | CVS Pharmacy","name":""},
  {"lat":33.06266,"lon":-117.26519,"city":"Encinitas","state":"CA","address":"1010 N El Camino Real Encinitas","name":""},
  {"lat":29.91081,"lon":-90.20181,"city":"Avondale","state":"LA","address":"2850 Highway 90 West Avondale","name":""},
  {"lat":36.69803,"lon":-121.64998,"city":"Salinas","state":"CA","address":"110 E Laurel Dr Salinas","name":""},
  {"lat":21.43596,"lon":-158.18405,"city":"Waianae","state":"HI","address":"86 120 Farrington Hwy Waianae","name":""},
  {"lat":28.45073,"lon":-81.48688,"city":"Orlando","state":"FL","address":"7599 W Sand Lake Rd Orlando","name":""},
  {"lat":37.78191,"lon":-122.44607,"city":"San Francisco","state":"CA","address":"2675 Geary Blvd San Francisco","name":""},
  {"lat":32.30838,"lon":-80.9756,"city":"Hardeeville","state":"SC","address":"40 D. Mark Cummings Rd. Hardeeville","name":""},
  {"lat":33.90993,"lon":-81.53029,"city":"Batesburg","state":"SC","address":"120 West Columbia Avenue Batesburg","name":""},
  {"lat":32.87181,"lon":-97.34169,"city":"Fort Worth","state":"TX","address":"7220 Blue Mound Road Fort Worth","name":""},
  {"lat":37.36883,"lon":-121.88047,"city":"San Jose","state":"CA","address":"1401 Berryessa Road San Jose","name":""},
  {"lat":34.1832,"lon":-118.33881,"city":"Burbank","state":"CA","address":"2500 W. Victory Blvd Burbank","name":""},
  {"lat":33.08258,"lon":-82.01046,"city":"Waynesboro","state":"GA","address":"317 S.liberty Street Waynesboro","name":""},
  {"lat":32.58968,"lon":-93.7135,"city":"Bossier City","state":"LA","address":"4870 Airline Dr. Bossier City","name":""},
  {"lat":33.42802,"lon":-84.09123,"city":"McDonough","state":"GA","address":"1870 Hwy 81 East Mcdonough","name":""},
  {"lat":39.43276,"lon":-76.32813,"city":"Edgewood","state":"MD","address":"1013 Woodbridge Ctr Way Edgewood","name":""},
  {"lat":38.01557,"lon":-87.57693,"city":"Evansville","state":"IN","address":"4000 1st Ave Evansville","name":""},
  {"lat":41.7282,"lon":-88.02746,"city":"Woodridge","state":"IL","address":"8645 Woodward Ave. Woodridge","name":""},
  {"lat":41.37307,"lon":-73.41413,"city":"Bethel","state":"CT","address":"7 Durant Ave. Bethel","name":""},
  {"lat":41.95353,"lon":-87.80901,"city":"Norridge","state":"IL","address":"4050 N Harlem Ave Norridge","name":""},
  {"lat":30.25525,"lon":-94.2156,"city":"Lumberton","state":"TX","address":"100 S. Lhs Dr. Lumberton","name":""},
  {"lat":26.96396,"lon":-82.07274,"city":"Port Charlotte","state":"FL","address":"4478 Tamiami Trail Port Charlotte","name":""},
  {"lat":36.3388,"lon":-119.332,"city":"Visalia","state":"CA","address":"1102 N. Demaree St. Visalia","name":""},
  {"lat":33.75833,"lon":-118.11209,"city":"Long Beach","state":"CA","address":"6265 East 2nd St. Long Beach","name":""},
  {"lat":42.09074,"lon":-71.64211,"city":"Uxbridge","state":"MA","address":"323 N. Main St. Uxbridge","name":""},
  {"lat":34.50705,"lon":-117.40078,"city":"Adelanto","state":"CA","address":"CVS at 12058 Palmdale Rd Adelanto, CA 92301 | CVS Pharmacy","name":""},
  {"lat":42.3041,"lon":-71.3253,"city":"Wellesley","state":"MA","address":"984 Worcester Street Wellesley","name":""},
  {"lat":38.78975,"lon":-90.34438,"city":"Florissant","state":"MO","address":"8200 N. Lindbergh Blvd. Florissant","name":""},
  {"lat":42.77454,"lon":-73.89672,"city":"Schenectady","state":"NY","address":"2037 State Street Schenectady","name":""},
  {"lat":42.68008,"lon":-89.04323,"city":"Janesville","state":"WI","address":"1832 W. Court St. Janesville","name":""},
  {"lat":34.16727,"lon":-118.5853,"city":"Woodland Hills","state":"CA","address":"20801 Ventura Blvd Woodland Hills","name":""},
  {"lat":41.87724,"lon":-87.65541,"city":"Chicago","state":"IL","address":"1101 W Jackson Blvd Chicago","name":""},
  {"lat":30.1893,"lon":-85.6752,"city":"Panama City","state":"FL","address":"955 W 23rd St Panama City","name":""},
  {"lat":41.47421,"lon":-84.55513,"city":"Bryan","state":"OH","address":"341 West High St Bryan","name":""},
  {"lat":35.7689,"lon":-78.78123,"city":"Cary","state":"NC","address":"1123 Kildaire Farm Rd. Cary","name":""},
  {"lat":34.06413,"lon":-84.39758,"city":"Roswell","state":"GA","address":"1135 Woodstock Rd Roswell","name":""},
  {"lat":37.38702,"lon":-121.85856,"city":"San Jose","state":"CA","address":"2514 Berryessa Rd San Jose","name":""},
  {"lat":38.62054,"lon":-90.58187,"city":"Chesterfield","state":"MO","address":"2511 Kehrs Mill Rd. Chesterfield","name":""},
  {"lat":33.60876,"lon":-85.78239,"city":"Oxford","state":"AL","address":"400 Oxford Exchange Blvd Oxford","name":""},
  {"lat":33.34989,"lon":-86.86817,"city":"Hoover","state":"AL","address":"2301 John Hawkins Pkwy Hoover","name":""},
  {"lat":39.9841,"lon":-75.93186,"city":"Parkesburg","state":"PA","address":"3373 E. Lincoln Hwy. Parkesburg","name":""},
  {"lat":39.87932,"lon":-83.06033,"city":"Grove City","state":"OH","address":"2120 Stringtown Rd. Grove City","name":""},
  {"lat":39.8021,"lon":-75.16941,"city":"Wenonah","state":"NJ","address":"1098 Mantua Pike Wenonah","name":""},
  {"lat":39.96004,"lon":-84.18556,"city":"Tipp City","state":"OH","address":"914 W. Main St. Tipp City","name":""},
  {"lat":33.91484,"lon":-117.58908,"city":"Norco","state":"CA","address":"2400 River Road Norco","name":""},
  {"lat":34.06257,"lon":-117.70638,"city":"Montclair","state":"CA","address":"4535 Holt Blvd Montclair","name":""},
  {"lat":34.1457,"lon":-118.24081,"city":"Glendale","state":"CA","address":"1122 East Broadway Glendale","name":""},
  {"lat":42.3801,"lon":-71.56559,"city":"Hudson","state":"MA","address":"234 Washington St Hudson","name":""},
  {"lat":29.68527,"lon":-95.81341,"city":"Richmond","state":"TX","address":"25151 Fulshear Gaston Rd. Richmond","name":""},
  {"lat":40.86035,"lon":-73.53494,"city":"Oyster Bay","state":"NY","address":"151 Pine Hollow Rd","name":""},
  {"lat":29.57632,"lon":-95.02783,"city":"Seabrook","state":"TX","address":"2242 Repsdorph Rd Seabrook","name":""},
  {"lat":37.59081,"lon":-77.45278,"city":"Richmond","state":"VA","address":"1205 Bellevue Ave. Richmond","name":""},
  {"lat":38.67943,"lon":-90.26124,"city":"St. Louis","state":"MO","address":"3431 Union Blvd. St. Louis","name":""},
  {"lat":33.94139,"lon":-83.44113,"city":"Athens","state":"GA","address":"3065 Atlanta Hwy Athens","name":""},
  {"lat":37.78343,"lon":-80.4564,"city":"Lewisburg","state":"WV","address":"9781 Seneca Trail S. Lewisburg","name":""},
  {"lat":47.36132,"lon":-122.60791,"city":"Gig Harbor","state":"WA","address":"11400 51st Ave Nw Gig Harbor","name":""},
  {"lat":24.56516,"lon":-81.77128,"city":"Key West","state":"FL","address":"2790 N Roosevelt Blvd Key West","name":""},
  {"lat":38.80679,"lon":-90.30121,"city":"Florissant","state":"MO","address":"13987 New Halls Ferry Rd. Florissant","name":""},
  {"lat":33.17352,"lon":-96.49651,"city":"Princeton","state":"TX","address":"311 E. Princeton Dr. Princeton","name":""},
  {"lat":25.97178,"lon":-80.14031,"city":"Aventura","state":"FL","address":"21265 Biscayne Blvd Aventura","name":""},
  {"lat":39.81126,"lon":-86.30825,"city":"Indianapolis","state":"IN","address":"8330 Crawfordsville Road Indianapolis","name":""},
  {"lat":40.26112,"lon":-76.77719,"city":"Harrisburg","state":"PA","address":"6301 Grayson Rd","name":""},
  {"lat":33.56268,"lon":-84.51811,"city":"Union City","state":"GA","address":"3940 Jonesboro Rd. Union City","name":""},
  {"lat":29.71677,"lon":-95.29536,"city":"Houston","state":"TX","address":"806 S 75th St Houston","name":""},
  {"lat":42.83298,"lon":-71.64443,"city":"Milford","state":"NH","address":"309 Nashua St. Milford","name":""},
  {"lat":40.27782,"lon":-76.66417,"city":"Hershey","state":"PA","address":"130 Hockersville Road Hershey","name":""},
  {"lat":35.90267,"lon":-78.78509,"city":"Raleigh","state":"NC","address":"8651 Brier Creek Pkwy Raleigh","name":""},
  {"lat":42.09868,"lon":-75.95005,"city":"Johnson City","state":"NY","address":"37 Riverside Drive Johnson City","name":""},
  {"lat":27.93775,"lon":-82.48352,"city":"Tampa","state":"FL","address":"611 S Howard Ave Tampa","name":""},
  {"lat":39.72362,"lon":-84.15162,"city":"Dayton","state":"OH","address":"1300 Wilmington Avenue Dayton","name":""},
  {"lat":37.94933,"lon":-121.95956,"city":"Concord","state":"CA","address":"5408 Ygnacio Valley Rd Concord","name":""},
  {"lat":38.7123,"lon":-120.843,"city":"Placerville","state":"CA","address":"3972 Missouri Flat Rd Ste a Placerville","name":""},
  {"lat":39.49364,"lon":-74.45835,"city":"Galloway","state":"NJ","address":"1 S New York Rd Galloway","name":""},
  {"lat":36.13112,"lon":-86.85424,"city":"Nashville","state":"TN","address":"26 White Bridge Pike Nashville","name":""},
  {"lat":32.74823,"lon":-117.129,"city":"San Diego","state":"CA","address":"3029 University Ave. San Diego","name":""},
  {"lat":39.23667,"lon":-121.03269,"city":"Grass Valley","state":"CA","address":"1005 Sutton Way Grass Valley","name":""},
  {"lat":34.10194,"lon":-118.32496,"city":"Los Angeles","state":"CA","address":"6201 Hollywood Blvd.","name":""},
  {"lat":37.79807,"lon":-122.18203,"city":"Oakland","state":"CA","address":"4100 Redwood Rd Oakland","name":""},
  {"lat":32.84235,"lon":-96.62459,"city":"Mesquite","state":"TX","address":"1413 Oats Dr. Mesquite","name":""},
  {"lat":38.6706,"lon":-90.43786,"city":"Creve Coeur","state":"MO","address":"11560 Olive Blvd. Creve Coeur","name":""},
  {"lat":38.23817,"lon":-77.14954,"city":"King George","state":"VA","address":"11458 Kings Highway King George","name":""},
  {"lat":40.4378,"lon":-79.779,"city":"Monroeville","state":"PA","address":"3893 William Penn Hwy Monroeville","name":""},
  {"lat":38.51682,"lon":-82.72333,"city":"Flatwoods","state":"KY","address":"2409 Argillite Road Flatwoods","name":""},
  {"lat":33.84886,"lon":-87.26703,"city":"Jasper","state":"AL","address":"101 N Airport Rd. Jasper","name":""},
  {"lat":39.71138,"lon":-75.65113,"city":"Wilmington","state":"DE","address":"1605 Telegraph Rd. Wilmington","name":""},
  {"lat":34.12272,"lon":-117.32085,"city":"San Bernardino","state":"CA","address":"1564 W. Base Line St. San Bernardino","name":""},
  {"lat":42.17462,"lon":-72.5876,"city":"Chicopee","state":"MA","address":"1176 Granby Road Chicopee","name":""},
  {"lat":40.1493,"lon":-75.30776,"city":"Blue Bell","state":"PA","address":"1799 Dekalb Pike Blue Bell","name":""},
  {"lat":38.24636,"lon":-122.06869,"city":"Fairfield","state":"CA","address":"2059 Cadenasso Dr Fairfield","name":""},
  {"lat":40.70359,"lon":-89.4221,"city":"Washington","state":"IL","address":"1101 Peoria St. Washington","name":""},
  {"lat":39.79805,"lon":-84.292,"city":"Trotwood","state":"OH","address":"1001 E. Main St. Trotwood","name":""},
  {"lat":39.7229,"lon":-85.89584,"city":"New Palestine","state":"IN","address":"5026 West Us 52 New Palestine","name":""},
  {"lat":42.29638,"lon":-71.15638,"city":"Chestnut Hill","state":"MA","address":"647 Vfw Pkwy","name":""},
  {"lat":30.20479,"lon":-81.74029,"city":"Jacksonville","state":"FL","address":"7790 Blanding Blvd Jacksonville","name":""},
  {"lat":40.69653,"lon":-73.74559,"city":"Cambria Heights","state":"NY","address":"206-09 Linden Boulevard Cambria Heights","name":""},
  {"lat":34.67325,"lon":-86.54241,"city":"Huntsville","state":"AL","address":"2750 Carl T Jones Dr Se Ste 7 Huntsville","name":""},
  {"lat":37.72809,"lon":-85.8831,"city":"Elizabethtown","state":"KY","address":"1571 N. Dixie Avenue Elizabethtown","name":""},
  {"lat":40.68548,"lon":-74.43815,"city":"Berkeley Heights","state":"NJ","address":"412 Springfield Ave. Berkeley Heights","name":""},
  {"lat":39.40925,"lon":-76.95077,"city":"Eldersburg","state":"MD","address":"6040 Sykesville Rd Eldersburg","name":""},
  {"lat":39.88787,"lon":-75.12122,"city":"Gloucester City","state":"NJ","address":"455 S. Broadway Gloucester City","name":""},
  {"lat":33.57845,"lon":-101.95656,"city":"Lubbock","state":"TX","address":"6420 19th Street Lubbock","name":""},
  {"lat":28.15515,"lon":-81.44075,"city":"Kissimmee","state":"FL","address":"4500 Pleasant Hill Rd.","name":""},
  {"lat":36.12375,"lon":-80.25895,"city":"Winston Salem","state":"NC","address":"606 Coliseum Dr. Winston Salem","name":""},
  {"lat":38.9465,"lon":-119.965,"city":"South Lake Tahoe","state":"CA","address":"3471 Lake Tahoe Blvd South Lake Tahoe","name":""},
  {"lat":40.07583,"lon":-85.6772,"city":"Anderson","state":"IN","address":"3824 Main Street Anderson","name":""},
  {"lat":41.11209,"lon":-89.36894,"city":"Henry","state":"IL","address":"808 University Ave Henry","name":""},
  {"lat":38.19837,"lon":-85.67111,"city":"Louisville","state":"KY","address":"3600 Mall Rd Louisville","name":""},
  {"lat":26.72491,"lon":-80.05353,"city":"West","state":"FL","address":"1301 N Dixie Hwy West Palm Beach","name":""},
  {"lat":34.03283,"lon":-117.6815,"city":"Chino","state":"CA","address":"5555 Philadelphia St Chino","name":""},
  {"lat":38.52617,"lon":-90.03189,"city":"Belleville","state":"IL","address":"5601 Belleville Crossing St Belleville","name":""},
  {"lat":38.35589,"lon":-87.57835,"city":"Princeton","state":"IN","address":"1000 West Broadway Princeton","name":""},
  {"lat":35.39817,"lon":-78.81549,"city":"Lillington","state":"NC","address":"803 South Main St. Lillington","name":""},
  {"lat":34.09036,"lon":-117.69102,"city":"Montclair","state":"CA","address":"9052 Central Ave Montclair","name":""},
  {"lat":41.05406,"lon":-73.76947,"city":"White Plains","state":"NY","address":"601 N Broadway White Plains","name":""},
  {"lat":34.2013,"lon":-78.0518,"city":"Leland","state":"NC","address":"1132 East Cutlar Crossing Leland","name":""},
  {"lat":39.22171,"lon":-83.60807,"city":"Hillsboro","state":"OH","address":"1400 N. High St Hillsboro","name":""},
  {"lat":35.10032,"lon":-80.9849,"city":"Charlotte","state":"NC","address":"12830 Walker Branch Rd Charlotte","name":""},
  {"lat":45.48832,"lon":-122.78764,"city":"Beaverton","state":"OR","address":"10775 Sw Beaverton Hillsdale Hwy Beaverton","name":""},
  {"lat":43.56227,"lon":-71.44791,"city":"Gilford","state":"NH","address":"1371 Lake Shore Rd. Gilford","name":""},
  {"lat":37.65128,"lon":-122.06772,"city":"Hayward","state":"CA","address":"26059 Mission Blvd. Hayward","name":""},
  {"lat":42.51884,"lon":-71.7577,"city":"Leominster","state":"MA","address":"188 Central St. Leominster","name":""},
  {"lat":43.12781,"lon":-77.44352,"city":"Fairport","state":"NY","address":"2161 Fairport Nine Mile Point Rd Fairport","name":""},
  {"lat":34.97583,"lon":-80.51929,"city":"Monroe","state":"NC","address":"625 E. Roosevelt Boulevard Monroe","name":""},
  {"lat":34.0659,"lon":-84.32014,"city":"Roswell","state":"GA","address":"11710 Alpharetta Hwy Roswell","name":""},
  {"lat":32.19113,"lon":-110.77178,"city":"Tucson","state":"AZ","address":"2601 S. Houghton Rd. Tucson","name":""},
  {"lat":41.05504,"lon":-73.54219,"city":"Stamford","state":"CT","address":"21 Broad St Stamford","name":""},
  {"lat":38.9045,"lon":-77.03215,"city":"Washington","state":"DC","address":"1199 Vermont Avenue Nw Washington","name":""},
  {"lat":33.73723,"lon":-118.29166,"city":"San Pedro","state":"CA","address":"700 S. Gaffey St. San Pedro","name":""},
  {"lat":33.90035,"lon":-118.38486,"city":"Manhattan Beach","state":"CA","address":"1570 Rosecrans Ave Manhattan Beach","name":""},
  {"lat":26.06366,"lon":-80.25146,"city":"Davie","state":"FL","address":"4610 S University Dr Davie","name":""},
  {"lat":33.94533,"lon":-117.99705,"city":"Whittier","state":"CA","address":"15466 Whittier Blvd. Whittier","name":""},
  {"lat":37.7232,"lon":-122.15271,"city":"San Leandro","state":"CA","address":"1550 East 14th St. San Leandro","name":""},
  {"lat":33.89179,"lon":-117.20667,"city":"Moreno Valley","state":"CA","address":"26180 Iris Ave Moreno Valley","name":""},
  {"lat":36.00279,"lon":-115.08584,"city":"Henderson","state":"NV","address":"695 S Green Valley Pkwy Henderson","name":""},
  {"lat":40.16947,"lon":-83.08938,"city":"Powell","state":"OH","address":"3488 Seldom Seen Rd. Powell","name":""},
  {"lat":34.15189,"lon":-117.4711,"city":"Fontana","state":"CA","address":"15286 Summit Ave. Fontana","name":""},
  {"lat":38.76082,"lon":-121.31125,"city":"Roseville","state":"CA","address":"5090 Foothills Blvd Roseville","name":""},
  {"lat":39.02412,"lon":-77.48049,"city":"Ashburn","state":"VA","address":"43930 Farmwell Hunt Plaza","name":""},
  {"lat":43.00122,"lon":-78.19599,"city":"Batavia","state":"NY","address":"259 West Main St.","name":""},
  {"lat":43.23467,"lon":-70.88527,"city":"Somersworth","state":"NH","address":"11 Andrews Rd Somersworth","name":""},
  {"lat":37.03684,"lon":-76.4081,"city":"Hampton","state":"VA","address":"2315 W. Mercury Blvd Hampton","name":""},
  {"lat":43.10446,"lon":-87.90785,"city":"Whitefish Bay","state":"WI","address":"240 E Hampton Whitefish Bay","name":""},
  {"lat":40.0757,"lon":-75.15519,"city":"Wyncote","state":"PA","address":"2450 Shoppers Ln Wyncote","name":""},
  {"lat":40.57972,"lon":-74.50138,"city":"Middlesex","state":"NJ","address":"1252 Bound Brook Rd","name":""},
  {"lat":27.54474,"lon":-81.81043,"city":"Wauchula","state":"FL","address":"301 S. 6th Ave. Wauchula","name":""},
  {"lat":32.83524,"lon":-96.67199,"city":"Dallas","state":"TX","address":"10306 Ferguson Rd Dallas","name":""},
  {"lat":27.86565,"lon":-82.78764,"city":"Seminole","state":"FL","address":"10200 Seminole Blvd Seminole","name":""},
  {"lat":40.43527,"lon":-74.13196,"city":"Hazlet Township","state":"NJ","address":"14 Highway 36 W Hazlet Township","name":""},
  {"lat":38.93163,"lon":-94.4093,"city":"Lees","state":"MO","address":"1850 Nw Chipman Rd Lees Summit","name":""},
  {"lat":48.14892,"lon":-122.19289,"city":"Marysville","state":"WA","address":"16818 Twin Lakes Ave Marysville","name":""},
  {"lat":32.9685,"lon":-80.1677,"city":"Summerville","state":"SC","address":"1515 Old Trolley Rd Summerville","name":""},
  {"lat":42.06797,"lon":-70.81087,"city":"Pembroke","state":"MA","address":"155 Center St. Pembroke","name":""},
  {"lat":33.68464,"lon":-117.18816,"city":"Menifee","state":"CA","address":"26973 Newport Rd. Menifee","name":""},
  {"lat":34.74197,"lon":-92.34208,"city":"Little Rock","state":"AR","address":"1122 S. University Avenue Little Rock","name":""},
  {"lat":41.78202,"lon":-73.93103,"city":"Hyde Park","state":"NY","address":"4246 Albany Post Rd.","name":""},
  {"lat":25.92755,"lon":-80.18887,"city":"Miami","state":"FL","address":"16550 Ne 6th Ave","name":""},
  {"lat":39.43746,"lon":-77.99298,"city":"Martinsburg","state":"WV","address":"436 Retail Commons Pkwy Martinsburg","name":""},
  {"lat":42.52179,"lon":-70.89435,"city":"Salem","state":"MA","address":"200 Essex Street Salem","name":""},
  {"lat":34.08954,"lon":-118.34481,"city":"West Hollywood","state":"CA","address":"7100 Santa Monica Blvd Ste 201 West Hollywood","name":""},
  {"lat":35.3337,"lon":-97.47615,"city":"Moore","state":"OK","address":"800 Se 4th St Moore","name":""},
  {"lat":42.40201,"lon":-71.13699,"city":"Arlington","state":"MA","address":"23-25 Massachusetts Ave","name":""},
  {"lat":40.31545,"lon":-74.0655,"city":"Eatontown","state":"NJ","address":"CVS at 130 Hwy 35 Eatontown, NJ 07724 | CVS Pharmacy","name":""},
  {"lat":41.73226,"lon":-87.83926,"city":"Hickory Hills","state":"IL","address":"8811 W. 87th St. Hickory Hills","name":""},
  {"lat":36.87608,"lon":-76.2515,"city":"Norfolk","state":"VA","address":"3200 Lafayette Blvd.","name":""},
  {"lat":35.44336,"lon":-80.86136,"city":"Huntersville","state":"NC","address":"9801 Sam Furr Rd Huntersville","name":""},
  {"lat":40.26371,"lon":-85.66771,"city":"Alexandria","state":"IN","address":"105 North Park Ave Alexandria","name":""},
  {"lat":35.44405,"lon":-84.59138,"city":"Athens","state":"TN","address":"220 E. Washington Ave.","name":""},
  {"lat":37.64692,"lon":-121.03226,"city":"Modesto","state":"CA","address":"901 N Carpenter Rd Ste 30 Modesto","name":""},
  {"lat":33.78674,"lon":-117.00749,"city":"San Jacinto","state":"CA","address":"102 S. Sanderson Ave. San Jacinto","name":""},
  {"lat":37.39202,"lon":-122.08121,"city":"Mountain View","state":"CA","address":"850 California St Mountain View","name":""},
  {"lat":40.78166,"lon":-124.17991,"city":"Eureka","state":"CA","address":"800 W Harris St Ste 20 Eureka","name":""},
  {"lat":39.91805,"lon":-75.3026,"city":"Secane","state":"PA","address":"927 Providence Road Secane","name":""},
  {"lat":29.49429,"lon":-98.55085,"city":"Balcones Heights","state":"TX","address":"4522 Fredericksburg Rd Balcones Heights","name":""},
  {"lat":41.86792,"lon":-87.63109,"city":"Chicago","state":"IL","address":"1154 S Clark St Chicago","name":""},
  {"lat":33.45917,"lon":-83.24401,"city":"Greensboro","state":"GA","address":"6201 Lake Oconee Pkwy. Greensboro","name":""},
  {"lat":39.58125,"lon":-104.72166,"city":"Aurora","state":"CO","address":"7400 S Gartrell Rd Aurora","name":""},
  {"lat":27.97908,"lon":-81.66129,"city":"Winter Haven","state":"FL","address":"7009 Cypress Gardens Blvd Winter Haven","name":""},
  {"lat":42.43445,"lon":-83.4308,"city":"Livonia","state":"MI","address":"20100 Haggerty Rd Livonia","name":""},
  {"lat":32.45964,"lon":-86.45451,"city":"Prattville","state":"AL","address":"708 E. Main St. Prattville","name":""},
  {"lat":28.20098,"lon":-82.66376,"city":"Trinity","state":"FL","address":"2900 Little Rd Trinity","name":""},
  {"lat":37.68543,"lon":-122.47258,"city":"Daly City","state":"CA","address":"135 Pierce St. Daly City","name":""},
  {"lat":35.50134,"lon":-80.60866,"city":"Kannapolis","state":"NC","address":"520 N. Cannon Blvd. Kannapolis","name":""},
  {"lat":41.21654,"lon":-73.72215,"city":"Mount Kisco","state":"NY","address":"195 N Bedford Rd Ste a Mount Kisco","name":""},
  {"lat":33.87082,"lon":-79.76223,"city":"Lake City","state":"SC","address":"301 West Thomas St. Lake City","name":""},
  {"lat":38.91385,"lon":-90.14359,"city":"Alton","state":"IL","address":"2811 Homer M. Adams Pkwy. Alton","name":""},
  {"lat":37.68891,"lon":-122.13662,"city":"San Leandro","state":"CA","address":"699 Lewelling Blvd San Leandro","name":""},
  {"lat":33.71379,"lon":-117.97096,"city":"Fountain Valley","state":"CA","address":"17136 Magnolia St. Fountain Valley","name":""},
  {"lat":40.60571,"lon":-74.28981,"city":"Rahway","state":"NJ","address":"890 Saint George's Avenue Rahway","name":""},
  {"lat":42.59221,"lon":-72.59721,"city":"Greenfield","state":"MA","address":"137 Federal Street Greenfield","name":""},
  {"lat":35.91785,"lon":-84.57407,"city":"Harriman","state":"TN","address":"1136 S. Roane Street Harriman","name":""},
  {"lat":34.71887,"lon":-85.27991,"city":"Lafayette","state":"GA","address":"807 N. Main St. Lafayette","name":""},
  {"lat":42.78023,"lon":-83.23871,"city":"Lake Orion","state":"MI","address":"295 S. Broadway Lake Orion","name":""},
  {"lat":41.97452,"lon":-70.68611,"city":"Plymouth","state":"MA","address":"330 Court St. Plymouth","name":""},
  {"lat":42.53409,"lon":-83.44186,"city":"Walled","state":"MI","address":"495 Haggerty Hwy Walled Lake","name":""},
  {"lat":34.21279,"lon":-118.45946,"city":"Van Nuys","state":"CA","address":"14920 Raymer St Van Nuys","name":""},
  {"lat":42.83139,"lon":-86.09136,"city":"Holland","state":"MI","address":"3456 W Shore Dr Holland","name":""},
  {"lat":34.47381,"lon":-82.653,"city":"Anderson","state":"SC","address":"109 Highway 28 By-pass Anderson","name":""},
  {"lat":42.5972,"lon":-76.17951,"city":"Cortland","state":"NY","address":"13 Port Watson Street Cortland","name":""},
  {"lat":42.16239,"lon":-88.33942,"city":"Algonquin","state":"IL","address":"750 S Randall Rd Algonquin","name":""},
  {"lat":33.79341,"lon":-84.39921,"city":"Atlanta","state":"GA","address":"375 18th St Nw Atlanta","name":""},
  {"lat":32.86262,"lon":-97.18674,"city":"North Richland Hills","state":"TX","address":"6401 Precinct Line Rd. North Richland Hills","name":""},
  {"lat":40.3128,"lon":-75.9486,"city":"Reading","state":"PA","address":"1303 Lancaster Ave. Reading","name":""},
  {"lat":40.40771,"lon":-74.38792,"city":"East Brunswick","state":"NJ","address":"CVS Store Details","name":""},
  {"lat":33.39276,"lon":-111.66849,"city":"Mesa","state":"AZ","address":"7547 E. Southern Ave. Mesa","name":""},
  {"lat":43.07801,"lon":-77.63238,"city":"Rochester","state":"NY","address":"2325 Marketplace Dr Rochester","name":""},
  {"lat":42.36064,"lon":-71.07059,"city":"Boston","state":"MA","address":"155-157 Charles Street Boston","name":""},
  {"lat":40.86535,"lon":-73.04128,"city":"Selden","state":"NY","address":"822 Middle Country Rd. Selden","name":""},
  {"lat":38.62122,"lon":-90.52383,"city":"Ballwin","state":"MO","address":"14400 Clayton Rd. Ballwin","name":""},
  {"lat":32.32185,"lon":-90.87613,"city":"Vicksburg","state":"MS","address":"1435 N. Frontage Rd. Vicksburg","name":""},
  {"lat":34.15159,"lon":-118.825,"city":"Thousand Oaks","state":"CA","address":"2791 Agoura Rd. Thousand Oaks","name":""},
  {"lat":42.40392,"lon":-82.99731,"city":"Detroit","state":"MI","address":"10652 Gratiot Ave. Detroit","name":""},
  {"lat":35.21374,"lon":-80.85508,"city":"Charlotte","state":"NC","address":"1533 South Blvd Charlotte","name":""},
  {"lat":27.85643,"lon":-82.32731,"city":"Riverview","state":"FL","address":"10623 Gibsonton Dr Riverview","name":""},
  {"lat":40.74594,"lon":-89.61032,"city":"Peoria","state":"IL","address":"4800 N. University Peoria","name":""},
  {"lat":30.0626,"lon":-81.87569,"city":"Middleburg","state":"FL","address":"2672 Blanding Blvd Middleburg","name":""},
  {"lat":38.9002,"lon":-77.04643,"city":"Washington","state":"DC","address":"2000 Pennsylvania Ave","name":""},
  {"lat":38.79659,"lon":-90.23106,"city":"Florissant","state":"MO","address":"6999 Parker Rd. Florissant","name":""},
  {"lat":35.20867,"lon":-80.69454,"city":"Charlotte","state":"NC","address":"8830 Albemarle Rd Charlotte","name":""},
  {"lat":32.33848,"lon":-90.06452,"city":"Flowood","state":"MS","address":"4899 Lakeland Dr. Flowood","name":""},
  {"lat":27.33947,"lon":-82.46288,"city":"Sarasota","state":"FL","address":"5361 Fruitville Rd Sarasota","name":""},
  {"lat":40.62477,"lon":-74.44026,"city":"North Plainfield","state":"NJ","address":"780 Route 22 East North Plainfield","name":""},
  {"lat":27.4954,"lon":-82.59939,"city":"Bradenton","state":"FL","address":"3813 Manatee Ave. West Bradenton","name":""},
  {"lat":42.27382,"lon":-83.7753,"city":"Ann Arbor","state":"MI","address":"2100 W. Stadium Blvd. Ann Arbor","name":""},
  {"lat":41.77049,"lon":-88.03873,"city":"Woodridge","state":"IL","address":"2333 63rd St Woodridge","name":""},
  {"lat":42.28711,"lon":-71.02317,"city":"Quincy","state":"MA","address":"321 Quincy Shore Drive Quincy","name":""},
  {"lat":28.23824,"lon":-82.36741,"city":"Wesley Chapel","state":"FL","address":"5606 Post Oak Blvd. Wesley Chapel","name":""},
  {"lat":37.70798,"lon":-97.46316,"city":"Wichita","state":"KS","address":"10405 West 13th St. Wichita","name":""},
  {"lat":38.95786,"lon":-85.88607,"city":"Seymour","state":"IN","address":"201 East Tipton Street Seymour","name":""},
  {"lat":35.01674,"lon":-80.80245,"city":"Waxhaw","state":"NC","address":"10012 Weiss Way Waxhaw","name":""},
  {"lat":37.26387,"lon":-121.98397,"city":"Los Gatos","state":"CA","address":"1496 Pollard Rd Los Gatos","name":""},
  {"lat":34.69043,"lon":-118.11223,"city":"Lancaster","state":"CA","address":"44430 Challenger Way Lancaster","name":""},
  {"lat":38.78256,"lon":-90.50376,"city":"St. Charles","state":"MO","address":"2100 1st Capitol Dr. Saint Charles","name":""},
  {"lat":29.65147,"lon":-95.61822,"city":"Sugar Land","state":"TX","address":"2102 Eldridge Rd. Sugar Land","name":""},
  {"lat":39.22102,"lon":-76.87472,"city":"Columbia","state":"MD","address":"5405 Lynx Lane Columbia","name":""},
  {"lat":33.45841,"lon":-94.09154,"city":"Texarkana","state":"TX","address":"102 Richmond Ranch Rd Texarkana","name":""},
  {"lat":38.87972,"lon":-77.11017,"city":"Arlington","state":"VA","address":"4238 Wilson Blvd/ballston Commons #1831 Arlington","name":""},
  {"lat":25.88369,"lon":-80.30803,"city":"Hialeah","state":"FL","address":"1200 W 68th St Hialeah","name":""},
  {"lat":27.89317,"lon":-82.49434,"city":"Tampa","state":"FL","address":"3102 W. Gandy Blvd. Tampa","name":""},
  {"lat":20.82256,"lon":-156.3302,"city":"Makawao","state":"HI","address":"55 Kiopaa Place Makawao","name":""},
  {"lat":41.04475,"lon":-83.64193,"city":"Findlay","state":"OH","address":"463 Tiffin Ave. Findlay","name":""},
  {"lat":41.65685,"lon":-87.74642,"city":"Crestwood","state":"IL","address":"5071 Cal Sag Rd Crestwood","name":""},
  {"lat":33.61202,"lon":-95.07099,"city":"Clarksville","state":"TX","address":"1909 West Broadway Clarksville","name":""},
  {"lat":42.84679,"lon":-106.26414,"city":"Casper","state":"WY","address":"401 Se Wyoming Blvd Casper","name":""},
  {"lat":30.19169,"lon":-85.64876,"city":"Panama City","state":"FL","address":"2340 Highway 77 Panama City","name":""},
  {"lat":39.03613,"lon":-94.58694,"city":"Kansas City","state":"MO","address":"5011 Main St. Kansas City","name":""},
  {"lat":39.99396,"lon":-83.02739,"city":"Columbus","state":"OH","address":"1717 Olentangy River Rd Columbus","name":""},
  {"lat":41.11167,"lon":-85.13881,"city":"Fort","state":"IN","address":"3801 Coldwater Rd Fort Wayne","name":""},
  {"lat":41.69566,"lon":-72.7232,"city":"Newington","state":"CT","address":"1181 Main Street Newington","name":""},
  {"lat":41.11385,"lon":-81.57788,"city":"Akron","state":"OH","address":"1949 West Market Street Akron","name":""},
  {"lat":33.01095,"lon":-96.59599,"city":"Murphy","state":"TX","address":"750 E. Fm 544 Murphy","name":""},
  {"lat":35.8631,"lon":-84.06617,"city":"Knoxville","state":"TN","address":"9435 South Northshore Drive Knoxville","name":""},
  {"lat":33.83206,"lon":-118.07101,"city":"Hawaiian Gardens","state":"CA","address":"12221 Carson Street Hawaiian Gardens","name":""},
  {"lat":41.7129,"lon":-71.12749,"city":"Fall River","state":"MA","address":"1620 President Ave Fall River","name":""},
  {"lat":33.90723,"lon":-78.58616,"city":"Calabash","state":"NC","address":"9810 Ocean Hwy. Calabash","name":""},
  {"lat":40.69215,"lon":-80.01883,"city":"Mars","state":"PA","address":"558 Pittsburgh St. Mars","name":""},
  {"lat":41.70172,"lon":-70.48559,"city":"Sandwich","state":"MA","address":"77 Quaker Meeting House Road Sandwich","name":""},
  {"lat":32.88923,"lon":-97.25656,"city":"Watauga","state":"TX","address":"8000 Denton Hwy Watauga","name":""},
  {"lat":33.84724,"lon":-117.53959,"city":"Corona","state":"CA","address":"1299 E Ontario Ave Corona","name":""},
  {"lat":38.78453,"lon":-76.7926,"city":"Upper Marlboro","state":"MD","address":"7600 Se Crain Highway Upper Marlboro","name":""},
  {"lat":41.28006,"lon":-72.5983,"city":"Madison","state":"CT","address":"613 Boston Post Rd Madison","name":""},
  {"lat":43.18962,"lon":-70.88736,"city":"Dover","state":"NH","address":"50 Sterling Way Dover","name":""},
  {"lat":38.74594,"lon":-121.25387,"city":"Roseville","state":"CA","address":"1925 Douglas Blvd Roseville","name":""},
  {"lat":41.63106,"lon":-72.75957,"city":"Kensington","state":"CT","address":"1055 Farmington Avenue Kensington","name":""},
  {"lat":40.72659,"lon":-73.85382,"city":"Forest Hills","state":"NY","address":"100-02 Queens Boulevard Forest Hills","name":""},
  {"lat":33.47983,"lon":-111.91081,"city":"Scottsdale","state":"AZ","address":"7901 E Thomas Road Scottsdale","name":""},
  {"lat":37.69703,"lon":-121.87581,"city":"Pleasanton","state":"CA","address":"3999 Santa Rita Road Pleasanton","name":""},
  {"lat":38.92866,"lon":-94.72832,"city":"Overland Park","state":"KS","address":"12290 W. College Blvd. Overland Park","name":""},
  {"lat":36.13758,"lon":-95.91985,"city":"Tulsa","state":"OK","address":"1701 S Yale Ave Tulsa","name":""},
  {"lat":34.62973,"lon":-98.49549,"city":"Lawton","state":"OK","address":"2030 Nw 82nd Street Lawton","name":""},
  {"lat":38.32304,"lon":-122.30381,"city":"Napa","state":"CA","address":"1558 Trancas St Napa","name":""},
  {"lat":40.85318,"lon":-74.14043,"city":"Passaic","state":"NJ","address":"394 Broadway Passaic","name":""},
  {"lat":33.32073,"lon":-111.91035,"city":"Chandler","state":"AZ","address":"3990 W. Ray Road Chandler","name":""},
  {"lat":41.78929,"lon":-71.51585,"city":"Johnston","state":"RI","address":"1993 Plainfield Pike Johnston","name":""},
  {"lat":26.62906,"lon":-80.0893,"city":"Palm Springs","state":"FL","address":"3187 S Congress Ave Palm Springs","name":""},
  {"lat":33.60545,"lon":-86.63736,"city":"Birmingham","state":"AL","address":"1654 Gadsden Hwy Birmingham","name":""},
  {"lat":32.57946,"lon":-97.07434,"city":"Mansfield","state":"TX","address":"3802 East Broad St. Mansfield","name":""},
  {"lat":40.73215,"lon":-74.00041,"city":"New York City","state":"NY","address":"360 6Th Avenue","name":""},
  {"lat":41.57691,"lon":-88.1536,"city":"Joliet","state":"IL","address":"2701 Plainfield Rd Joliet","name":""},
  {"lat":39.09315,"lon":-108.60175,"city":"Grand Junction","state":"CO","address":"2424 Highway 6 and 50 Grand Junction","name":""},
  {"lat":42.363,"lon":-71.05545,"city":"Boston","state":"MA","address":"218 Hanover Street Boston","name":""},
  {"lat":43.71614,"lon":-87.76705,"city":"Sheboygan Falls","state":"WI","address":"4085 State Highway 28 Sheboygan Falls","name":""},
  {"lat":39.75482,"lon":-94.80288,"city":"St. Joseph","state":"MO","address":"1301 S. Belt Hwy Saint Joseph","name":""},
  {"lat":41.65498,"lon":-85.42477,"city":"Lagrange","state":"IN","address":"975 N 00 Ew Lagrange","name":""},
  {"lat":34.16888,"lon":-118.34785,"city":"Burbank","state":"CA","address":"1033 N. Hollywood Way Burbank","name":""},
  {"lat":37.2909,"lon":-78.3985,"city":"Farmville","state":"VA","address":"919 South Main St. Farmville","name":""},
  {"lat":40.842,"lon":-74.15911,"city":"Clifton","state":"NJ","address":"515 Allwood Rd. Clifton","name":""},
  {"lat":39.43748,"lon":-77.52813,"city":"Middletown","state":"MD","address":"400 Middletown Parkway Middletown","name":""},
  {"lat":29.4896,"lon":-98.45869,"city":"San Antonio","state":"TX","address":"6470 N New Braunfels Ave San Antonio","name":""},
  {"lat":33.19257,"lon":-117.3601,"city":"Oceanside","state":"CA","address":"1706 Oceanside Blvd Oceanside","name":""},
  {"lat":40.30938,"lon":-74.32081,"city":"Manalapan","state":"NJ","address":"253 Gordon's Corner Rd. Manalapan","name":""},
  {"lat":43.16149,"lon":-76.12332,"city":"Cicero","state":"NY","address":"8061 Brewerton Rd Cicero","name":""},
  {"lat":42.45225,"lon":-71.1365,"city":"Winchester","state":"MA","address":"539 Main St # 545 Winchester","name":""},
  {"lat":29.16479,"lon":-98.17739,"city":"Floresville","state":"TX","address":"744 Us Hwy 181 North Floresville","name":""},
  {"lat":41.7323,"lon":-93.59961,"city":"Ankeny","state":"IA","address":"104 E. First St. Ankeny","name":""},
  {"lat":40.83476,"lon":-73.29491,"city":"Commack","state":"NY","address":"341 Commack Rd. Commack","name":""},
  {"lat":33.43706,"lon":-84.58945,"city":"Peachtree City","state":"GA","address":"1209 N Peachtree Pkwy Peachtree City","name":""},
  {"lat":33.11582,"lon":-96.84042,"city":"Frisco","state":"TX","address":"5401 Lebanon Frisco","name":""},
  {"lat":25.77897,"lon":-80.23994,"city":"Miami","state":"FL","address":"650 Nw 27th Ave Miami","name":""},
  {"lat":38.87375,"lon":-76.92995,"city":"Capitol Heights","state":"MD","address":"4840 Marlboro Pike Capitol Heights","name":""},
  {"lat":40.8943,"lon":-73.9762,"city":"Englewood","state":"NJ","address":"10 West Palisade Ave. Englewood","name":""},
  {"lat":36.73491,"lon":-78.91734,"city":"South Boston","state":"VA","address":"3231 Halifax Rd. South Boston","name":""},
  {"lat":32.3322,"lon":-90.311,"city":"Clinton","state":"MS","address":"801 Hwy 80 E Clinton","name":""},
  {"lat":36.31322,"lon":-78.58647,"city":"Oxford","state":"NC","address":"215 Williamsboro St Oxford","name":""},
  {"lat":38.9768,"lon":-84.59413,"city":"Erlanger","state":"KY","address":"3950 Turkeyfoot Rd Erlanger","name":""},
  {"lat":42.32562,"lon":-83.31227,"city":"Garden City","state":"MI","address":"27435 Ford Rd. Garden City","name":""},
  {"lat":42.03558,"lon":-91.57478,"city":"Marion","state":"IA","address":"3495 7th Avenue Marion","name":""},
  {"lat":35.81955,"lon":-78.84832,"city":"Cary","state":"NC","address":"3581 Davis Dr. Cary","name":""},
  {"lat":37.14742,"lon":-76.45786,"city":"Yorktown","state":"VA","address":"4432 George Washington Mem Hwy Yorktown","name":""},
  {"lat":42.40566,"lon":-71.08312,"city":"Medford","state":"MA","address":"590 Fellsway Medford","name":""},
  {"lat":39.24879,"lon":-94.59581,"city":"Kansas City","state":"MO","address":"8420 N Madison Ave Kansas City","name":""},
  {"lat":41.02417,"lon":-80.74129,"city":"Canfield","state":"OH","address":"601 East Main Street Canfield","name":""},
  {"lat":26.00975,"lon":-80.24935,"city":"Pembroke Pines","state":"FL","address":"70 N University Dr Pembroke Pines","name":""},
  {"lat":47.172,"lon":-122.519,"city":"Lakewood","state":"WA","address":"9400 Gravelly Lake Dr Sw Lakewood","name":""},
  {"lat":30.22126,"lon":-81.58534,"city":"Jacksonville","state":"FL","address":"8325 Baymeadows Rd. Jacksonville","name":""},
  {"lat":39.94906,"lon":-75.16067,"city":"Philadelphia","state":"PA","address":"1201 Walnut St Philadelphia","name":""},
  {"lat":40.82807,"lon":-115.77384,"city":"Elko","state":"NV","address":"550 W. Idaho St Elko","name":""},
  {"lat":40.1825,"lon":-75.5679,"city":"Spring City","state":"PA","address":"3425 Schuylkill Rd. Spring City","name":""},
  {"lat":29.89905,"lon":-95.06282,"city":"Crosby","state":"TX","address":"14630 Fm 2100 Crosby","name":""},
  {"lat":42.22228,"lon":-71.02324,"city":"Braintree","state":"MA","address":"250 Granite St Braintree","name":""},
  {"lat":26.23146,"lon":-80.10351,"city":"Pompano Beach","state":"FL","address":"2036 E. Atlantic Blvd. Pompano Beach","name":""},
  {"lat":37.65772,"lon":-121.89758,"city":"Pleasanton","state":"CA","address":"6750 Bernal Ave. Pleasanton","name":""},
  {"lat":41.16684,"lon":-112.0267,"city":"Roy","state":"UT","address":"5305 South 1900 West Roy","name":""},
  {"lat":34.97318,"lon":-120.43399,"city":"Santa Maria","state":"CA","address":"1830 North Broadway Santa Maria","name":""},
  {"lat":26.11828,"lon":-80.39321,"city":"Weston","state":"FL","address":"324 Indian Trace Rd Weston","name":""},
  {"lat":35.88993,"lon":-82.06562,"city":"Spruce Pine","state":"NC","address":"12121 S. 226 Hwy Spruce Pine","name":""},
  {"lat":34.21917,"lon":-119.05316,"city":"Camarillo","state":"CA","address":"351 Carmen Dr.","name":""},
  {"lat":21.61967,"lon":-157.91618,"city":"Hauula","state":"HI","address":"54-316 Kamehameha Hwy Hauula","name":""},
  {"lat":33.15632,"lon":-117.12886,"city":"San Marcos","state":"CA","address":"997 Woodland Pkwy. San Marcos","name":""},
  {"lat":40.13202,"lon":-75.53554,"city":"Phoenixville","state":"PA","address":"130 Schuylkill Rd. Phoenixville","name":""},
  {"lat":37.11614,"lon":-87.89581,"city":"Princeton","state":"KY","address":"1021 West Main Street Princeton","name":""},
  {"lat":26.90671,"lon":-99.27188,"city":"Zapata","state":"TX","address":"1205 North Us Highway 83 Zapata","name":""},
  {"lat":47.45931,"lon":-122.33522,"city":"Burien","state":"WA","address":"117 Sw 160th Street Burien","name":""},
  {"lat":36.03138,"lon":-95.92361,"city":"Tulsa","state":"OK","address":"9122 S Yale Ave. Tulsa","name":""},
  {"lat":34.03198,"lon":-83.31481,"city":"Hull","state":"GA","address":"8895 Us Highway 29 South Hull","name":""},
  {"lat":40.2289,"lon":-74.88473,"city":"Yardley","state":"PA","address":"905 Taylor Lane Yardley","name":""},
  {"lat":37.66639,"lon":-122.12079,"city":"Hayward","state":"CA","address":"19661 Hesperian Blvd Hayward","name":""},
  {"lat":36.29998,"lon":-80.14108,"city":"Walnut Cove","state":"NC","address":"610 N. Main St.","name":""},
  {"lat":37.99051,"lon":-85.71643,"city":"Shepherdsville","state":"KY","address":"157 South Buckman Street Shepherdsville","name":""},
  {"lat":40.77424,"lon":-73.95165,"city":"New York City","state":"NY","address":"1569 First Avenue","name":""},
  {"lat":38.67808,"lon":-84.34425,"city":"Falmouth","state":"KY","address":"1157 Ridgeway Avenue Falmouth","name":""},
  {"lat":40.11407,"lon":-88.20325,"city":"Urbana","state":"IL","address":"200 N. Vine St. Urbana","name":""},
  {"lat":41.48749,"lon":-71.43658,"city":"Narragansett","state":"RI","address":"1123 Boston Neck Rd. Narragansett","name":""},
  {"lat":41.40115,"lon":-87.33458,"city":"Crown Point","state":"IN","address":"100 East State Rd 231 Crown Point","name":""},
  {"lat":29.72951,"lon":-95.64523,"city":"Houston","state":"TX","address":"14606 Richmond Ave. Houston","name":""},
  {"lat":39.02274,"lon":-94.65888,"city":"Mission","state":"KS","address":"6300 Johnson Dr Mission","name":""},
  {"lat":39.94727,"lon":-74.35445,"city":"Whiting","state":"NJ","address":"505 Route 530 Whiting","name":""},
  {"lat":41.92608,"lon":-87.70302,"city":"Chicago","state":"IL","address":"2434 No. Sacramento Ave Chicago","name":""},
  {"lat":34.66162,"lon":-118.20385,"city":"Lancaster","state":"CA","address":"4105 W Avenue L Lancaster","name":""},
  {"lat":39.90725,"lon":-75.0819,"city":"Oaklyn","state":"NJ","address":"4 White Horse Pike Oaklyn","name":""},
  {"lat":34.12333,"lon":-117.53733,"city":"Rancho Cucamonga","state":"CA","address":"7170 Day Creek Blvd. Rancho Cucamonga","name":""},
  {"lat":40.75865,"lon":-73.97113,"city":"New York City","state":"NY","address":"630 Lexington Avenue","name":""},
  {"lat":35.24219,"lon":-81.13482,"city":"Gastonia","state":"NC","address":"1803 S. New Hope Road Gastonia","name":""},
  {"lat":41.70946,"lon":-93.57811,"city":"Ankeny","state":"IA","address":"2135 Se Delaware Ave Ankeny","name":""},
  {"lat":42.12309,"lon":-75.95793,"city":"Johnson City","state":"NY","address":"269 Harry L Drive Johnson City","name":""},
  {"lat":37.94775,"lon":-91.77695,"city":"Rolla","state":"MO","address":"500 N. Bishop Ave. Rolla","name":""},
  {"lat":39.05624,"lon":-77.11477,"city":"Rockville","state":"MD","address":"5700 Bou Ave Rockville","name":""},
  {"lat":33.46648,"lon":-111.98648,"city":"Phoenix","state":"AZ","address":"1625 N. 44th St. Phoenix","name":""},
  {"lat":38.9076,"lon":-94.67491,"city":"Overland Park","state":"KS","address":"12200 Blue Valley Pkwy Overland Park","name":""},
  {"lat":46.888,"lon":-114.03643,"city":"Missoula","state":"MT","address":"2420 N Reserve St Missoula","name":""},
  {"lat":33.66688,"lon":-117.2639,"city":"Lake Elsinore","state":"CA","address":"29985 Canyon Hills Rd Lake Elsinore","name":""},
  {"lat":40.98553,"lon":-74.13793,"city":"Midland Park","state":"NJ","address":"80 Godwin Avenue Midland Park","name":""},
  {"lat":33.47927,"lon":-112.23697,"city":"Phoenix","state":"AZ","address":"8245 W. Thomas Rd. Phoenix","name":""},
  {"lat":41.79981,"lon":-87.59466,"city":"Chicago","state":"IL","address":"1228 E. 53rd St. Chicago","name":""},
  {"lat":39.22048,"lon":-84.58724,"city":"Cincinnati","state":"OH","address":"8215 Colerain Ave. Cincinnati","name":""},
  {"lat":33.80795,"lon":-84.39331,"city":"Atlanta","state":"GA","address":"1943 Peachtree Rd Ne Atlanta","name":""},
  {"lat":37.59543,"lon":-122.38632,"city":"Burlingame","state":"CA","address":"1871 El Camino Real Burlingame","name":""},
  {"lat":35.31758,"lon":-97.4998,"city":"Moore","state":"OK","address":"720 Sw 19th St Moore","name":""},
  {"lat":33.31551,"lon":-83.39231,"city":"Eatonton","state":"GA","address":"809 Oak St Eatonton","name":""},
  {"lat":27.87979,"lon":-82.83187,"city":"Largo","state":"FL","address":"13998 Walsingham Rd Largo","name":""},
  {"lat":34.68932,"lon":-79.89726,"city":"Cheraw","state":"SC","address":"901 Market St. Cheraw","name":""},
  {"lat":42.07973,"lon":-71.38487,"city":"Franklin","state":"MA","address":"272 East Central Street","name":""},
  {"lat":39.86019,"lon":-74.87324,"city":"Marlton","state":"NJ","address":"401 Taunton Lake Rd-kings Grant Marlton","name":""},
  {"lat":45.33263,"lon":-122.76753,"city":"Wilsonville","state":"OR","address":"25925 Sw Heather Pl Wilsonville","name":""},
  {"lat":40.0234,"lon":-74.85708,"city":"Westampton","state":"NJ","address":"71 Springside Road Westampton","name":""},
  {"lat":33.0159,"lon":-97.22019,"city":"Roanoke","state":"TX","address":"1305 N. Hwy 377 Roanoke","name":""},
  {"lat":41.15896,"lon":-81.44089,"city":"Stow","state":"OH","address":"3352 Kent Road Stow","name":""},
  {"lat":40.62133,"lon":-73.91777,"city":"Brooklyn","state":"NY","address":"2320 Ralph Ave. Brooklyn","name":""},
  {"lat":42.284,"lon":-71.15757,"city":"West Roxbury","state":"MA","address":"1921-1943 Centre Street West Roxbury","name":""},
  {"lat":40.84715,"lon":-74.80859,"city":"Hackettstown","state":"NJ","address":"68 Us Hwy 46 W Hackettstown","name":""},
  {"lat":31.98449,"lon":-81.17461,"city":"Savannah","state":"GA","address":"14065 Abercorn St Savannah","name":""},
  {"lat":34.10324,"lon":-118.33014,"city":"Hollywood","state":"CA","address":"1747 North Cahuenga Boulevard Hollywood","name":""},
  {"lat":44.96608,"lon":-92.72279,"city":"Hudson","state":"WI","address":"2401 Coulee Rd Hudson","name":""},
  {"lat":27.13883,"lon":-82.4593,"city":"Nokomis","state":"FL","address":"1111 N Tamiami Trl Nokomis","name":""},
  {"lat":39.07897,"lon":-77.07919,"city":"Wheaton","state":"MD","address":"13729 Connecticut Ave. Wheaton","name":""},
  {"lat":30.2434,"lon":-92.00703,"city":"Lafayette","state":"LA","address":"1315 Moss St Ext Lafayette","name":""},
  {"lat":30.35979,"lon":-81.5045,"city":"Jacksonville","state":"FL","address":"11900 Mccormick Rd. Jacksonville","name":""},
  {"lat":28.51246,"lon":-81.37683,"city":"Orlando","state":"FL","address":"2702 S Orange Ave Orlando","name":""},
  {"lat":38.21601,"lon":-90.3859,"city":"Crystal City","state":"MO","address":"400 S. Truman Blvd. Crystal City","name":""},
  {"lat":28.05386,"lon":-82.42688,"city":"Tampa","state":"FL","address":"2911 E. Fowler Ave. Tampa","name":""},
  {"lat":39.37129,"lon":-76.45145,"city":"Nottingham","state":"MD","address":"5230 Campbell Blvd Nottingham","name":""},
  {"lat":37.34825,"lon":-79.50659,"city":"Bedford","state":"VA","address":"1515-a Longwood Ave Bedford","name":""},
  {"lat":40.6624,"lon":-73.84013,"city":"Howard Beach","state":"NY","address":"157-05 Cross Bay Blvd. Howard Beach","name":""},
  {"lat":38.53643,"lon":-90.98374,"city":"Washington","state":"MO","address":"1851 Vernaci Dr Washington","name":""},
  {"lat":29.72271,"lon":-84.99051,"city":"Apalachicola","state":"FL","address":"139 Avenue E Apalachicola","name":""},
  {"lat":39.83794,"lon":-74.95953,"city":"Gibbsboro","state":"NJ","address":"74 South Lakeview Dr. Gibbsboro","name":""},
  {"lat":26.65226,"lon":-80.23421,"city":"Wellington","state":"FL","address":"11878 Forest Hill Blvd Wellington","name":""},
  {"lat":33.6329,"lon":-84.01673,"city":"Conyers","state":"GA","address":"2195 Hwy 20 Se Conyers","name":""},
  {"lat":42.22745,"lon":-89.07041,"city":"Rockford","state":"IL","address":"3134 11th Street Rockford","name":""},
  {"lat":36.1598,"lon":-81.15516,"city":"North Wilkesboro","state":"NC","address":"1320-6 West D Street North Wilkesboro","name":""},
  {"lat":39.48488,"lon":-88.18701,"city":"Charleston","state":"IL","address":"501 W. Lincoln Charleston","name":""},
  {"lat":28.34358,"lon":-82.18661,"city":"Dade City","state":"FL","address":"12804 Us Hwy 301 Dade City","name":""},
  {"lat":25.79043,"lon":-80.13098,"city":"Miami Beach","state":"FL","address":"312 Lincoln Road Miami Beach","name":""},
  {"lat":35.30569,"lon":-80.85786,"city":"Charlotte","state":"NC","address":"5100 Beatties Ford Rd. Charlotte","name":""},
  {"lat":34.44051,"lon":-119.82724,"city":"Goleta","state":"CA","address":"5875 Calle Real Goleta","name":""},
  {"lat":33.86627,"lon":-112.13589,"city":"Anthem","state":"AZ","address":"3610 W. Anthem Way Anthem","name":""},
  {"lat":33.74673,"lon":-117.45139,"city":"Corona","state":"CA","address":"11950 De Palma Rd. Corona","name":""},
  {"lat":34.20875,"lon":-84.21891,"city":"Cumming","state":"GA","address":"4895 Post Rd. Cumming","name":""},
  {"lat":40.75952,"lon":-87.99464,"city":"Gilman","state":"IL","address":"720 S Crescent St Gilman","name":""},
  {"lat":40.71335,"lon":-75.2196,"city":"Easton","state":"PA","address":"215 Town Center Blvd. Easton","name":""},
  {"lat":40.74484,"lon":-73.97648,"city":"New York City","state":"NY","address":"222 East 34Th Street","name":""},
  {"lat":45.68587,"lon":-122.66827,"city":"Vancouver","state":"WA","address":"8801 Ne Hazel Dell Ave Vancouver","name":""},
  {"lat":41.91928,"lon":-71.35823,"city":"South Attleboro","state":"MA","address":"366 Washington Street South Attleboro","name":""},
  {"lat":37.28543,"lon":-79.96803,"city":"Roanoke","state":"VA","address":"1916 Orange Ave Roanoke","name":""},
  {"lat":30.1999,"lon":-92.01657,"city":"Lafayette","state":"LA","address":"1326 W. Pinhook Rd. Lafayette","name":""},
  {"lat":39.199,"lon":-85.97399,"city":"Columbus","state":"IN","address":"4495 West State Road 46 Columbus","name":""},
  {"lat":35.21678,"lon":-84.86566,"city":"Cleveland","state":"TN","address":"4570 Frontage Rd Nw Cleveland","name":""},
  {"lat":39.93563,"lon":-84.02572,"city":"New Carlisle","state":"OH","address":"201 South Main St. New Carlisle","name":""},
  {"lat":39.29114,"lon":-84.39376,"city":"Sharonville","state":"OH","address":"4000 Hauck Rd. Sharonville","name":""},
  {"lat":42.3446,"lon":-71.86222,"city":"Holden","state":"MA","address":"160 Reservoir Road Holden","name":""},
  {"lat":36.78873,"lon":-79.39296,"city":"Chatham","state":"VA","address":"13600 Us Hwy 29 Chatham","name":""},
  {"lat":28.18508,"lon":-82.35458,"city":"Wesley Chapel","state":"FL","address":"1929 Bruce B. Downs Blvd. Wesley Chapel","name":""},
  {"lat":41.03161,"lon":-74.63575,"city":"Sparta","state":"NJ","address":"11 Theatre Ctr. Sparta","name":""},
  {"lat":43.19746,"lon":-77.5743,"city":"Rochester","state":"NY","address":"500 Skyview Centre Pkwy Rochester","name":""},
  {"lat":25.57817,"lon":-80.33581,"city":"Cutler Bay","state":"FL","address":"20345 Old Cutler Rd Cutler Bay","name":""},
  {"lat":29.59841,"lon":-82.08636,"city":"Hawthorne","state":"FL","address":"6025 Se Us Hwy 301 Hawthorne","name":""},
  {"lat":39.63272,"lon":-84.21361,"city":"Dayton","state":"OH","address":"2300 Miamisburg Centerville Rd Dayton","name":""},
  {"lat":38.79837,"lon":-77.30106,"city":"Fairfax","state":"VA","address":"10301 New Guinea Rd Fairfax","name":""},
  {"lat":25.53776,"lon":-80.37142,"city":"Homestead","state":"FL","address":"24799 Sw 112th Ave. Homestead","name":""},
  {"lat":40.39792,"lon":-74.11326,"city":"Middletown","state":"NJ","address":"1200 Highway 35 Middletown","name":""},
  {"lat":32.87139,"lon":-81.11592,"city":"Hampton","state":"SC","address":"705 Elm St. West Hampton","name":""},
  {"lat":38.97175,"lon":-94.74295,"city":"Lenexa","state":"KS","address":"13502 West 87th Street Parkway Lenexa","name":""},
  {"lat":41.21295,"lon":-79.38194,"city":"Clarion","state":"PA","address":"700 Main Street Clarion","name":""},
  {"lat":41.88867,"lon":-71.12012,"city":"Taunton","state":"MA","address":"284 Winthrop St","name":""},
  {"lat":42.46647,"lon":-83.5126,"city":"Novi","state":"MI","address":"47200 W 10 Mile Rd. Novi","name":""},
  {"lat":29.36834,"lon":-100.89847,"city":"Del Rio","state":"TX","address":"409 Veterans Blvd. Del Rio","name":""},
  {"lat":31.47213,"lon":-83.50196,"city":"Tifton","state":"GA","address":"320 E 20th St. Tifton","name":""},
  {"lat":38.95602,"lon":-94.62978,"city":"Overland Park","state":"KS","address":"9521 Mission Rd. Overland Park","name":""},
  {"lat":33.27873,"lon":-111.78561,"city":"Gilbert","state":"AZ","address":"3931 S Gilbert Rd Gilbert","name":""},
  {"lat":36.10696,"lon":-80.09892,"city":"Kernersville","state":"NC","address":"1105 South Main Street Kernersville","name":""},
  {"lat":39.54558,"lon":-76.10666,"city":"Havre de Grace","state":"MD","address":"1008 Pulaski Highway Havre De Grace","name":""},
  {"lat":39.68759,"lon":-75.55763,"city":"New Castle","state":"DE","address":"8 Landers Lane New Castle","name":""},
  {"lat":35.23807,"lon":-80.80035,"city":"Charlotte","state":"NC","address":"2939 the Plaza Charlotte","name":""},
  {"lat":36.27698,"lon":-115.11624,"city":"North Las Vegas","state":"NV","address":"6432 Losee Rd. North Las Vegas","name":""},
  {"lat":33.01895,"lon":-117.1108,"city":"San Diego","state":"CA","address":"10560-4s Commons Dr. San Diego","name":""},
  {"lat":28.03271,"lon":-80.67208,"city":"Palm Bay","state":"FL","address":"399 Emerson Dr Nw Palm Bay","name":""},
  {"lat":42.91069,"lon":-73.89886,"city":"Burnt Hills","state":"NY","address":"120 Lakehill Rd. Burnt Hills","name":""},
  {"lat":38.72377,"lon":-90.12336,"city":"Granite City","state":"IL","address":"3319 Nameoki Rd. Granite City","name":""},
  {"lat":27.13943,"lon":-80.20955,"city":"Stuart","state":"FL","address":"5561 Se Federal Hwy Stuart","name":""},
  {"lat":38.78068,"lon":-77.23325,"city":"Springfield","state":"VA","address":"8330 Old Keene Mill Rd/cardinal Forest Springfield","name":""},
  {"lat":35.03433,"lon":-78.93261,"city":"Fayetteville","state":"NC","address":"522 Owen Dr Fayetteville","name":""},
  {"lat":35.62424,"lon":-97.513,"city":"Edmond","state":"OK","address":"3200 S. Santa Fe Ave. Edmond","name":""},
  {"lat":37.68013,"lon":-121.77807,"city":"Livermore","state":"CA","address":"1500 1st St Livermore","name":""},
  {"lat":40.54199,"lon":-111.97755,"city":"South Jordan","state":"UT","address":"11525 S Parkway Plaza Dr South Jordan","name":""},
  {"lat":42.6772,"lon":-82.82831,"city":"Chesterfield","state":"MI","address":"51400 Gratiot Ave Chesterfield","name":""},
  {"lat":44.7724,"lon":-93.2773,"city":"Burnsville","state":"MN","address":"12751 Nicollet Ave. Burnsville","name":""},
  {"lat":38.4267,"lon":-121.41571,"city":"Elk Grove","state":"CA","address":"7505 Laguna Blvd Elk Grove","name":""},
  {"lat":39.26387,"lon":-76.69995,"city":"Catonsville","state":"MD","address":"4701 Wilkens Ave Catonsville","name":""},
  {"lat":40.74029,"lon":-73.75912,"city":"Bayside","state":"NY","address":"215-08 73rd Ave","name":""},
  {"lat":39.75856,"lon":-89.61587,"city":"Springfield","state":"IL","address":"2703 Stevenson Dr. Springfield","name":""},
  {"lat":40.13969,"lon":-79.84279,"city":"Belle Vernon","state":"PA","address":"975 Rostraver Rd. Belle Vernon","name":""},
  {"lat":38.78714,"lon":-90.56242,"city":"St. Charles","state":"MO","address":"3881 Mexico Rd Saint Charles","name":""},
  {"lat":37.25505,"lon":-76.73168,"city":"Williamsburg","state":"VA","address":"1187 Jamestown Road Williamsburg","name":""},
  {"lat":41.37673,"lon":-72.15008,"city":"Waterford","state":"CT","address":"900 Hartford Tpke Waterford","name":""},
  {"lat":36.1046,"lon":-79.82155,"city":"Greensboro","state":"NC","address":"2701 Lawndale Dr Greensboro","name":""},
  {"lat":34.0973,"lon":-118.36476,"city":"Los Angeles","state":"CA","address":"8000 West Sunset Blvd.","name":""},
  {"lat":26.54716,"lon":-81.87227,"city":"Fort Myers","state":"FL","address":"13400 S Cleveland Ave Fort Myers","name":""},
  {"lat":35.6938,"lon":-80.5127,"city":"Salisbury","state":"NC","address":"1924 Statesville Blvd. Salisbury","name":""},
  {"lat":39.9588,"lon":-86.12617,"city":"Carmel","state":"IN","address":"1421 S. Range Line Rd. Carmel","name":""},
  {"lat":33.37043,"lon":-86.79994,"city":"Hoover","state":"AL","address":"1881 Chace Rd. Hoover","name":""},
  {"lat":40.56629,"lon":-75.56104,"city":"Allentown","state":"PA","address":"749 N Krocks Rd Allentown","name":""},
  {"lat":33.60999,"lon":-111.72643,"city":"Fountain Hills","state":"AZ","address":"16545 East Palisades Blvd Fountain Hills","name":""},
  {"lat":43.44378,"lon":-70.7839,"city":"Sanford","state":"ME","address":"797 Main St. Ste #d Sanford","name":""},
  {"lat":33.56564,"lon":-117.20316,"city":"Murrieta","state":"CA","address":"41040 California Oaks Rd Murrieta","name":""},
  {"lat":39.02968,"lon":-84.22102,"city":"Amelia","state":"OH","address":"52 W. Main St. Amelia","name":""},
  {"lat":33.48549,"lon":-117.0787,"city":"Temecula","state":"CA","address":"33205 Temecula Parkway Temecula","name":""},
  {"lat":39.4402,"lon":-78.9776,"city":"Keyser","state":"WV","address":"45 S. Mineral St. Keyser","name":""},
  {"lat":38.91903,"lon":-77.03166,"city":"Washington","state":"DC","address":"2129 14th Street Nw Washington","name":""},
  {"lat":40.64684,"lon":-74.36375,"city":"Westfield","state":"NJ","address":"1144 South Avenue W. Westfield","name":""},
  {"lat":39.73565,"lon":-75.62665,"city":"Wilmington","state":"DE","address":"3240 Kirkwood Highway Wilmington","name":""},
  {"lat":40.16631,"lon":-75.29218,"city":"Blue Bell","state":"PA","address":"929 Dekalb Pike Blue Bell","name":""},
  {"lat":35.58249,"lon":-77.59382,"city":"Farmville","state":"NC","address":"4240 S. Main St. Farmville","name":""},
  {"lat":35.80523,"lon":-78.81552,"city":"Morrisville","state":"NC","address":"3001 Market Center Dr Morrisville","name":""},
  {"lat":37.1389,"lon":-93.34087,"city":"Springfield","state":"MO","address":"3045 W. Republic St. Springfield","name":""},
  {"lat":33.64155,"lon":-117.5981,"city":"Rancho Santa Margarita","state":"CA","address":"30602 Santa Margarita Pkwy Rancho Santa Margarita","name":""},
  {"lat":34.1872,"lon":-118.31912,"city":"Burbank","state":"CA","address":"1015 N. San Fernando Boulevard Burbank","name":""},
  {"lat":42.59476,"lon":-71.35132,"city":"Chelmsford","state":"MA","address":"16 Boston Road Chelmsford","name":""},
  {"lat":37.29215,"lon":-76.72474,"city":"Williamsburg","state":"VA","address":"1600 Richmond Rd","name":""},
  {"lat":28.30364,"lon":-81.39076,"city":"Kissimmee","state":"FL","address":"1300 E Vine St Kissimmee","name":""},
  {"lat":33.67626,"lon":-117.66447,"city":"Foothill Ranch","state":"CA","address":"26762 Portola Pkwy Foothill Ranch","name":""},
  {"lat":38.89353,"lon":-76.94767,"city":"Washington","state":"DC","address":"320 40th Street Ne Washington","name":""},
  {"lat":36.07212,"lon":-87.37363,"city":"Dickson","state":"TN","address":"122 Highway 70 East Dickson","name":""},
  {"lat":34.11218,"lon":-84.15282,"city":"Cumming","state":"GA","address":"3095 Old Atlanta Rd. Cumming","name":""},
  {"lat":38.7278,"lon":-77.25685,"city":"Fairfax Station","state":"VA","address":"9009 Silverbrook Road Fairfax Station","name":""},
  {"lat":36.97544,"lon":-120.07255,"city":"Madera","state":"CA","address":"1109 Country Club Dr Madera","name":""},
  {"lat":42.88236,"lon":-87.91623,"city":"Oak Creek","state":"WI","address":"8989 S Howell Ave Oak Creek","name":""},
  {"lat":26.65124,"lon":-80.12128,"city":"West","state":"FL","address":"5044 Forest Hill Blvd. West Palm Beach","name":""},
  {"lat":27.91704,"lon":-82.78818,"city":"Largo","state":"FL","address":"51 Missouri Ave.","name":""},
  {"lat":29.75186,"lon":-95.85238,"city":"Katy","state":"TX","address":"2720 Fm 1463 Katy","name":""},
  {"lat":45.007,"lon":-93.0245,"city":"Maplewood","state":"MN","address":"2196 White Bear Ave. N. Maplewood","name":""},
  {"lat":40.72161,"lon":-73.84353,"city":"Forest Hills","state":"NY","address":"108-11 Queens Blvd Forest Hills","name":""},
  {"lat":30.55079,"lon":-97.73937,"city":"Round Rock","state":"TX","address":"3000 Rm 1431 Round Rock","name":""},
  {"lat":30.0299,"lon":-95.47994,"city":"Spring","state":"TX","address":"4343 Cypresswood Rd.. Spring","name":""},
  {"lat":29.44387,"lon":-98.4768,"city":"San Antonio","state":"TX","address":"1915 Broadway Street","name":""},
  {"lat":40.7507,"lon":-73.97485,"city":"New York City","state":"NY","address":"150 East 42Nd St.","name":""},
  {"lat":34.73609,"lon":-76.79442,"city":"Morehead City","state":"NC","address":"5008 Hwy 70 West Morehead City","name":""},
  {"lat":33.60665,"lon":-88.65971,"city":"West Point","state":"MS","address":"25820 W. Main Street West Point","name":""},
  {"lat":42.69621,"lon":-87.82652,"city":"Racine","state":"WI","address":"3915 Durand Ave. Racine","name":""},
  {"lat":40.51394,"lon":-74.66086,"city":"Hillsborough","state":"NJ","address":"220 Triangle Road Hillsborough","name":""},
  {"lat":42.01231,"lon":-70.73197,"city":"Kingston","state":"MA","address":"189 Summer Street Kingston","name":""},
  {"lat":40.99008,"lon":-74.03154,"city":"Westwood","state":"NJ","address":"289 Broadway Westwood","name":""},
  {"lat":42.2589,"lon":-83.20394,"city":"Allen Park","state":"MI","address":"15240 Southfield Allen Park","name":""},
  {"lat":30.39891,"lon":-90.10499,"city":"Mandeville","state":"LA","address":"4540 Highway 22 Mandeville","name":""},
  {"lat":30.72236,"lon":-95.55761,"city":"Huntsville","state":"TX","address":"1569 11th St Huntsville","name":""},
  {"lat":26.0084,"lon":-80.37721,"city":"Pembroke Pines","state":"FL","address":"17201 Pines Blvd Pembroke Pines","name":""},
  {"lat":36.01888,"lon":-95.88366,"city":"Tulsa","state":"OK","address":"10019 S Memorial Dr Tulsa","name":""},
  {"lat":27.69156,"lon":-97.39945,"city":"Corpus Christi","state":"TX","address":"6601 Everhart Rd Ste E Corpus Christi","name":""},
  {"lat":36.63387,"lon":-80.26752,"city":"Stuart","state":"VA","address":"301b South Main St Stuart","name":""},
  {"lat":35.9742,"lon":-114.8461,"city":"Boulder City","state":"NV","address":"1017 Nevada Way","name":""},
  {"lat":42.34425,"lon":-71.08657,"city":"Boston","state":"MA","address":"231 Massachusetts Avenue Boston","name":""},
  {"lat":33.37448,"lon":-84.75467,"city":"Newnan","state":"GA","address":"1035 Lower Fayetteville Rd. Newnan","name":""},
  {"lat":45.77125,"lon":-108.58271,"city":"Billings","state":"MT","address":"2601 Central Ave Billings","name":""},
  {"lat":25.7794,"lon":-80.2467,"city":"Miami","state":"FL","address":"3105 Nw 7 Street Miami","name":""},
  {"lat":34.02051,"lon":-117.80887,"city":"Diamond Bar","state":"CA","address":"300 South Diamond Bar Boulevard Diamond Bar","name":""},
  {"lat":38.40205,"lon":-122.82247,"city":"Sebastopol","state":"CA","address":"6877 Sebastopol Ave. Sebastopol","name":""},
  {"lat":38.23271,"lon":-77.55899,"city":"Spotsylvania","state":"VA","address":"9767 Courthouse Rd. Spotsylvania","name":""},
  {"lat":30.70676,"lon":-95.56668,"city":"Huntsville","state":"TX","address":"259 Interstate 45 S Huntsville","name":""},
  {"lat":40.69948,"lon":-89.61267,"city":"Peoria","state":"IL","address":"1200 W. Main St. Peoria","name":""},
  {"lat":35.86132,"lon":-86.39093,"city":"Murfreesboro","state":"TN","address":"1331 Memorial Blvd. Murfreesboro","name":""},
  {"lat":33.96492,"lon":-118.35069,"city":"Inglewood","state":"CA","address":"222 N. Market St. Inglewood","name":""},
  {"lat":38.67611,"lon":-121.78459,"city":"Woodland","state":"CA","address":"7 W Main St Woodland","name":""},
  {"lat":33.30621,"lon":-87.60041,"city":"Northport","state":"AL","address":"4280 Mitt Lary Rd. Northport","name":""},
  {"lat":36.11593,"lon":-79.83559,"city":"Greensboro","state":"NC","address":"3000 Battleground Ave. Greensboro","name":""},
  {"lat":42.09749,"lon":-83.67754,"city":"Milan","state":"MI","address":"1249 Dexter St. Milan","name":""},
  {"lat":33.1749,"lon":-96.76744,"city":"Frisco","state":"TX","address":"12740 Eldorado Pkwy. Frisco","name":""},
  {"lat":25.86709,"lon":-80.31358,"city":"Hialeah","state":"FL","address":"1525 W. 49th St. Hialeah","name":""},
  {"lat":32.35129,"lon":-86.31702,"city":"Montgomery","state":"AL","address":"615 W Fairview Ave Montgomery","name":""},
  {"lat":40.5175,"lon":-81.46873,"city":"Dover","state":"OH","address":"300 Oxford St.","name":""},
  {"lat":37.70666,"lon":-121.93184,"city":"Dublin","state":"CA","address":"7200 Amador Plaza Rd Dublin","name":""},
  {"lat":33.24797,"lon":-111.62549,"city":"Queen Creek","state":"AZ","address":"21201 East Ocotillo Rd.","name":""},
  {"lat":41.86528,"lon":-87.79294,"city":"Oak Park","state":"IL","address":"6748 Roosevelt Rd. Oak Park","name":""},
  {"lat":33.48955,"lon":-117.69969,"city":"Dana Point","state":"CA","address":"32575 Golden Lantern St Dana Point","name":""},
  {"lat":34.17714,"lon":-119.21485,"city":"Port Hueneme","state":"CA","address":"581 W Channel Islands Blvd Port Hueneme","name":""},
  {"lat":29.77189,"lon":-94.97585,"city":"Baytown","state":"TX","address":"4510 Garth Rd Baytown","name":""},
  {"lat":28.7064,"lon":-81.445,"city":"Longwood","state":"FL","address":"3905 Wekiva Springs Rd Longwood","name":""},
  {"lat":36.1964,"lon":-86.74167,"city":"Nashville","state":"TN","address":"2516 Gallatin Rd. Nashville","name":""},
  {"lat":38.32459,"lon":-81.58784,"city":"Charleston","state":"WV","address":"4205 Maccorkle Ave. Charleston","name":""},
  {"lat":32.90138,"lon":-97.3235,"city":"Fort Worth","state":"TX","address":"8917 Tehama Ridge Pkwy Fort Worth","name":""},
  {"lat":41.53885,"lon":-88.10193,"city":"Joliet","state":"IL","address":"809 Plainfield Rd. Joliet","name":""},
  {"lat":42.15195,"lon":-71.40709,"city":"Medway","state":"MA","address":"67d Main St. Medway","name":""},
  {"lat":39.91061,"lon":-82.77805,"city":"Pickerington","state":"OH","address":"1100 Hill Rd. N Pickerington","name":""},
  {"lat":36.16018,"lon":-115.32228,"city":"Las Vegas","state":"NV","address":"10400 West Charleston Blvd Las Vegas","name":""},
  {"lat":34.17246,"lon":-84.18772,"city":"Cumming","state":"GA","address":"5510 Castleberry Road Cumming","name":""},
  {"lat":26.88215,"lon":-80.05603,"city":"Juno Beach","state":"FL","address":"14000 Us Hwy 1 Juno Beach","name":""},
  {"lat":34.20569,"lon":-118.22105,"city":"Montrose","state":"CA","address":"2037 Verdugo Blvd. Montrose","name":""},
  {"lat":41.77345,"lon":-70.74628,"city":"Wareham","state":"MA","address":"2421 Cranberry Hwy Ste 110 Wareham","name":""},
  {"lat":41.31342,"lon":-73.05323,"city":"Derby","state":"CT","address":"656 New Haven Ave. Derby","name":""},
  {"lat":35.62404,"lon":-97.62136,"city":"Oklahoma City","state":"OK","address":"15103 No Macarthur Blvd Oklahoma City","name":""},
  {"lat":33.84201,"lon":-84.37294,"city":"Atlanta","state":"GA","address":"3221 Peachtree Road Ne Atlanta","name":""},
  {"lat":42.53466,"lon":-83.13509,"city":"Clawson","state":"MI","address":"110 N Rochester Rd. Clawson","name":""},
  {"lat":30.20221,"lon":-97.80451,"city":"Austin","state":"TX","address":"1950 W. William Cannon Dr. Austin","name":""},
  {"lat":34.16687,"lon":-118.32478,"city":"Burbank","state":"CA","address":"1820 W. Verdugo Ave. Burbank","name":""},
  {"lat":34.45946,"lon":-118.53501,"city":"Santa Clarita","state":"CA","address":"27983 Seco Canyon Road Santa Clarita","name":""},
  {"lat":41.26148,"lon":-81.34487,"city":"Streetsboro","state":"OH","address":"9940 State Route 43 Streetsboro","name":""},
  {"lat":33.41354,"lon":-84.19921,"city":"McDonough","state":"GA","address":"2098 Highway 20 West Mcdonough","name":""},
  {"lat":39.31973,"lon":-120.20928,"city":"Truckee","state":"CA","address":"11411 Deerfield Dr Truckee","name":""},
  {"lat":33.8734,"lon":-118.37377,"city":"Redondo Beach","state":"CA","address":"2115 Artesia Blvd Redondo Beach","name":""},
  {"lat":40.00792,"lon":-79.07478,"city":"Somerset","state":"PA","address":"110 South Pleasant Avenue Somerset","name":""},
  {"lat":33.93932,"lon":-84.08178,"city":"Lawrenceville","state":"GA","address":"2650 Cruse Road Lawrenceville","name":""},
  {"lat":40.516,"lon":-75.3852,"city":"Coopersburg","state":"PA","address":"4105 Fairmount St Coopersburg","name":""},
  {"lat":41.39699,"lon":-75.64878,"city":"Scranton","state":"PA","address":"1101 Moosic St. Scranton","name":""},
  {"lat":29.72051,"lon":-98.16686,"city":"New Braunfels","state":"TX","address":"1910 State Highway 46 W New Braunfels","name":""},
  {"lat":41.76073,"lon":-72.71606,"city":"West","state":"CT","address":"1044 Boulevard West Hartford","name":""},
  {"lat":39.99919,"lon":-75.23121,"city":"Bala Cynwyd","state":"PA","address":"101 W City Avenue Bala Cynwyd","name":""},
  {"lat":38.78174,"lon":-76.08711,"city":"Easton","state":"MD","address":"28539 Marlboro Ave Easton","name":""},
  {"lat":38.55649,"lon":-90.26308,"city":"St. Louis","state":"MO","address":"1020 Loughborough Ave. St. Louis","name":""},
  {"lat":33.99706,"lon":-81.03299,"city":"Columbia","state":"SC","address":"900 Assembly St. Columbia","name":""},
  {"lat":41.87895,"lon":-71.41455,"city":"Pawtucket","state":"RI","address":"601 Smithfield Avenue Pawtucket","name":""},
  {"lat":42.13991,"lon":-71.14761,"city":"Canton","state":"MA","address":"95 Washington Street Canton","name":""},
  {"lat":36.22587,"lon":-83.2672,"city":"Morristown","state":"TN","address":"2114 E. Andrew Johnson Hwy. Morristown","name":""},
  {"lat":42.32919,"lon":-71.06321,"city":"Dorchester","state":"MA","address":"7 Allstate Rd Dorchester","name":""},
  {"lat":42.62395,"lon":-71.31752,"city":"Lowell","state":"MA","address":"181 Plain St Lowell","name":""},
  {"lat":32.39914,"lon":-110.96012,"city":"Oro Valley","state":"AZ","address":"10555 N Oracle Rd Oro Valley","name":""},
  {"lat":42.46203,"lon":-70.96269,"city":"Lynn","state":"MA","address":"200 South Common St. Lynn","name":""},
  {"lat":26.70775,"lon":-80.11177,"city":"West","state":"FL","address":"2077 North Military Trail West Palm Beach","name":""},
  {"lat":33.84766,"lon":-118.19343,"city":"Long Beach","state":"CA","address":"5030 Long Beach Blvd. Long Beach","name":""},
  {"lat":39.17638,"lon":-86.53427,"city":"Bloomington","state":"IN","address":"1000 N. College Ave. Bloomington","name":""},
  {"lat":38.97328,"lon":-76.84674,"city":"Seabrook","state":"MD","address":"9420 Lanham-severn Road Seabrook","name":""},
  {"lat":40.2039,"lon":-75.09346,"city":"Warminster","state":"PA","address":"445 West Street Rd. Warminster","name":""},
  {"lat":37.08488,"lon":-94.47366,"city":"Joplin","state":"MO","address":"3151 E 7th St Joplin","name":""},
  {"lat":33.74503,"lon":-85.28901,"city":"Tallapoosa","state":"GA","address":"107 Spring St. Tallapoosa","name":""},
  {"lat":41.62395,"lon":-73.92037,"city":"Poughkeepsie","state":"NY","address":"2001 South Rd Poughkeepsie","name":""},
  {"lat":31.52013,"lon":-87.89615,"city":"Jackson","state":"AL","address":"813 College Ave. Jackson","name":""},
  {"lat":32.25736,"lon":-110.80183,"city":"Tucson","state":"AZ","address":"8920 E Tanque Verde Tucson","name":""},
  {"lat":42.45232,"lon":-83.34398,"city":"Farmington Hills","state":"MI","address":"30020 Grand River Ave Farmington Hills","name":""},
  {"lat":35.95414,"lon":-83.93945,"city":"Knoxville","state":"TN","address":"CVS Store Details","name":""},
  {"lat":42.55046,"lon":-71.0017,"city":"Peabody","state":"MA","address":"637 Lowell St. Peabody","name":""},
  {"lat":42.20778,"lon":-70.95639,"city":"Weymouth","state":"MA","address":"CVS at 474 Washington St. Weymouth, MA 02188 | CVS Pharmacy","name":""},
  {"lat":39.94881,"lon":-86.3443,"city":"Zionsville","state":"IN","address":"6511 Whitestown Pkwy Zionsville","name":""},
  {"lat":41.21361,"lon":-80.74969,"city":"Niles","state":"OH","address":"5555 Youngstown Warren Rd Niles","name":""},
  {"lat":37.64244,"lon":-77.49466,"city":"Richmond","state":"VA","address":"9501 Woodman Rd. Richmond","name":""},
  {"lat":39.55021,"lon":-83.42259,"city":"Washington Court House","state":"OH","address":"1795 Columbus Avenue Washington Court House","name":""},
  {"lat":39.9606,"lon":-74.39235,"city":"Whiting","state":"NJ","address":"421 Lacey Rd. Whiting","name":""},
  {"lat":42.2085,"lon":-88.23253,"city":"Cary","state":"IL","address":"25 Northwest Hwy. Cary","name":""},
  {"lat":33.66106,"lon":-112.35862,"city":"Sun City West","state":"AZ","address":"19602 R H Johnson Blvd. Sun City West","name":""},
  {"lat":30.325,"lon":-95.4963,"city":"Conroe","state":"TX","address":"3711 W. Davis St. Conroe","name":""},
  {"lat":40.18484,"lon":-74.67812,"city":"Trenton","state":"NJ","address":"1 Sunnybrae Blvd Trenton","name":""},
  {"lat":38.59647,"lon":-76.93879,"city":"White Plains","state":"MD","address":"4200 Altamont Pl. White Plains","name":""},
  {"lat":41.93647,"lon":-71.08122,"city":"Raynham","state":"MA","address":"252 Broadway Raynham","name":""},
  {"lat":33.77869,"lon":-111.92479,"city":"Scottsdale","state":"AZ","address":"32331 N Scottsdale Rd Scottsdale","name":""},
  {"lat":32.58466,"lon":-117.09133,"city":"San Diego","state":"CA","address":"645 Saturn Blvd San Diego","name":""},
  {"lat":41.73174,"lon":-71.17295,"city":"Somerset","state":"MA","address":"1587 Brayton Point Rd. Somerset","name":""},
  {"lat":40.75636,"lon":-73.87869,"city":"Jackson Heights","state":"NY","address":"89-11 Northern Blvd. Jackson Heights","name":""},
  {"lat":40.26515,"lon":-76.70454,"city":"Hummelstown","state":"PA","address":"131 East Main Street Hummelstown","name":""},
  {"lat":42.70831,"lon":-70.90568,"city":"Rowley","state":"MA","address":"174 Newburyport Turnpike Rowley","name":""},
  {"lat":42.1862,"lon":-71.30924,"city":"Medfield","state":"MA","address":"555 Main Street Medfield","name":""},
  {"lat":41.97159,"lon":-70.71735,"city":"Kingston","state":"MA","address":"101 Independence Mall Way Kingston","name":""},
  {"lat":42.57066,"lon":-82.8901,"city":"Clinton Township","state":"MI","address":"37050 S Gratiot Ave Clinton Township","name":""},
  {"lat":35.59961,"lon":-77.33434,"city":"Greenville","state":"NC","address":"3116 East 10th Street Greenville","name":""},
  {"lat":42.56143,"lon":-83.08462,"city":"Sterling Heights","state":"MI","address":"2310 Metropolitan Pkwy Sterling Heights","name":""},
  {"lat":31.84104,"lon":-81.59702,"city":"Hinesville","state":"GA","address":"114 East General Screven Way Hinesville","name":""},
  {"lat":38.83436,"lon":-77.04945,"city":"Alexandria","state":"VA","address":"3101 Richmond Hwy Alexandria","name":""},
  {"lat":40.29395,"lon":-87.25186,"city":"Attica","state":"IN","address":"200 West Jackson Street Attica","name":""},
  {"lat":41.21083,"lon":-73.08206,"city":"Milford","state":"CT","address":"734 Bridgeport Ave. Milford","name":""},
  {"lat":47.60836,"lon":-122.33849,"city":"Seattle","state":"WA","address":"1401 2nd Ave Seattle","name":""},
  {"lat":30.11387,"lon":-81.59234,"city":"St. Johns","state":"FL","address":"2680 Race Track Rd. Saint Johns","name":""},
  {"lat":21.39413,"lon":-157.96821,"city":"Pearl City","state":"HI","address":"850 Kamehameha Hwy Ste 107 Pearl City","name":""},
  {"lat":42.33776,"lon":-83.48953,"city":"Canton","state":"MI","address":"7269 N Canton Center Rd Canton","name":""},
  {"lat":38.44285,"lon":-90.21633,"city":"Columbia","state":"IL","address":"100 Admiral Trost Rd. Columbia","name":""},
  {"lat":35.07385,"lon":-85.62024,"city":"Jasper","state":"TN","address":"4712 Main St. Jasper","name":""},
  {"lat":40.96622,"lon":-81.34032,"city":"Hartville","state":"OH","address":"600 West Maple St. Hartville","name":""},
  {"lat":38.5725,"lon":-89.98745,"city":"Fairview Heights","state":"IL","address":"4701 N Illinois St Fairview Heights","name":""},
  {"lat":33.78001,"lon":-78.78913,"city":"Myrtle Beach","state":"SC","address":"9718 North Kings Hwy Myrtle Beach","name":""},
  {"lat":35.19933,"lon":-84.84455,"city":"Cleveland","state":"TN","address":"200 Stuart Rd.","name":""},
  {"lat":29.6639,"lon":-95.0874,"city":"La Porte","state":"TX","address":"3122 Underwood Road La Porte","name":""},
  {"lat":37.15944,"lon":-93.24216,"city":"Springfield","state":"MO","address":"2715 E. Battlefield St. Springfield","name":""},
  {"lat":38.56494,"lon":-90.40421,"city":"Kirkwood","state":"MO","address":"1042 S Kirkwood Rd Kirkwood","name":""},
  {"lat":41.70294,"lon":-85.96546,"city":"Elkhart","state":"IN","address":"900 E. Bristol St. Elkhart","name":""},
  {"lat":33.13618,"lon":-117.22882,"city":"Vista","state":"CA","address":"3150 Business Park Dr Vista","name":""},
  {"lat":41.75297,"lon":-70.59745,"city":"Bourne","state":"MA","address":"6 Head of the Bay Rd. Bourne","name":""},
  {"lat":42.10211,"lon":-87.96198,"city":"Arlington Heights","state":"IL","address":"1700 E Rand Rd Arlington Heights","name":""},
  {"lat":38.07268,"lon":-78.89683,"city":"Waynesboro","state":"VA","address":"1235 W. Broad St.","name":""},
  {"lat":29.56869,"lon":-97.9506,"city":"Seguin","state":"TX","address":"110 S King St Seguin","name":""},
  {"lat":41.69195,"lon":-91.60216,"city":"Coralville","state":"IA","address":"1441 Coral Ridge Ave Coralville","name":""},
  {"lat":34.09978,"lon":-80.85569,"city":"Columbia","state":"SC","address":"121 Clemson Rd Columbia","name":""},
  {"lat":35.80809,"lon":-78.81223,"city":"Morrisville","state":"NC","address":"1990 Nw Cary Pkwy. Morrisville","name":""},
  {"lat":42.40286,"lon":-83.22288,"city":"Detroit","state":"MI","address":"18500 Grand River Detroit","name":""},
  {"lat":34.99995,"lon":-78.32067,"city":"Clinton","state":"NC","address":"507 College Street Clinton","name":""},
  {"lat":31.77507,"lon":-106.25283,"city":"El Paso","state":"TX","address":"12051 Tierra Este Road El Paso","name":""},
  {"lat":31.7841,"lon":-106.426,"city":"El Paso","state":"TX","address":"5305 Montana Avenue El Paso","name":""},
  {"lat":33.83929,"lon":-118.36274,"city":"Torrance","state":"CA","address":"4625 Torrance Boulevard Torrance","name":""},
  {"lat":33.87478,"lon":-84.01653,"city":"Snellville","state":"GA","address":"1905 Scenic Hwy N Snellville","name":""},
  {"lat":40.6896,"lon":-73.70946,"city":"Elmont","state":"NY","address":"1797 Dutch Broadway Elmont","name":""},
  {"lat":34.59388,"lon":-98.40411,"city":"Lawton","state":"OK","address":"1016 Sw Lee Blvd Lawton","name":""},
  {"lat":33.36414,"lon":-111.73962,"city":"Gilbert","state":"AZ","address":"2371 E. Guadalupe Rd. Gilbert","name":""},
  {"lat":33.4236,"lon":-112.2032,"city":"Phoenix","state":"AZ","address":"6650 W. Lower Buckeye Rd. Phoenix","name":""},
  {"lat":39.89069,"lon":-83.08693,"city":"Grove City","state":"OH","address":"3575 Broadway Grove City","name":""},
  {"lat":39.84609,"lon":-88.97696,"city":"Decatur","state":"IL","address":"570 N. Fairview Ave. Decatur","name":""},
  {"lat":42.7753,"lon":-73.88947,"city":"Schenectady","state":"NY","address":"428 Balltown Rd Schenectady","name":""},
  {"lat":35.12974,"lon":-106.54817,"city":"Albuquerque","state":"NM","address":"8510 Montgomery Blvd Ne Albuquerque","name":""},
  {"lat":28.8509,"lon":-81.55226,"city":"Eustis","state":"FL","address":"24450 Sr 44 Eustis","name":""},
  {"lat":33.56664,"lon":-112.16973,"city":"Glendale","state":"AZ","address":"5125 W. Olive Ave Glendale","name":""},
  {"lat":42.32523,"lon":-71.26056,"city":"Wellesley","state":"MA","address":"25 Washington Street Ste 1 Wellesley","name":""},
  {"lat":35.29514,"lon":-119.05726,"city":"Bakersfield","state":"CA","address":"6601 Stine Road Bakersfield","name":""},
  {"lat":37.7304,"lon":-88.93341,"city":"Marion","state":"IL","address":"801 W. Main St. Marion","name":""},
  {"lat":21.97023,"lon":-159.37913,"city":"Lihue","state":"HI","address":"3 2600 Kaumualii Hwy Ste 1100 Lihue","name":""},
  {"lat":43.24806,"lon":-70.87311,"city":"Somersworth","state":"NH","address":"CVS at 338 High St. Somersworth, NH 03878 | CVS Pharmacy","name":""},
  {"lat":26.27436,"lon":-81.68843,"city":"Naples","state":"FL","address":"8831 Immokalee Rd. Naples","name":""},
  {"lat":40.94134,"lon":-72.99791,"city":"Miller Place","state":"NY","address":"159-18 Route 25a Miller Place","name":""},
  {"lat":32.4,"lon":-110.9546,"city":"Oro Valley","state":"AZ","address":"10650 North Oracle Rd Oro Valley","name":""},
  {"lat":41.40452,"lon":-81.73491,"city":"Parma","state":"OH","address":"5812 Ridge Rd. Parma","name":""},
  {"lat":36.45036,"lon":-77.6456,"city":"Roanoke Rapids","state":"NC","address":"1124 E 10th St Roanoke Rapids","name":""},
  {"lat":39.95039,"lon":-75.14551,"city":"Philadelphia","state":"PA","address":"259 Market St. Philadelphia","name":""},
  {"lat":37.27599,"lon":-121.85232,"city":"San Jose","state":"CA","address":"525 W Capitol Expy San Jose","name":""},
  {"lat":36.07485,"lon":-95.77884,"city":"Broken Arrow","state":"OK","address":"2351 N. 9th St. Broken Arrow","name":""},
  {"lat":34.00929,"lon":-84.57374,"city":"Kennesaw","state":"GA","address":"740 Ernest W Barrett Pkwy Nw Kennesaw","name":""},
  {"lat":33.04065,"lon":-80.15712,"city":"Summerville","state":"SC","address":"450 Azalea Square Blvd Summerville","name":""},
  {"lat":36.38148,"lon":-81.48532,"city":"West","state":"NC","address":"2 Crescent Dr. / Po Box 1701 West Jefferson","name":""},
  {"lat":30.2861,"lon":-89.73568,"city":"Slidell","state":"LA","address":"2103 Gause Blvd East Slidell","name":""},
  {"lat":30.43891,"lon":-84.29775,"city":"Tallahassee","state":"FL","address":"822 West Pensacola Street Tallahassee","name":""},
  {"lat":39.9966,"lon":-85.93235,"city":"Noblesville","state":"IN","address":"13085 Tegler Drive Noblesville","name":""},
  {"lat":30.70753,"lon":-95.5471,"city":"Huntsville","state":"TX","address":"2421 Sam Houston Ave. Huntsville","name":""},
  {"lat":39.11906,"lon":-77.20267,"city":"Gaithersburg","state":"MD","address":"25 Grand Corner Ave Gaithersburg","name":""},
  {"lat":40.91497,"lon":-74.05904,"city":"Paramus","state":"NJ","address":"900 Bergen Town Ctr Paramus","name":""},
  {"lat":30.1052,"lon":-95.25027,"city":"Porter","state":"TX","address":"23865 Fm 1314 Rd. Porter","name":""},
  {"lat":38.91104,"lon":-78.1839,"city":"Front Royal","state":"VA","address":"800 John Marshall Hwy Front Royal","name":""},
  {"lat":39.86659,"lon":-75.42735,"city":"Aston","state":"PA","address":"5020 Pennell Rd. Aston","name":""},
  {"lat":32.80964,"lon":-116.95931,"city":"El Cajon","state":"CA","address":"250 Broadway El Cajon","name":""},
  {"lat":39.54902,"lon":-86.15947,"city":"Bargersville","state":"IN","address":"5020 N. State Rd 135 Bargersville","name":""},
  {"lat":32.01068,"lon":-81.10024,"city":"Savannah","state":"GA","address":"712 Stephenson Ave. Savannah","name":""},
  {"lat":34.07399,"lon":-118.2147,"city":"Los Angeles","state":"CA","address":"2419 Workman Street Los Angeles","name":""},
  {"lat":40.56909,"lon":-74.57702,"city":"Bridgewater","state":"NJ","address":"440 Union Ave. Bridgewater","name":""},
  {"lat":41.38475,"lon":-81.43818,"city":"Solon","state":"OH","address":"33840 Aurora Rd. Solon","name":""},
  {"lat":44.72384,"lon":-93.17498,"city":"Apple Valley","state":"MN","address":"15560 Pilot Knob Rd Apple Valley","name":""},
  {"lat":33.06397,"lon":-96.79701,"city":"Plano","state":"TX","address":"6761 Preston Rd. Plano","name":""},
  {"lat":47.67238,"lon":-122.10341,"city":"Redmond","state":"WA","address":"17700 Ne 76th St Redmond","name":""},
  {"lat":39.9555,"lon":-86.16418,"city":"Carmel","state":"IN","address":"367 W. 116th Street Carmel","name":""},
  {"lat":38.4126,"lon":-96.18198,"city":"Emporia","state":"KS","address":"1215 Merchant St. Emporia","name":""},
  {"lat":39.65675,"lon":-79.99063,"city":"Star City","state":"WV","address":"3521 Monongahela Blvd Star City","name":""},
  {"lat":39.59164,"lon":-104.80442,"city":"Aurora","state":"CO","address":"15700 E Briarwood Cir Aurora","name":""},
  {"lat":40.11779,"lon":-83.06796,"city":"Columbus","state":"OH","address":"1950 Hard Road Columbus","name":""},
  {"lat":30.39287,"lon":-97.744,"city":"Austin","state":"TX","address":"10107 Research Blvd Austin","name":""},
  {"lat":45.41467,"lon":-122.71687,"city":"Lake Oswego","state":"OR","address":"4025 Mercantile Drive","name":""},
  {"lat":42.35042,"lon":-71.07697,"city":"Boston","state":"MA","address":"587 Boylston Street Boston","name":""},
  {"lat":37.28402,"lon":-81.25016,"city":"Bluefield","state":"WV","address":"1846 Coal Heritage Rd. Bluefield","name":""},
  {"lat":36.20732,"lon":-83.32025,"city":"Morristown","state":"TN","address":"2008 W. Andrew Johnson Hwy Morristown","name":""},
  {"lat":40.74869,"lon":-73.98467,"city":"New York City","state":"NY","address":"358 5Th Avenue New York City","name":""},
  {"lat":26.18884,"lon":-80.11648,"city":"Fort Lauderdale","state":"FL","address":"2150 East Commercial Blvd. Fort Lauderdale","name":""},
  {"lat":33.63828,"lon":-112.0692,"city":"Phoenix","state":"AZ","address":"16806 N 7th St Phoenix","name":""},
  {"lat":34.12363,"lon":-83.60638,"city":"Jefferson","state":"GA","address":"1680 Old Pendergrass Rd. Jefferson","name":""},
  {"lat":32.73135,"lon":-89.53582,"city":"Carthage","state":"MS","address":"205 Highway 16 West Carthage","name":""},
  {"lat":39.42241,"lon":-119.74107,"city":"Reno","state":"NV","address":"1081 Steamboat Pkwy. Reno","name":""},
  {"lat":36.1682,"lon":-80.27918,"city":"Winston Salem","state":"NC","address":"5420 University Pkwy Winston Salem","name":""},
  {"lat":43.02219,"lon":-85.68693,"city":"Walker","state":"MI","address":"3248 Alpine Ave Nw Walker","name":""},
  {"lat":35.059,"lon":-80.81604,"city":"Charlotte","state":"NC","address":"7860 Rea Rd Charlotte","name":""},
  {"lat":41.90513,"lon":-87.8437,"city":"Melrose Park","state":"IL","address":"850 W North Ave Melrose Park","name":""},
  {"lat":40.58648,"lon":-122.34804,"city":"Redding","state":"CA","address":"1280 Dana Dr Redding","name":""},
  {"lat":43.03406,"lon":-77.44834,"city":"Victor","state":"NY","address":"7500 Commons Blvd Victor","name":""},
  {"lat":33.97839,"lon":-117.55428,"city":"Eastvale","state":"CA","address":"12471 Limonite Ave Eastvale","name":""},
  {"lat":32.95624,"lon":-117.12892,"city":"San Diego","state":"CA","address":"9225 Twin Trails Drive San Diego","name":""},
  {"lat":36.71935,"lon":-78.11721,"city":"South Hill","state":"VA","address":"807 E. Atlantic St. South Hill","name":""},
  {"lat":39.3008,"lon":-76.6161,"city":"Baltimore","state":"MD","address":"934 North Charles St. Baltimore","name":""},
  {"lat":42.67145,"lon":-71.29648,"city":"Dracut","state":"MA","address":"4 Broadway Road Dracut","name":""},
  {"lat":41.27495,"lon":-72.82914,"city":"Branford","state":"CT","address":"2-6 Short Beach Rd","name":""},
  {"lat":38.84442,"lon":-77.11864,"city":"Falls Church","state":"VA","address":"5115 Leesburg Pike Falls Church","name":""},
  {"lat":26.01951,"lon":-80.14264,"city":"Hollywood","state":"FL","address":"901 N. Federal Hwy. Hollywood","name":""},
  {"lat":35.4488,"lon":-84.61209,"city":"Athens","state":"TN","address":"928 Decatur Pike","name":""},
  {"lat":29.62721,"lon":-95.74462,"city":"Richmond","state":"TX","address":"11950 Mason Rd. Richmond","name":""},
  {"lat":42.72253,"lon":-88.99895,"city":"Janesville","state":"WI","address":"2017 Humes Rd Janesville","name":""},
  {"lat":29.70431,"lon":-95.59563,"city":"Houston","state":"TX","address":"12260 Bellaire Blvd. Houston","name":""},
  {"lat":43.07853,"lon":-73.78862,"city":"Saratoga Springs","state":"NY","address":"34 Congress St. Saratoga Springs","name":""},
  {"lat":34.06238,"lon":-118.44568,"city":"Los Angeles","state":"CA","address":"1001 Westwood Blvd. Los Angeles","name":""},
  {"lat":35.834,"lon":-81.45967,"city":"Hudson","state":"NC","address":"3369 Hickory Blvd. Hudson","name":""},
  {"lat":42.4614,"lon":-83.10401,"city":"Hazel Park","state":"MI","address":"33 West Nine Mile Rd. Hazel Park","name":""},
  {"lat":34.18422,"lon":-79.39947,"city":"Marion","state":"SC","address":"700 N. Main St Marion","name":""},
  {"lat":37.99515,"lon":-122.30188,"city":"Pinole","state":"CA","address":"1617 Canyon Drive Pinole","name":""},
  {"lat":32.7923,"lon":-117.1,"city":"San Diego","state":"CA","address":"10350 Friars Rd San Diego","name":""},