{"key":"daves_hot_chicken","displayName":"Dave's Hot Chicken","category":"restaurant","useLocationName":false,"locations":[
  {"lat":34.088087,"lon":-118.308968,"city":"Los Angeles","state":"CA","address":"970 N Western Ave","name":""},
  {"lat":34.16462,"lon":-118.374263,"city":"North Hollywood","state":"CA","address":"5166 Lankershim Blvd","name":""},
  {"lat":34.061357,"lon":-118.30013,"city":"Los Angeles","state":"CA","address":"3462 Wilshire Blvd","name":""},
  {"lat":32.797209,"lon":-117.251473,"city":"San Diego","state":"CA","address":"1001 Garnet Ave","name":""},
  {"lat":34.142592,"lon":-118.235627,"city":"Glendale","state":"CA","address":"1350 E Colorado St","name":""},
  {"lat":34.237481,"lon":-118.536467,"city":"Northridge","state":"CA","address":"9205 Reseda Blvd.","name":""},
  {"lat":33.853349,"lon":-118.134043,"city":"Lakewood","state":"CA","address":"5247 Clark Ave","name":""},
  {"lat":36.144753,"lon":-115.295675,"city":"Las Vegas","state":"NV","address":"9040 W Sahara Ave.","name":""},
  {"lat":34.075358,"lon":-118.072592,"city":"Rosemead","state":"CA","address":"3642 Rosemead Blvd.","name":""},
  {"lat":32.915879,"lon":-117.120845,"city":"San Diego","state":"CA","address":"10728 Westview Parkway","name":""},
  {"lat":32.807966,"lon":-116.963997,"city":"El Cajon","state":"CA","address":"110 Fletcher Parkway","name":""},
  {"lat":33.716066,"lon":-117.939936,"city":"Fountain Valley","state":"CA","address":"10832 Warner Ave.","name":""},
  {"lat":34.018349,"lon":-118.406988,"city":"Culver City","state":"CA","address":"10704 Venice Blvd.","name":""},
  {"lat":39.71495,"lon":-104.987802,"city":"Denver","state":"CO","address":"99 S Broadway Suite 119","name":""},
  {"lat":32.948316,"lon":-96.803074,"city":"Dallas","state":"TX","address":"14750 Preston Rd.","name":""},
  {"lat":34.151351,"lon":-118.452098,"city":"Sherman Oaks","state":"CA","address":"14622 Ventura Blvd.","name":""},
  {"lat":33.743716,"lon":-116.217379,"city":"Indio","state":"CA","address":"42213 Jackson St.","name":""},
  {"lat":33.977571,"lon":-118.371967,"city":"Los Angeles","state":"CA","address":"5301 Centinela Ave.","name":""},
  {"lat":45.501373,"lon":-122.806699,"city":"Beaverton","state":"OR","address":"2545 SW Cedar Hills Blvd","name":""},
  {"lat":45.38304,"lon":-122.756946,"city":"Tualatin","state":"OR","address":"7715 SW Nyberg St","name":""},
  {"lat":29.735822,"lon":-95.595086,"city":"Houston","state":"TX","address":"12161 Westheimer Rd.","name":""},
  {"lat":33.703381,"lon":-117.885833,"city":"Santa Ana","state":"CA","address":"3332 S Bristol St","name":""},
  {"lat":33.858674,"lon":-118.086324,"city":"Artesia","state":"CA","address":"11615 South Street","name":""},
  {"lat":34.675736,"lon":-118.148191,"city":"Lancaster","state":"CA","address":"43633 10TH ST W","name":""},
  {"lat":34.067079,"lon":-117.262761,"city":"San Bernardino","state":"CA","address":"1060 E. Harriman Place","name":""},
  {"lat":29.74612,"lon":-95.377681,"city":"Houston","state":"TX","address":"614 Dennis St.","name":""},
  {"lat":39.757797,"lon":-105.007726,"city":"Denver","state":"CO","address":"1615 Platte St","name":""},
  {"lat":33.725648,"lon":-117.007371,"city":"Hemet","state":"CA","address":"1251 S. Sanderson Ave","name":""},
  {"lat":29.717253,"lon":-95.417684,"city":"Houston","state":"TX","address":"2525 Rice Blvd.","name":""},
  {"lat":33.694538,"lon":-117.799132,"city":"Irvine","state":"CA","address":"15463 Culver Dr.","name":""},
  {"lat":33.684582,"lon":-117.17938,"city":"Menifee","state":"CA","address":"30012 Town Center Drive","name":""},
  {"lat":41.714304,"lon":-88.207066,"city":"Naperville","state":"IL","address":"2736 Showplace Dr.","name":""},
  {"lat":33.936056,"lon":-118.048499,"city":"Santa Fe Springs","state":"CA","address":"13321 Florence Avenue","name":""},
  {"lat":34.048287,"lon":-118.239546,"city":"Los Angeles","state":"CA","address":"131 S Central Ave.","name":""},
  {"lat":29.80788,"lon":-95.169084,"city":"Houston","state":"TX","address":"15245 Wallisville Rd.","name":""},
  {"lat":32.681497,"lon":-97.415404,"city":"Fort Worth","state":"TX","address":"4608 Bryant Irvin Rd Suite 430","name":""},
  {"lat":42.305483,"lon":-83.248304,"city":"Dearborn","state":"MI","address":"22208 Michigan Avenue","name":""},
  {"lat":33.816865,"lon":-116.458633,"city":"Cathedral City","state":"CA","address":"31875 Date Palm","name":""},
  {"lat":38.461645,"lon":-122.71695,"city":"Santa Rosa","state":"CA","address":"2240 Mendocino Ave","name":""},
  {"lat":37.723623,"lon":-122.154389,"city":"San Leandro","state":"CA","address":"1495 E. 14th Street","name":""},
  {"lat":33.092186,"lon":-96.806605,"city":"Plano","state":"TX","address":"8315 Preston Road","name":""},
  {"lat":34.176266,"lon":-119.215846,"city":"Port Hueneme","state":"CA","address":"587 W Channel Islands Blvd","name":""},
  {"lat":44.059119,"lon":-123.000415,"city":"Springfield","state":"OR","address":"1572 Mohawk Blvd","name":""},
  {"lat":33.803834,"lon":-117.886689,"city":"Anaheim","state":"CA","address":"2065 E Katella Ave","name":""},
  {"lat":38.596212,"lon":-121.384749,"city":"Sacramento","state":"CA","address":"3409 Arden Way","name":""},
  {"lat":41.947803,"lon":-87.687994,"city":"Chicago","state":"IL","address":"3643 N. Western Ave","name":""},
  {"lat":29.70873,"lon":-95.644219,"city":"Missouri City","state":"TX","address":"6324 S Hwy 6","name":""},
  {"lat":42.589493,"lon":-83.879731,"city":"Howell","state":"MI","address":"3667 E. Grand River Road","name":""},
  {"lat":41.908363,"lon":-87.867544,"city":"Melrose Park","state":"IL","address":"2615 West North Ave","name":""},
  {"lat":45.433566,"lon":-122.563213,"city":"Clackamas","state":"OR","address":"9757 SE Sunnyside Rd","name":""},
  {"lat":35.463928,"lon":-97.508791,"city":"Oklahoma City","state":"OK","address":"208 Johnny Bench Dr.","name":""},
  {"lat":37.599283,"lon":-122.06852,"city":"Union City","state":"CA","address":"32200 Dyer Street","name":""},
  {"lat":44.045713,"lon":-123.079933,"city":"Eugene","state":"OR","address":"1285 Alder St","name":""},
  {"lat":34.215316,"lon":-77.905263,"city":"Wilmington","state":"NC","address":"3530 Oleander Dr","name":""},
  {"lat":30.071251,"lon":-95.509798,"city":"Spring","state":"TX","address":"20740 Kuykendahl Rd.","name":""},
  {"lat":41.485205,"lon":-81.801347,"city":"Lakewood","state":"OH","address":"15012 Detroit Ave","name":""},
  {"lat":32.705784,"lon":-97.359001,"city":"Fort Worth","state":"TX","address":"3105 Cockrell Ave","name":""},
  {"lat":36.300961,"lon":-119.31419,"city":"Visalia","state":"CA","address":"3301 S Mooney Blvd.","name":""},
  {"lat":35.262597,"lon":-120.67773,"city":"San Luis Obispo","state":"CA","address":"297 Madonna Rd","name":""},
  {"lat":40.094769,"lon":-83.086316,"city":"Columbus","state":"OH","address":"3590 West Dublin Granville Rd","name":""},
  {"lat":33.745267,"lon":-117.862282,"city":"TUSTIN","state":"CA","address":"556 E FIRST STREET","name":""},
  {"lat":34.073257,"lon":-117.558329,"city":"Ontario","state":"CA","address":"931 N Milliken Ave.","name":""},
  {"lat":33.782218,"lon":-118.071609,"city":"Seal Beach","state":"CA","address":"12380 Seal Beach Blvd","name":""},
  {"lat":42.562436,"lon":-83.161839,"city":"Troy","state":"MI","address":"624 W Big Beaver Rd","name":""},
  {"lat":33.87248,"lon":-118.352176,"city":"Torrance","state":"CA","address":"17400 Hawthorne Blvd","name":""},
  {"lat":33.479684,"lon":-117.102149,"city":"Temecula","state":"CA","address":"31845 Temecula Parkway, Suite 1","name":""},
  {"lat":33.72672,"lon":-116.402429,"city":"Palm Desert","state":"CA","address":"72363 HWY 111","name":""},
  {"lat":36.114302,"lon":-115.172102,"city":"Las Vegas","state":"NV","address":"3623 Las Vegas Blvd. South #212","name":""},
  {"lat":37.383191,"lon":-121.896576,"city":"San Jose","state":"CA","address":"1085 E Brokaw Road Suite 10","name":""},
  {"lat":37.811324,"lon":-122.266571,"city":"Oakland","state":"CA","address":"2228 Broadway","name":""},
  {"lat":33.859222,"lon":-117.922582,"city":"Fullerton","state":"CA","address":"154 E. Orangethorpe Ave","name":""},
  {"lat":39.999603,"lon":-83.007807,"city":"Columbus","state":"OH","address":"1828 North High St","name":""},
  {"lat":30.61589,"lon":-96.320894,"city":"College Station","state":"TX","address":"1512 Texas Ave. S","name":""},
  {"lat":28.55546,"lon":-81.202608,"city":"Orlando","state":"FL","address":"557 N Alafaya Trail","name":""},
  {"lat":45.529614,"lon":-122.635281,"city":"Portland","state":"OR","address":"2920 NE Sandy Blvd","name":""},
  {"lat":33.023644,"lon":-96.795863,"city":"Plano","state":"TX","address":"1709 Preston Road","name":""},
  {"lat":33.218397,"lon":-96.666479,"city":"McKinney","state":"TX","address":"4040 W University Drive","name":""},
  {"lat":39.774803,"lon":-86.150215,"city":"Indianapolis","state":"IN","address":"530 Massachusetts Ave","name":""},
  {"lat":39.166377,"lon":-86.530322,"city":"Bloomington","state":"IN","address":"314 E Kirkwood Ave","name":""},
  {"lat":42.504692,"lon":-71.132445,"city":"Woburn","state":"MA","address":"300 Mishawum Rd","name":""},
  {"lat":38.645057,"lon":-121.123409,"city":"Folsom","state":"CA","address":"2379 Iron Point Rd. Suite 100","name":""},
  {"lat":42.521134,"lon":-83.048181,"city":"Warren","state":"MI","address":"31101 Mound Rd","name":""},
  {"lat":32.666701,"lon":-97.134634,"city":"Arlington","state":"TX","address":"4908 S Cooper St","name":""},
  {"lat":37.366932,"lon":-122.031614,"city":"Sunnyvale","state":"CA","address":"118 E El Camino Real","name":""},
  {"lat":43.185354,"lon":-88.109647,"city":"Menomonee Falls","state":"WI","address":"N92W16125 Falls Pkwy","name":""},
  {"lat":29.555372,"lon":-95.150803,"city":"Webster","state":"TX","address":"148 El Dorado Blvd.","name":""},
  {"lat":33.111799,"lon":-117.099381,"city":"Escondido","state":"CA","address":"1268 E. Auto Parkway","name":""},
  {"lat":31.509595,"lon":-97.143405,"city":"Waco","state":"TX","address":"4017 Jack Kultgen Fwy","name":""},
  {"lat":39.869492,"lon":-86.141966,"city":"Indianapolis","state":"IN","address":"927 Broad Ripple Ave","name":""},
  {"lat":30.131278,"lon":-95.230665,"city":"New Caney","state":"TX","address":"21690 US-59","name":""},
  {"lat":35.220637,"lon":-80.810203,"city":"Charlotte","state":"NC","address":"1300 The Plaza","name":""},
  {"lat":38.090429,"lon":-122.555113,"city":"Novato","state":"CA","address":"140 Vintage Way, Suite #G-12","name":""},
  {"lat":42.313121,"lon":-71.212987,"city":"Newton","state":"MA","address":"141 Needham Street","name":""},
  {"lat":42.324847,"lon":-71.062013,"city":"Dorchester","state":"MA","address":"10 District Ave. C10","name":""},
  {"lat":33.378491,"lon":-111.806636,"city":"Gilbert","state":"AZ","address":"1567 N. Cooper Rd.","name":""},
  {"lat":44.940059,"lon":-122.986125,"city":"Salem","state":"OR","address":"3817 Center St NE","name":""},
  {"lat":34.074325,"lon":-117.435403,"city":"Fontana","state":"CA","address":"9885 Sierra Blvd","name":""},
  {"lat":28.663258,"lon":-81.383717,"city":"Altamonte Springs","state":"FL","address":"155 Cranes Roost Blvd","name":""},
  {"lat":39.979544,"lon":-76.756372,"city":"York","state":"PA","address":"1189 Loucks Road","name":""},
  {"lat":38.663611,"lon":-121.22942,"city":"Fair Oaks","state":"CA","address":"8810 Madison Ave.","name":""},
  {"lat":38.930629,"lon":-77.032428,"city":"Washington","state":"DC","address":"3301 14th Street Northwest","name":""},
  {"lat":37.394332,"lon":-121.946142,"city":"Santa Clara","state":"CA","address":"3948 Rivermark Plaza","name":""},
  {"lat":28.755735,"lon":-81.353906,"city":"Lake Mary","state":"FL","address":"4405 W. Lake Mary Blvd","name":""},
  {"lat":38.009875,"lon":-84.456297,"city":"Lexington","state":"KY","address":"2630 Richmond Rd","name":""},
  {"lat":40.145093,"lon":-82.957591,"city":"Westerville","state":"OH","address":"803 Polaris Parkway","name":""},
  {"lat":40.765764,"lon":-73.983196,"city":"New York","state":"NY","address":"944 8th Avenue","name":""},
  {"lat":43.636086,"lon":-116.353777,"city":"Meridian","state":"ID","address":"3450 N Eagle Road","name":""},
  {"lat":32.919013,"lon":-96.969506,"city":"Irving","state":"TX","address":"8001 Bryson Rd.","name":""},
  {"lat":35.309595,"lon":-80.747929,"city":"CHARLOTTE","state":"NC","address":"8932 J M KEYNES DR.","name":""},
  {"lat":33.206984,"lon":-117.28435,"city":"Oceanside","state":"CA","address":"4201 Oceanside Blvd Suite A","name":""},
  {"lat":40.622321,"lon":-74.028021,"city":"Brooklyn","state":"NY","address":"418 86th Street","name":""},
  {"lat":40.564892,"lon":-105.076436,"city":"Fort Collins","state":"CO","address":"1700 S. College Ave","name":""},
  {"lat":41.261875,"lon":-95.980019,"city":"Omaha","state":"NE","address":"335 N Saddle Creek","name":""},
  {"lat":43.048375,"lon":-87.905322,"city":"Milwaukee","state":"WI","address":"544 E. Ogden Ave. Unit B102","name":""},
  {"lat":40.889444,"lon":-74.25087,"city":"Wayne","state":"NJ","address":"57 Route 23","name":""},
  {"lat":38.993451,"lon":-104.804213,"city":"Colorado Springs","state":"CO","address":"1286 Interquest Pkwy. Ste 190","name":""},
  {"lat":37.70745,"lon":-121.87288,"city":"Dublin","state":"CA","address":"4550-A Tassajara Rd.","name":""},
  {"lat":33.60709,"lon":-117.689094,"city":"Mission Viejo","state":"CA","address":"24440 Alicia Pkwy Ste A","name":""},
  {"lat":26.195647,"lon":-98.262835,"city":"McAllen","state":"TX","address":"3620 W Expressway 83 Unit 150","name":""},
  {"lat":32.22206,"lon":-110.872545,"city":"Tucson","state":"AZ","address":"5615 E. Broadway Blvd","name":""},
  {"lat":28.055485,"lon":-82.430265,"city":"Tampa","state":"FL","address":"2540 E. Fowler Ave","name":""},
  {"lat":43.132263,"lon":-89.30096,"city":"Madison","state":"WI","address":"4814 Annamark Drive","name":""},
  {"lat":40.692623,"lon":-73.988455,"city":"New York","state":"NY","address":"345 Adam Street Brooklyn","name":""},
  {"lat":33.791543,"lon":-118.139529,"city":"Long Beach","state":"CA","address":"4680 E Los Coyotes Diagonal","name":""},
  {"lat":29.445567,"lon":-98.672154,"city":"San Antonio","state":"TX","address":"9602 Highway 151 Suite 108","name":""},
  {"lat":38.964609,"lon":-94.666683,"city":"Overland Park","state":"KS","address":"9097 Metcalf Ave","name":""},
  {"lat":42.574531,"lon":-87.886752,"city":"Kenosha","state":"WI","address":"6610 Green Bay Road","name":""},
  {"lat":39.052515,"lon":-94.589538,"city":"Kansas City","state":"MO","address":"4121 Broadway Blvd.","name":""},
  {"lat":34.069408,"lon":-117.889776,"city":"West Covina","state":"CA","address":"222 S. Citrus St.","name":""},
  {"lat":40.242045,"lon":-76.991491,"city":"Mechanicsburg","state":"PA","address":"6040 Carlisle Pike","name":""},
  {"lat":40.272371,"lon":-111.685105,"city":"Orem","state":"UT","address":"376 E. University Pkwy","name":""},
  {"lat":36.23893,"lon":-115.166984,"city":"North Las Vegas","state":"NV","address":"1735 W. Craig Road, Suite 1","name":""},
  {"lat":41.521013,"lon":-87.470516,"city":"Schererville","state":"IN","address":"69-A US Hwy 41 Suite #300","name":""},
  {"lat":41.692664,"lon":-86.234819,"city":"South Bend","state":"IN","address":"1124 E Angela blvd Suite #101","name":""},
  {"lat":34.140028,"lon":-118.010512,"city":"Monrovia","state":"CA","address":"502 W. Huntington Dr.","name":""},
  {"lat":25.949042,"lon":-80.145704,"city":"Aventura","state":"FL","address":"18717 Biscayne Blvd.","name":""},
  {"lat":41.447112,"lon":-81.496856,"city":"Warrensville Heights","state":"OH","address":"4025 Richmond Rd. Suite E","name":""},
  {"lat":38.922741,"lon":-77.237374,"city":"Vienna","state":"VA","address":"8397 Leesburg Pike Ste. 35","name":""},
  {"lat":39.194106,"lon":-76.612761,"city":"Glen Burnie","state":"MD","address":"6643C Ritchie Hwy","name":""},
  {"lat":44.967364,"lon":-93.441934,"city":"Minnetonka","state":"MN","address":"1805 Plymouth Rd.","name":""},
  {"lat":34.1085,"lon":-117.197038,"city":"Highland","state":"CA","address":"27876 Greenspot Rd","name":""},
  {"lat":37.900715,"lon":-122.300011,"city":"El Cerrito","state":"CA","address":"5010 El Cerrito Plaza","name":""},
  {"lat":42.677434,"lon":-73.826996,"city":"Albany","state":"NY","address":"1206 Western Avenue","name":""},
  {"lat":29.350507,"lon":-98.449165,"city":"San Antonio","state":"TX","address":"7511 S New Braunfels Ave","name":""},
  {"lat":39.410138,"lon":-76.768063,"city":"Owings Mills","state":"MD","address":"Address: 9902 Reisterstown Rd.","name":""},
  {"lat":34.191191,"lon":-118.329576,"city":"Burbank","state":"CA","address":"1781 N. Victory Place","name":""},
  {"lat":25.800415,"lon":-80.198899,"city":"Miami","state":"FL","address":"2431 NW 2nd Ave.","name":""},
  {"lat":33.990652,"lon":-80.974677,"city":"Columbia","state":"SC","address":"4601 Devine St","name":""},
  {"lat":26.262385,"lon":-98.171352,"city":"Edinburg","state":"TX","address":"121 E. Trenton Road","name":""},
  {"lat":40.77798,"lon":-73.954976,"city":"New York","state":"NY","address":"1498 3rd Ave","name":""},
  {"lat":41.848213,"lon":-88.340855,"city":"Batavia","state":"IL","address":"125 S Randall Rd","name":""},
  {"lat":40.78653,"lon":-74.045802,"city":"Secaucus","state":"NJ","address":"700 Plaza Dr.","name":""},
  {"lat":32.699769,"lon":-114.601057,"city":"Yuma","state":"AZ","address":"1525 S Yuma Palms Pkwy.","name":""},
  {"lat":39.195849,"lon":-76.812379,"city":"Columbia","state":"MD","address":"6131 Columbia Crossing","name":""},
  {"lat":43.089011,"lon":-70.792298,"city":"Portsmouth","state":"NH","address":"1600 Woodbury ave","name":""},
  {"lat":34.921259,"lon":-120.433047,"city":"Santa Maria","state":"CA","address":"232 Betteravia Rd","name":""},
  {"lat":33.63992,"lon":-112.066966,"city":"Phoenix","state":"AZ","address":"475 East Bell Rd.","name":""},
  {"lat":42.154773,"lon":-88.334746,"city":"Algonquin","state":"IL","address":"1493 S. Randall Rd.","name":""},
  {"lat":42.964632,"lon":-74.187991,"city":"Amsterdam","state":"NY","address":"4930 State Highway 30","name":""},
  {"lat":40.09168,"lon":-88.246232,"city":"Champaign","state":"IL","address":"2009 S. Neil St","name":""},
  {"lat":42.625012,"lon":-71.360638,"city":"Chelmsford","state":"MA","address":"40 Drum Hill Rd","name":""},
  {"lat":42.220348,"lon":-71.030456,"city":"Braintree","state":"MA","address":"30 Forbes Road unit D","name":""},
  {"lat":35.966229,"lon":-78.531901,"city":"Wake Forest","state":"NC","address":"529 Dr. Calvin Jones HWY","name":""},
  {"lat":44.477873,"lon":-88.073779,"city":"Ashwaubenon","state":"WI","address":"2674 S. Oneida St.","name":""},
  {"lat":35.306988,"lon":-119.092392,"city":"Bakersfield","state":"CA","address":"5291 Gosford Road","name":""},
  {"lat":40.725731,"lon":-111.869021,"city":"Salt Lake City","state":"UT","address":"777 East 2100 South","name":""},
  {"lat":32.771169,"lon":-117.141963,"city":"San Diego","state":"CA","address":"2075 Camino De La Reina","name":""},
  {"lat":40.075536,"lon":-75.032286,"city":"Philadelphia","state":"PA","address":"9173 Roosevelt Blvd","name":""},
  {"lat":42.735723,"lon":-84.482453,"city":"East Lansing","state":"MI","address":"194 Albert Avenue","name":""},
  {"lat":40.228373,"lon":-74.044722,"city":"Ocean Township","state":"NJ","address":"2311 State Route 66 Suite 5","name":""},
  {"lat":42.301746,"lon":-71.401439,"city":"Framingham","state":"MA","address":"341 Cochituate Rd","name":""},
  {"lat":43.299351,"lon":-73.70463,"city":"Queensbury","state":"NY","address":"756 Upper Glen St.","name":""},
  {"lat":40.680363,"lon":-73.952844,"city":"Brooklyn","state":"NY","address":"1192 Fulton Street","name":""},
  {"lat":26.008937,"lon":-80.357469,"city":"Pembroke Pines","state":"FL","address":"15855 Pines Blvd.","name":""},
  {"lat":34.82168,"lon":-82.28621,"city":"Greenville","state":"SC","address":"1224 Woodruff Rd","name":""},
  {"lat":43.153128,"lon":-76.124521,"city":"Cicero","state":"NY","address":"7915 Brewerton Rd","name":""},
  {"lat":42.351376,"lon":-71.065745,"city":"Boston","state":"MA","address":"123 Stuart St.","name":""},
  {"lat":35.651839,"lon":-97.449281,"city":"Edmond","state":"OK","address":"2404 East 2nd St.","name":""},
  {"lat":35.660883,"lon":-78.849912,"city":"Holly Springs","state":"NC","address":"114 Grand Hill Place","name":""},
  {"lat":40.621502,"lon":-111.8648,"city":"Midvale","state":"UT","address":"940 Fort Union Blvd.","name":""},
  {"lat":47.614246,"lon":-122.316582,"city":"Seattle","state":"WA","address":"1200 E. Pike Street","name":""},
  {"lat":43.088868,"lon":-88.065172,"city":"Wauwatosa","state":"WI","address":"12345 Capitol Drive","name":""},
  {"lat":38.764841,"lon":-77.152515,"city":"Franconia","state":"VA","address":"7015 E Manchester Blvd.","name":""},
  {"lat":42.499211,"lon":-83.284402,"city":"Southfield","state":"MI","address":"28674 Telegraph Rd.","name":""},
  {"lat":47.215322,"lon":-122.468013,"city":"Tacoma","state":"WA","address":"4502 S. Steele St.","name":""},
  {"lat":40.809562,"lon":-73.950109,"city":"New York","state":"NY","address":"254 West 125th Street","name":""},
  {"lat":31.691651,"lon":-106.264285,"city":"El Paso","state":"TX","address":"12261 Eastlake Blvd","name":""},
  {"lat":42.46962,"lon":-71.024761,"city":"Saugus","state":"MA","address":"890 Broadway","name":""},
  {"lat":43.000045,"lon":-78.822982,"city":"Tonawanda","state":"NY","address":"1660 Niagara Falls Blvd.","name":""},
  {"lat":27.965733,"lon":-82.504894,"city":"Tampa","state":"FL","address":"2961 N Dale Mabry Hwy","name":""},
  {"lat":33.377033,"lon":-112.179932,"city":"Laveen","state":"AZ","address":"7616 S. 56th Ave","name":""},
  {"lat":32.94573,"lon":-96.697252,"city":"Richardson","state":"TX","address":"1545 E Belt Line Rd","name":""},
  {"lat":37.94474,"lon":-122.056004,"city":"Pleasant Hill","state":"CA","address":"2390 Monument Blvd Suite D","name":""},
  {"lat":32.327625,"lon":-111.048822,"city":"Marana","state":"AZ","address":"3915 W. Costco Dr.","name":""},
  {"lat":39.88872,"lon":-105.068903,"city":"Westminster","state":"CO","address":"6515 W. 104th Ave #100","name":""},
  {"lat":32.836697,"lon":-97.185725,"city":"Hurst","state":"TX","address":"1410 Precinct Line Rd","name":""},
  {"lat":45.750484,"lon":-108.616496,"city":"Billings","state":"MT","address":"1020 Shiloh Crossing Blvd.","name":""},
  {"lat":42.629057,"lon":-82.992447,"city":"Shelby Township","state":"MI","address":"13993 Hall Rd.","name":""},
  {"lat":38.842347,"lon":-77.275962,"city":"Fairfax","state":"VA","address":"9670 Main St.","name":""},
  {"lat":31.884638,"lon":-106.575251,"city":"El Paso","state":"TX","address":"7729 Paseo del Norte Blvd","name":""},
  {"lat":42.344721,"lon":-71.095924,"city":"Boston","state":"MA","address":"1260 Boylston St.","name":""},
  {"lat":33.65172,"lon":-84.008357,"city":"Conyers","state":"GA","address":"1447 Hwy 138 SE","name":""},
  {"lat":44.918233,"lon":-93.183157,"city":"St. Paul","state":"MN","address":"1959 Ford Parkway","name":""},
  {"lat":44.732953,"lon":-93.221955,"city":"Apple Valley","state":"MN","address":"7720 149th St. W","name":""},
  {"lat":45.679277,"lon":-122.667411,"city":"Vancouver","state":"WA","address":"7904 NE 6th Avenue","name":""},
  {"lat":42.961004,"lon":-71.439188,"city":"Manchester","state":"NH","address":"1071 South Willow Street","name":""},
  {"lat":40.755388,"lon":-74.166235,"city":"Kearny","state":"NJ","address":"175 Passaic Street","name":""},
  {"lat":38.643891,"lon":-76.893646,"city":"Waldorf","state":"MD","address":"2471 Crain Highway","name":""},
  {"lat":39.798243,"lon":-104.772042,"city":"Denver","state":"CO","address":"NEC 56th Ave. & Tower Rd.","name":""},
  {"lat":35.478292,"lon":-97.753242,"city":"Yukon","state":"OK","address":"12708 NW 10th St","name":""},
  {"lat":35.604163,"lon":-97.532825,"city":"Oklahoma City","state":"OK","address":"13220 Pawnee Drive","name":""},
  {"lat":36.096558,"lon":-79.818089,"city":"Greensboro","state":"NC","address":"1949 Battleground Ave","name":""},
  {"lat":34.080411,"lon":-117.719606,"city":"Claremont","state":"CA","address":"865 South Indian Hill Blvd.","name":""},
  {"lat":40.747138,"lon":-73.616964,"city":"Carle Place","state":"NY","address":"207 Glen Cove Rd","name":""},
  {"lat":41.70157,"lon":-83.653284,"city":"Toledo","state":"OH","address":"5231 Monroe St","name":""},
  {"lat":37.961146,"lon":-121.748746,"city":"Brentwood","state":"CA","address":"5401 Lone Tree Way","name":""},
  {"lat":39.916131,"lon":-75.009635,"city":"Cherry Hill","state":"NJ","address":"Address: 22 NJ-70","name":""},
  {"lat":40.861339,"lon":-81.422103,"city":"Canton","state":"OH","address":"5440 Whipple Avenue","name":""},
  {"lat":39.055334,"lon":-76.970022,"city":"Silver Spring","state":"MD","address":"12255 Prosperity Drive","name":""},
  {"lat":40.691154,"lon":-74.297888,"city":"Union","state":"NJ","address":"2401 Route 22","name":""},
  {"lat":40.14296,"lon":-75.118735,"city":"Willow Grove","state":"PA","address":"122 Park Ave","name":""},
  {"lat":39.595417,"lon":-104.890376,"city":"Greenwood Village","state":"CO","address":"8511 E. Arapahoe Rd.","name":""},
  {"lat":33.990161,"lon":-117.924671,"city":"Rowland Heights","state":"CA","address":"17490 Colima Road","name":""},
  {"lat":46.854915,"lon":-96.859626,"city":"Fargo","state":"ND","address":"4445 17th Ave","name":""},
  {"lat":36.824908,"lon":-76.408909,"city":"Chesapeake","state":"VA","address":"2401 Taylor Road","name":""},
  {"lat":43.61338,"lon":-116.591511,"city":"Nampa","state":"ID","address":"16365 N. Marketplace Blvd.","name":""},
  {"lat":42.238349,"lon":-71.179151,"city":"Dedham","state":"MA","address":"797 Providence Hwy","name":""},
  {"lat":41.042574,"lon":-73.799725,"city":"White Plains","state":"NY","address":"489 Tarrytown Rd","name":""},
  {"lat":36.062508,"lon":-115.242058,"city":"Las Vegas","state":"NV","address":"6930 S. Rainbow Blvd.","name":""},
  {"lat":38.849688,"lon":-77.11793,"city":"Bailey's Crossroads","state":"VA","address":"3556 E S. Jefferson St.","name":""},
  {"lat":33.045251,"lon":-97.01198,"city":"Lewisville","state":"TX","address":"724 W Main St","name":""},
  {"lat":33.982078,"lon":-117.705925,"city":"Chino Hills","state":"CA","address":"4505 Chino Hills Pkwy E","name":""},
  {"lat":39.951848,"lon":-75.169878,"city":"Philadelphia","state":"PA","address":"1731 Chestnut Street 1","name":""},
  {"lat":44.462905,"lon":-73.18155,"city":"South Burlington","state":"VT","address":"225 Dorset St.","name":""},
  {"lat":33.519318,"lon":-101.954922,"city":"Lubbock","state":"TX","address":"6309 82nd St","name":""},
  {"lat":42.406121,"lon":-71.082786,"city":"Medford","state":"MA","address":"616 Fellsway","name":""},
  {"lat":34.969439,"lon":-80.991706,"city":"Rock Hill","state":"SC","address":"2476 Cherry Road","name":""},
  {"lat":42.0911,"lon":-71.424022,"city":"Franklin","state":"MA","address":"648 Old West Central St.","name":""},
  {"lat":37.292331,"lon":-121.99422,"city":"San Jose","state":"CA","address":"5251 Prospect Road","name":""},
  {"lat":33.448527,"lon":-86.791077,"city":"Vestavia Hills","state":"AL","address":"632 Montgomery Hwy","name":""},
  {"lat":40.739574,"lon":-73.785637,"city":"Fresh Meadows","state":"NY","address":"61-45 188th St","name":""},
  {"lat":34.23321,"lon":-119.178177,"city":"Oxnard","state":"CA","address":"341 W. Esplanade Dr.","name":""},
  {"lat":43.087741,"lon":-77.611967,"city":"Rochester","state":"NY","address":"942 Jefferson Rd.","name":""},
  {"lat":45.197085,"lon":-93.356682,"city":"Coon Rapids","state":"MN","address":"3574 Main St. NW","name":""},
  {"lat":29.624413,"lon":-82.375855,"city":"Gainesville","state":"FL","address":"3524 SW Archer Rd, Ste 110","name":""},
  {"lat":26.369347,"lon":-80.202517,"city":"Boca Raton","state":"FL","address":"20642 SR-7 N","name":""},
  {"lat":32.044976,"lon":-81.070981,"city":"Savannah","state":"GA","address":"1800 E. Victory Dr","name":""},
  {"lat":40.454675,"lon":-74.399344,"city":"East Brunswick","state":"NJ","address":"326 NJ-18","name":""},
  {"lat":33.927207,"lon":-84.378456,"city":"Sandy Springs","state":"GA","address":"6309 Roswell Road NE","name":""},
  {"lat":41.575555,"lon":-90.529253,"city":"Davenport","state":"IA","address":"3022 E 53rd St","name":""},
  {"lat":34.750824,"lon":-86.754476,"city":"Madison","state":"AL","address":"8135 Hwy 72","name":""},
  {"lat":33.464743,"lon":-112.40103,"city":"Goodyear","state":"AZ","address":"W. McDowell Rd.","name":""},
  {"lat":26.528797,"lon":-80.089896,"city":"Boynton Beach","state":"FL","address":"320 N Congress Ave","name":""},
  {"lat":36.808029,"lon":-119.779495,"city":"Fresno","state":"CA","address":"481 E. Shaw Ave","name":""},
  {"lat":40.585446,"lon":-122.355671,"city":"Redding","state":"CA","address":"917 Dana Dr","name":""},
  {"lat":42.282626,"lon":-71.80826,"city":"Worcester","state":"MA","address":"41 Park Ave.","name":""},
  {"lat":36.109708,"lon":-115.170108,"city":"Las Vegas","state":"NV","address":"3663 S Las Vegas Blvd","name":""},
  {"lat":34.054837,"lon":-83.991051,"city":"Buford","state":"GA","address":"2925 Buford Dr.","name":""},
  {"lat":41.614843,"lon":-87.852724,"city":"Orland Park","state":"IL","address":"15139 S. LaGrange Rd.","name":""},
  {"lat":26.714162,"lon":-80.094392,"city":"West Palm Beach","state":"FL","address":"2089 Palm Beach Lakes Blvd","name":""},
  {"lat":37.651227,"lon":-77.613557,"city":"Richmond","state":"VA","address":"11525 W. Broad St","name":""},
  {"lat":35.037078,"lon":-85.151359,"city":"Chattanooga","state":"TN","address":"2260 Gunbarrel Rd","name":""},
  {"lat":45.509933,"lon":-122.434064,"city":"Gresham","state":"OR","address":"353 NW Burnside Rd","name":""},
  {"lat":41.613916,"lon":-72.900653,"city":"Southington","state":"CT","address":"99 Executive Blvd S","name":""},
  {"lat":32.811299,"lon":-96.618749,"city":"Mesquite","state":"TX","address":"1505 N Town E. Blvd","name":""},
  {"lat":38.789855,"lon":-121.283938,"city":"Roseville","state":"CA","address":"10325 Fairway Drive Suite 150","name":""},
  {"lat":40.511477,"lon":-88.95186,"city":"Normal","state":"IL","address":"1700 E College Ave","name":""},
  {"lat":39.533125,"lon":-119.717763,"city":"Sparks","state":"NV","address":"1565 E Lincoln Way","name":""},
  {"lat":34.000058,"lon":-84.591531,"city":"Kennesaw","state":"GA","address":"1985 Cobb Pkwy NW","name":""},
  {"lat":47.713544,"lon":-117.410855,"city":"Spokane","state":"WA","address":"6100 N Division St","name":""},
  {"lat":39.734106,"lon":-75.005727,"city":"Sicklerville","state":"NJ","address":"610 Berlin â€“ Cross Keys Rd","name":""},
  {"lat":40.317226,"lon":-76.423812,"city":"Lebanon","state":"PA","address":"1501 Quentin Rd","name":""},
  {"lat":44.98692,"lon":-93.275435,"city":"Minneapolis","state":"MN","address":"548 Washington Ave N","name":""},
  {"lat":30.216891,"lon":-95.567423,"city":"Magnolia","state":"TX","address":"32822 FM 2978","name":""},
  {"lat":30.261899,"lon":-81.528657,"city":"Jacksonville","state":"FL","address":"10261 River Marsh Dr","name":""},
  {"lat":36.000473,"lon":-115.105581,"city":"Henderson","state":"NV","address":"10520 S Eastern Ave","name":""},
  {"lat":41.627278,"lon":-81.431461,"city":"Willoughby","state":"OH","address":"36099 Euclid Ave","name":""},
  {"lat":40.508253,"lon":-111.990676,"city":"South Riverton","state":"UT","address":"4182 West 13400","name":""},
  {"lat":33.230309,"lon":-97.167311,"city":"Denton","state":"TX","address":"2710 W University Dr","name":""},
  {"lat":28.187611,"lon":-82.347414,"city":"Wesley Chapel","state":"FL","address":"28358 Willet Way","name":""},
  {"lat":41.893009,"lon":-87.633884,"city":"Chicago","state":"IL","address":"169 W Ontario St","name":""},
  {"lat":39.76459,"lon":-89.701266,"city":"Springfield","state":"IL","address":"2401 Wabash Ave","name":""},
  {"lat":38.719223,"lon":-104.713019,"city":"Fountain","state":"CO","address":"6235 Sawcut Point","name":""},
  {"lat":38.326202,"lon":-85.747407,"city":"Jeffersonville","state":"IN","address":"4125 Town Center","name":""},
  {"lat":44.272767,"lon":-88.46862,"city":"Appleton","state":"WI","address":"4215 W. Wisconsin Ave.","name":""},
  {"lat":39.545589,"lon":-105.003693,"city":"Highlands Ranch","state":"CO","address":"1601 Mayberry Dr","name":""},
  {"lat":41.56883,"lon":-87.635388,"city":"Homewood","state":"IL","address":"17629-31 S Halsted St","name":""},
  {"lat":32.541233,"lon":-84.950894,"city":"Columbus","state":"GA","address":"5279 Whittlesey Blvd","name":""},
  {"lat":41.246051,"lon":-73.02628,"city":"Milford","state":"CT","address":"1611 Boston Post Rd","name":""},
  {"lat":40.152009,"lon":-105.084218,"city":"Longmont","state":"CO","address":"725 Harvest Moon Dr","name":""},
  {"lat":42.977144,"lon":-88.109086,"city":"New Berlin","state":"WI","address":"3721 S Moorland Rd","name":""},
  {"lat":34.068556,"lon":-84.294283,"city":"Alpharetta","state":"GA","address":"11760 Haynes Bridge Rd","name":""},
  {"lat":38.912266,"lon":-94.762323,"city":"Olathe","state":"KS","address":"15139 W 119th St","name":""},
  {"lat":41.23527,"lon":-96.195445,"city":"Omaha","state":"NE","address":"2615 S 180th St","name":""},
  {"lat":41.59727,"lon":-88.017511,"city":"Lockport","state":"IL","address":"16439 W 159th St","name":""},
  {"lat":41.066896,"lon":-73.545379,"city":"Stamford","state":"CT","address":"2135-2715 Summer St","name":""},
  {"lat":37.69426,"lon":-121.746214,"city":"Livermore","state":"CA","address":"4213 First St","name":""},
  {"lat":40.448464,"lon":-75.36204,"city":"Quakertown","state":"PA","address":"270 N West End Blvd","name":""},
  {"lat":39.171071,"lon":-75.519592,"city":"Dover","state":"DE","address":"318 North Dupont Highway","name":""},
  {"lat":41.519717,"lon":-71.299186,"city":"Middletown","state":"RI","address":"619 W Main Rd","name":""},
  {"lat":41.65503,"lon":-72.725095,"city":"Newington","state":"CT","address":"3384 Berlin Turnpike","name":""},
  {"lat":40.920165,"lon":-74.065904,"city":"Paramus","state":"NJ","address":"65 Route 4","name":""},
  {"lat":42.096109,"lon":-75.983268,"city":"Vestal","state":"NY","address":"3714 Vestal Pkwy E","name":""},
  {"lat":37.248665,"lon":-121.803106,"city":"San Jose","state":"CA","address":"5670 Cottle Rd","name":""},
  {"lat":28.265851,"lon":-80.727459,"city":"Rockledge","state":"FL","address":"2105 Viera Blvd Suite 101","name":""},
  {"lat":38.9268,"lon":-94.410875,"city":"Lee's Summit","state":"MO","address":"1808a NW Chipman Rd","name":""},
  {"lat":26.260608,"lon":-80.250863,"city":"Coral Springs","state":"FL","address":"2558 & 2560 N. University Dr","name":""},
  {"lat":41.661136,"lon":-73.931197,"city":"Poughkeepsie","state":"NY","address":"2521 South Rd","name":""},
  {"lat":42.774153,"lon":-73.892854,"city":"Schenectady","state":"NY","address":"412 Balltown Rd.","name":""},
  {"lat":28.333517,"lon":-81.529451,"city":"Kissimmee","state":"FL","address":"6113 W Irlo Bronson Memorial Hwy Ste 101","name":""},
  {"lat":28.194879,"lon":-82.593318,"city":"Odessa","state":"FL","address":"13446 Pine Gap Spur","name":""},
  {"lat":39.013601,"lon":-84.638555,"city":"Florence","state":"KY","address":"4960 Houston Rd.","name":""},
  {"lat":30.39037,"lon":-91.163988,"city":"Baton Rouge","state":"LA","address":"640 Arlington Creek Centre Dr","name":""},
  {"lat":38.667855,"lon":-90.601234,"city":"Chesterfield","state":"MO","address":"17304 Chesterfield Airport Rd","name":""},
  {"lat":26.260715,"lon":-80.098929,"city":"Pompano Beach","state":"FL","address":"2390 N Federal Hwy","name":""},
  {"lat":43.319724,"lon":-87.925144,"city":"Grafton","state":"WI","address":"1210 N. Port Washington Rd","name":""},
  {"lat":43.197502,"lon":-77.583413,"city":"Rochester","state":"NY","address":"1267 E Ridge Rd","name":""},
  {"lat":33.306761,"lon":-111.890137,"city":"Chandler","state":"AZ","address":"2760 W. Chandler Blvd","name":""},
  {"lat":32.915232,"lon":-97.3099,"city":"Fort Worth","state":"TX","address":"3240 Tracewood Way","name":""},
  {"lat":41.464047,"lon":-75.644367,"city":"Dickson City","state":"PA","address":"700 Commerce Blvd","name":""},
  {"lat":42.787643,"lon":-78.812558,"city":"Buffalo","state":"NY","address":"3560 Mckinley Parkway","name":""},
  {"lat":39.158508,"lon":-84.427401,"city":"Cincinnati","state":"OH","address":"3208 Vandercar Way","name":""},
  {"lat":43.573247,"lon":-89.779491,"city":"Baraboo","state":"WI","address":"1300 Great Wolf Dr","name":""},
  {"lat":35.821632,"lon":-78.621324,"city":"Raleigh","state":"NC","address":"2920 Sherman Oak Place","name":""},
  {"lat":43.998653,"lon":-92.463351,"city":"Rochester","state":"MN","address":"1620 Broadway Ave S","name":""},
  {"lat":34.1888,"lon":-79.80705,"city":"Florence","state":"SC","address":"1931 West Palmetto St","name":""},
  {"lat":40.06011,"lon":-74.143218,"city":"Brick","state":"NJ","address":"744 NJ-70 W","name":""},
  {"lat":42.673566,"lon":-83.22135,"city":"Auburn Hills","state":"MI","address":"2065 N. Squirrel Rd","name":""},
  {"lat":30.632483,"lon":-97.69846,"city":"Georgetown","state":"TX","address":"1039 W. University Ave","name":""},
  {"lat":35.209202,"lon":-106.653032,"city":"Albuquerque","state":"NM","address":"3703 Ellison Rd. NW","name":""},
  {"lat":39.937987,"lon":-77.63369,"city":"Chambersburg","state":"PA","address":"520 Gateway Ave.","name":""},
  {"lat":40.23107,"lon":-74.675792,"city":"Hamilton","state":"NJ","address":"770 Route 33","name":""},
  {"lat":39.046705,"lon":-77.113227,"city":"Rockville","state":"MD","address":"11564 Rockville Pike","name":""},
  {"lat":38.895373,"lon":-104.719203,"city":"Colorado Springs","state":"CO","address":"5860 Barnes Rd","name":""},
  {"lat":41.751137,"lon":-111.834847,"city":"Logan","state":"UT","address":"1051 North Main St","name":""},
  {"lat":35.347529,"lon":-80.858622,"city":"Charlotte","state":"NC","address":"9711 Northlake Centre Pkwy","name":""},
  {"lat":42.14027,"lon":-83.225066,"city":"Woodhaven","state":"MI","address":"23071 Allen Road","name":""},
  {"lat":36.084843,"lon":-115.14927,"city":"Las Vegas","state":"NV","address":"5757 Wayne Newton Blvd","name":""},
  {"lat":32.361789,"lon":-86.16268,"city":"Montgomery","state":"AL","address":"7413 Eastchase Pkwy","name":""},
  {"lat":41.369296,"lon":-72.917779,"city":"Hamden","state":"CT","address":"2165 Dixwell Ave","name":""},
  {"lat":35.580752,"lon":-77.377892,"city":"Greenville","state":"NC","address":"114 Red Banks Road","name":""},
  {"lat":39.496633,"lon":-76.655101,"city":"Hunt Valley","state":"MD","address":"114 Shawan Rd","name":""},
  {"lat":47.673619,"lon":-122.120455,"city":"Redmond","state":"WA","address":"16502 Redmond Way","name":""},
  {"lat":38.01107,"lon":-78.498369,"city":"Charlottesville","state":"VA","address":"435 Merchant Walk Sq.","name":""},
  {"lat":47.890376,"lon":-97.065722,"city":"Grand Forks","state":"ND","address":"2650 32nd Ave S","name":""},
  {"lat":35.092203,"lon":-92.413838,"city":"Conway","state":"AR","address":"1120 E Oak St Oak","name":""},
  {"lat":37.995664,"lon":-122.286542,"city":"Pinole","state":"CA","address":"2714 Pinole Valley Rd","name":""},
  {"lat":37.516347,"lon":-120.879219,"city":"Turlock","state":"CA","address":"2741 Countryside Dr","name":""},
  {"lat":27.791669,"lon":-82.32902,"city":"Riverview","state":"FL","address":"10787 Big Bend Rd.","name":""},
  {"lat":28.475387,"lon":-81.450794,"city":"Orlando","state":"FL","address":"4969 International Dr","name":""},
  {"lat":38.602056,"lon":-90.443611,"city":"Des Peres","state":"MO","address":"1052 N Ballas Rd","name":""},
  {"lat":36.056278,"lon":-96.00373,"city":"Tulsa","state":"OK","address":"7454 S. Olympia Ave","name":""},
  {"lat":38.249998,"lon":-85.629387,"city":"Louisville","state":"KY","address":"4600 Shelbyville Rd","name":""},
  {"lat":36.76652,"lon":-76.251301,"city":"Chesapeake","state":"VA","address":"100 Coastal Way","name":""},
  {"lat":46.890333,"lon":-114.039823,"city":"Missoula","state":"MT","address":"2755 N. Reserve St.","name":""},
  {"lat":41.711373,"lon":-93.580439,"city":"Ankeny","state":"IA","address":"1805 SE Delaware Ave","name":""}]}