{"key":"even_hotels","displayName":"EVEN Hotels","category":"hotels","useLocationName":false,"locations":[
  {"lat":40.751652,"lon":-73.972491,"city":"New York","state":"NY","address":"221 East 44th Street","name":""},
  {"lat":44.060987,"lon":-123.078846,"city":"Eugene","state":"OR","address":"2133 Centennial Plaza","name":""},
  {"lat":40.748899,"lon":-73.942155,"city":"Long Island City","state":"NY","address":"42-59 Crescent Street","name":""},
  {"lat":45.76123,"lon":-111.15997,"city":"Belgrade","state":"MT","address":"406 Belgrade Boulevard","name":""},
  {"lat":42.560834,"lon":-83.154159,"city":"Troy","state":"MI","address":"575 W Big Beaver Rd","name":""},
  {"lat":27.385955,"lon":-82.445913,"city":"Sarasota","state":"FL","address":"6231 Lake Osprey Drive","name":""},
  {"lat":40.439027,"lon":-79.998131,"city":"Pittsburgh","state":"PA","address":"425 Forbes Avenue","name":""},
  {"lat":47.624024,"lon":-122.334842,"city":"Seattle","state":"WA","address":"527 Fairview Avenue N","name":""},
  {"lat":28.454157,"lon":-81.331112,"city":"Orlando","state":"FL","address":"4315 McCoy Road","name":""},
  {"lat":34.06789,"lon":-84.28138,"city":"Alpharetta","state":"GA","address":"2715 Old Milton Parkway","name":""},
  {"lat":42.23848,"lon":-83.742628,"city":"Ann Arbor","state":"MI","address":"600 Briarwood Circle","name":""},
  {"lat":41.5559,"lon":-87.7913,"city":"Tinley Park","state":"IL","address":"18501 Convention Center Drive","name":""},
  {"lat":40.753288,"lon":-73.99401,"city":"New York","state":"NY","address":"321 West 35th Street","name":""},
  {"lat":30.432037,"lon":-97.698312,"city":"Austin","state":"TX","address":"13205 Burnet Road","name":""},
  {"lat":39.06043,"lon":-77.12289,"city":"Rockville","state":"MD","address":"1775 Rockville Pike","name":""},
  {"lat":45.52063,"lon":-122.800553,"city":"Portland","state":"OR","address":"11784 NW Cedar Falls Dr","name":""},
  {"lat":25.796881,"lon":-80.370519,"city":"Sweetwater","state":"FL","address":"10770 NW 25th Street","name":""},
  {"lat":31.562488,"lon":-97.125499,"city":"Waco","state":"TX","address":"110 South M.L.K. Jr Blvd, Building B","name":""},
  {"lat":41.257644,"lon":-95.944839,"city":"Omaha","state":"NE","address":"2220 Farnam Street","name":""},
  {"lat":28.431712,"lon":-81.448513,"city":"Orlando","state":"FL","address":"9685 Universal Blvd Bldg 1","name":""},
  {"lat":39.5829,"lon":-104.8725,"city":"Englewood","state":"CO","address":"7380 South Clinton Street","name":""},
  {"lat":41.147219,"lon":-73.42637,"city":"Norwalk","state":"CT","address":"426 Main Avenue, Route 7","name":""}
]}