{"key":"exxon","displayName":"Exxon","category":"gas_station","useLocationName":false,"locations":[
  {"lat":42.58466,"lon":-72.618942,"city":"Greenfield","state":"MA","address":"142 MOHAWK TRAIL","name":""},
  {"lat":44.306953,"lon":-71.802505,"city":"Littleton","state":"NH","address":"552 MEADOW ST","name":""},
  {"lat":30.189957,"lon":-85.662048,"city":"Panama City","state":"FL","address":"128 W 23RD STREET","name":""},
  {"lat":41.290733,"lon":-72.58049,"city":"Madison","state":"CT","address":"I-95 NORTHBOUND","name":""},
  {"lat":33.832596,"lon":-84.337685,"city":"Atlanta","state":"GA","address":"2055 N DRUID HILLS RD","name":""},
  {"lat":43.760818,"lon":-87.757149,"city":"Sheboygan","state":"WI","address":"3801 SUPERIOR AVE","name":""},
  {"lat":47.597401,"lon":-114.113678,"city":"Pablo","state":"MT","address":"52001 HIGHWAY 93","name":""},
  {"lat":30.110794,"lon":-94.126564,"city":"Beaumont","state":"TX","address":"3370 CONCORD","name":""},
  {"lat":41.249264,"lon":-76.922195,"city":"Montoursville","state":"PA","address":"447 BROAD ST","name":""},
  {"lat":41.469795,"lon":-71.952255,"city":"Mashantucket","state":"CT","address":"101 TROLLEY LINE BLVD","name":""},
  {"lat":28.672899,"lon":-81.501633,"city":"Apopka","state":"FL","address":"454 E. MAIN ST","name":""},
  {"lat":27.232157,"lon":-80.218636,"city":"Jensen Beach","state":"FL","address":"2688 NE DIXIE HWY","name":""},
  {"lat":46.783329,"lon":-100.774078,"city":"Bismarck","state":"ND","address":"1122 TACOMA AVE.","name":""},
  {"lat":36.177078,"lon":-89.66906,"city":"Caruthersville","state":"MO","address":"1906 TRUMAN BLVD","name":""},
  {"lat":35.779839,"lon":-90.808891,"city":"Jonesboro","state":"AR","address":"9250 US 49 S","name":""},
  {"lat":47.700474,"lon":-117.411842,"city":"Spokane","state":"WA","address":"4615 N DIVISION ST","name":""},
  {"lat":47.676105,"lon":-117.397179,"city":"Spokane","state":"WA","address":"2005 N HAMILTON","name":""},
  {"lat":48.684147,"lon":-116.320786,"city":"Bonners Ferry","state":"ID","address":"6723 MAIN ST","name":""},
  {"lat":41.970066,"lon":-88.11451,"city":"Roselle","state":"IL","address":"1330 W LAKE ST","name":""},
  {"lat":28.098507,"lon":-80.621445,"city":"Melbourne","state":"FL","address":"601 S BABCOCK ST","name":""},
  {"lat":41.816975,"lon":-88.16758,"city":"Warrenville","state":"IL","address":"28W050 WARRENVILLE RD","name":""},
  {"lat":42.374817,"lon":-82.939102,"city":"Detroit","state":"MI","address":"14900 E. JEFFERSON AVE.","name":""},
  {"lat":27.897091,"lon":-81.600342,"city":"Lake Wales","state":"FL","address":"19300 US-27","name":""},
  {"lat":39.213707,"lon":-81.650055,"city":"Washington","state":"WV","address":"34 NEW ENGLAND RIDGE RD.","name":""},
  {"lat":33.471912,"lon":-95.220695,"city":"Bogata","state":"TX","address":"605 PARIS RD","name":""},
  {"lat":32.941666,"lon":-97.06543,"city":"Grapevine","state":"TX","address":"1001 NORTHWEST HWY","name":""},
  {"lat":32.606083,"lon":-98.111397,"city":"Santo","state":"TX","address":"14100 S HWY 281","name":""},
  {"lat":28.770618,"lon":-81.265099,"city":"Sanford","state":"FL","address":"3100 SANFORD AVE","name":""},
  {"lat":41.9846,"lon":-87.980812,"city":"Wood Dale","state":"IL","address":"1000 N WOOD DALE RD, WOOD DALE","name":""},
  {"lat":42.05481,"lon":-87.800003,"city":"Morton Grove","state":"IL","address":"9544 WAUKEGAN RD, MORTON GROVE","name":""},
  {"lat":42.280647,"lon":-87.973427,"city":"Libertyville","state":"IL","address":"1185 W PARK AVE, LIBERTYVILLE","name":""},
  {"lat":37.745014,"lon":-77.133766,"city":"Aylett","state":"VA","address":"5033 RICHMOND TAPPAHANNOCK HWY","name":""},
  {"lat":32.183422,"lon":-90.25441,"city":"Byram","state":"MS","address":"5700 I-55 SOUTH FRONTAGE RD","name":""},
  {"lat":30.584934,"lon":-91.168495,"city":"Baker","state":"LA","address":"938 MAIN ST","name":""},
  {"lat":44.277298,"lon":-83.92482,"city":"Prescott","state":"MI","address":"4971 E. TAWAS ROAD M-55","name":""},
  {"lat":42.064224,"lon":-87.717621,"city":"Evanston","state":"IL","address":"2966 CENTRAL ST","name":""},
  {"lat":40.635567,"lon":-79.939186,"city":"Gibsonia","state":"PA","address":"5610 WILLIAM FLINN HWY","name":""},
  {"lat":42.35659,"lon":-83.275398,"city":"Dearborn Heights","state":"MI","address":"24035 JOY ROAD","name":""},
  {"lat":42.355766,"lon":-83.386841,"city":"Livonia","state":"MI","address":"34901 ANN ARBOR TRAIL","name":""},
  {"lat":38.897816,"lon":-104.746422,"city":"Colorado Springs","state":"CO","address":"4605 AUSTIN BLUFFS PKWY","name":""},
  {"lat":40.842613,"lon":-73.535919,"city":"East Norwich","state":"NY","address":"6261 NORTHERN BLVD","name":""},
  {"lat":35.642796,"lon":-80.483231,"city":"Salisbury","state":"NC","address":"939 JAKE ALEXANDER BLVD S","name":""},
  {"lat":42.430946,"lon":-83.17662,"city":"Detroit","state":"MI","address":"13141 W 7 MILE RD","name":""},
  {"lat":30.372299,"lon":-97.625603,"city":"Austin","state":"TX","address":"4751 E PARMER LN","name":""},
  {"lat":34.049988,"lon":-83.929649,"city":"Buford","state":"GA","address":"1955 GRAVEL SPRINGS RD","name":""},
  {"lat":42.555523,"lon":-87.824974,"city":"Kenosha","state":"WI","address":"8211 SHERIDAN RD","name":""},
  {"lat":34.975281,"lon":-80.984909,"city":"Rock Hill","state":"SC","address":"2751 CHERRY ROAD","name":""},
  {"lat":40.88015,"lon":-73.909973,"city":"The Bronx","state":"NY","address":"317 WEST 230TH ST","name":""},
  {"lat":40.526218,"lon":-111.906235,"city":"Draper","state":"UT","address":"12300 SOUTH 550 WEST","name":""},
  {"lat":47.318157,"lon":-122.59256,"city":"Gig Harbor","state":"WA","address":"6615 WOLLOCHET DR","name":""},
  {"lat":42.238205,"lon":-89.066765,"city":"Rockford","state":"IL","address":"2000 HARRISON AVE","name":""},
  {"lat":37.609341,"lon":-77.446808,"city":"Richmond","state":"VA","address":"5609 CHAMBERLAYNE ROAD","name":""},
  {"lat":31.77417,"lon":-97.102127,"city":"West","state":"TX","address":"19676 I 35 FRONTAGE RD","name":""},
  {"lat":42.13924,"lon":-87.959137,"city":"Buffalo Grove","state":"IL","address":"10 W DUNDEE RD","name":""},
  {"lat":41.428074,"lon":-73.110214,"city":"Oxford","state":"CT","address":"355 357 OXFORD ROAD","name":""},
  {"lat":40.720844,"lon":-74.333954,"city":"Summit","state":"NJ","address":"18 MORRIS TPKE","name":""},
  {"lat":42.469448,"lon":-73.815277,"city":"Ravena","state":"NY","address":"213 MAIN ST","name":""},
  {"lat":34.99408,"lon":-89.872192,"city":"Olive Branch","state":"MS","address":"9137 YAHWEH RD","name":""},
  {"lat":27.606199,"lon":-81.514076,"city":"Avon Park","state":"FL","address":"999 US HWY 27 S","name":""},
  {"lat":40.510719,"lon":-111.413727,"city":"Heber City","state":"UT","address":"215 N MAIN ST","name":""},
  {"lat":37.515636,"lon":-77.794289,"city":"Powhatan","state":"VA","address":"2150 ANDERSON HIGHWAY","name":""},
  {"lat":29.84523,"lon":-95.806633,"city":"Katy","state":"TX","address":"4940 KATY HOCKLEY CUT OFF RD","name":""},
  {"lat":30.004858,"lon":-95.37207,"city":"Humble","state":"TX","address":"19906 ALDINE WESTFIELD RD","name":""},
  {"lat":30.358454,"lon":-95.78965,"city":"Montgomery","state":"TX","address":"26866 SH 105 WEST","name":""},
  {"lat":29.842985,"lon":-95.183578,"city":"Houston","state":"TX","address":"13812 BEAUMONT HWY","name":""},
  {"lat":30.057838,"lon":-95.086464,"city":"Huffman","state":"TX","address":"26610 FM 2100","name":""},
  {"lat":33.741344,"lon":-116.304443,"city":"Palm Desert","state":"CA","address":"77920 AVE OF THE STATES","name":""},
  {"lat":39.628044,"lon":-106.064796,"city":"Silverthorne","state":"CO","address":"180 STEPHENS WAY","name":""},
  {"lat":41.999542,"lon":-88.046509,"city":"Elk Grove Village","state":"IL","address":"1600 NERGE RD","name":""},
  {"lat":35.983891,"lon":-79.459846,"city":"Burlington","state":"NC","address":"5673 HWY 49 S","name":""},
  {"lat":33.001133,"lon":-97.218292,"city":"Roanoke","state":"TX","address":"704 BYRON NELSON BLVD","name":""},
  {"lat":42.410381,"lon":-87.854744,"city":"Waukegan","state":"IL","address":"3201 N LEWIS AVE","name":""},
  {"lat":42.267456,"lon":-83.329399,"city":"Romulus","state":"MI","address":"5820 MIDDLEBELT ROAD","name":""},
  {"lat":35.045517,"lon":-89.685051,"city":"Collierville","state":"TN","address":"679 W POPLAR AV","name":""},
  {"lat":47.764801,"lon":-117.354881,"city":"Mead","state":"WA","address":"11810 N MARKET ST","name":""},
  {"lat":36.731308,"lon":-91.877937,"city":"West Plains","state":"MO","address":"1808 W BROADWAY STREET","name":""},
  {"lat":37.797836,"lon":-121.252808,"city":"Manteca","state":"CA","address":"2115 W YOSEMITE AVE","name":""},
  {"lat":35.178921,"lon":-89.835892,"city":"Memphis","state":"TN","address":"1974 WHITTEN RD","name":""},
  {"lat":34.964176,"lon":-89.801003,"city":"Olive Branch","state":"MS","address":"10680 GOODMAN RD","name":""},
  {"lat":39.605534,"lon":-75.743668,"city":"Newark","state":"DE","address":"2360 PULASKI HWY","name":""},
  {"lat":40.635326,"lon":-74.447708,"city":"Watchung","state":"NJ","address":"900 SOMERSET ST","name":""},
  {"lat":42.603394,"lon":-88.442993,"city":"Lake Geneva","state":"WI","address":"1231 GRANT ST LAKE GENEVA WI","name":""},
  {"lat":31.281738,"lon":-97.260582,"city":"Eddy","state":"TX","address":"206 S IH 35","name":""},
  {"lat":40.762978,"lon":-73.523788,"city":"Seaford","state":"NY","address":"1260 HICKSVILLE ROAD","name":""},
  {"lat":41.815975,"lon":-87.643471,"city":"Chicago","state":"IL","address":"4300 S UNION AVE","name":""},
  {"lat":33.548016,"lon":-83.357407,"city":"Buckhead","state":"GA","address":"1740 SEVEN ISLANDS RD","name":""},
  {"lat":25.797682,"lon":-80.313446,"city":"Miami","state":"FL","address":"2500 NW 72 AVENUE","name":""},
  {"lat":34.378819,"lon":-118.55397,"city":"Santa Clarita","state":"CA","address":"23950 LYONS AVE","name":""},
  {"lat":34.314701,"lon":-79.033173,"city":"Fair Bluff","state":"NC","address":"945 MAIN ST","name":""},
  {"lat":28.551521,"lon":-81.484573,"city":"Orlando","state":"FL","address":"7490 W. COLONIAL DR","name":""},
  {"lat":35.20961,"lon":-80.757721,"city":"Charlotte","state":"NC","address":"5124 CENTRAL AVE","name":""},
  {"lat":25.884638,"lon":-80.365486,"city":"Medley","state":"FL","address":"12200 NW SOUTH RIVER DR","name":""},
  {"lat":40.862553,"lon":-74.030037,"city":"Ridgefield Park","state":"NJ","address":"87 RAILROAD AVE","name":""},
  {"lat":30.072691,"lon":-95.768494,"city":"Hockley","state":"TX","address":"20130 TUSCAN TERRACE","name":""},
  {"lat":27.81749,"lon":-97.074631,"city":"Port Aransas","state":"TX","address":"1960 TX 361","name":""},
  {"lat":35.747299,"lon":-90.570091,"city":"Bay","state":"AR","address":"613 N BAY DR","name":""},
  {"lat":37.122581,"lon":-113.625038,"city":"St. George","state":"UT","address":"1925 W SUNSET BLVD","name":""},
  {"lat":31.195992,"lon":-98.736961,"city":"San Saba","state":"TX","address":"1802 W WALLACE ST","name":""},
  {"lat":35.226803,"lon":-81.13208,"city":"Gastonia","state":"NC","address":"2001 HOFFMAN ROAD","name":""},
  {"lat":35.257603,"lon":-79.041046,"city":"Cameron","state":"NC","address":"1360 NC 24-87","name":""},
  {"lat":35.375378,"lon":-78.538986,"city":"Benson","state":"NC","address":"904 E MAIN STREET","name":""},
  {"lat":35.116779,"lon":-78.880745,"city":"Fayetteville","state":"NC","address":"4147 RAMSEY STREET","name":""},
  {"lat":34.930923,"lon":-78.853691,"city":"Fayetteville","state":"NC","address":"4946 NC HIGHWAY 87 S","name":""},
  {"lat":42.282444,"lon":-88.209328,"city":"Island","state":"IL","address":"3401 S RIVER RD","name":""},
  {"lat":48.52742,"lon":-121.432205,"city":"Marblemount","state":"WA","address":"60101 STATE ROUTE 20","name":""},
  {"lat":40.531895,"lon":-74.291672,"city":"Hopelawn","state":"NJ","address":"119 W POND RD","name":""},
  {"lat":36.626717,"lon":-87.317947,"city":"Clarksville","state":"TN","address":"3928 TRENTON RD","name":""},
  {"lat":35.279339,"lon":-80.806175,"city":"Charlotte","state":"NC","address":"4800 N GRAHAM ST","name":""},
  {"lat":31.413836,"lon":-100.475487,"city":"San Angelo","state":"TX","address":"4798 KNICKERBOCKER ROAD","name":""},
  {"lat":40.841297,"lon":-73.309357,"city":"Commack","state":"NY","address":"5087 JERICHO TPKE","name":""},
  {"lat":35.119827,"lon":-80.880646,"city":"Charlotte","state":"NC","address":"8641 SOUTH BLVD","name":""},
  {"lat":31.986429,"lon":-95.77037,"city":"Montalba","state":"TX","address":"17589 STATE HWY 19","name":""},
  {"lat":33.617786,"lon":-84.307381,"city":"Ellenwood","state":"GA","address":"5020 GA-42","name":""},
  {"lat":39.64854,"lon":-77.917755,"city":"Clear Spring","state":"MD","address":"12911 CLEAR SPRING ROAD","name":""},
  {"lat":-83.814156,"lon":35.340324,"city":"Robbinsville","state":"NC","address":"1037 TAPOCA RD","name":""},
  {"lat":25.628754,"lon":-80.340904,"city":"Miami","state":"FL","address":"15201 S DIXIE HWY","name":""},
  {"lat":30.390741,"lon":-91.165428,"city":"Baton Rouge","state":"LA","address":"701 FROGMORE DR","name":""},
  {"lat":43.790436,"lon":-89.48745,"city":"Oxford","state":"WI","address":"N4190 CROSSROADS CLINIC RD","name":""},
  {"lat":31.534655,"lon":-94.126007,"city":"San Augustine","state":"TX","address":"209 N EL CAMINO CROSSING","name":""},
  {"lat":43.885414,"lon":-89.486595,"city":"Westfield","state":"WI","address":"327 E 2ND ST","name":""},
  {"lat":31.97488,"lon":-89.865196,"city":"Mendenhall","state":"MS","address":"3791 HWY 49","name":""},
  {"lat":29.945562,"lon":-93.974716,"city":"Port Arthur","state":"TX","address":"3600 JIMMY JOHNSON BLVD","name":""},
  {"lat":29.747141,"lon":-95.851791,"city":"Katy","state":"TX","address":"2947 FM 1493 ROAD","name":""},
  {"lat":35.288597,"lon":-77.549141,"city":"Kinston","state":"NC","address":"2227 NC 11","name":""},
  {"lat":34.950798,"lon":-79.053421,"city":"Parkton","state":"NC","address":"148 DAVIS BRIDGE","name":""},
  {"lat":30.112762,"lon":-95.603149,"city":"Tomball","state":"TX","address":"1103 E HUFSMITH RD","name":""},
  {"lat":30.0452,"lon":-95.698021,"city":"Tomball","state":"TX","address":"19109 CYPRESS ROSEHILL RD","name":""},
  {"lat":26.706511,"lon":-80.101074,"city":"West","state":"FL","address":"2900 OKEECHOBEE BLVD","name":""},
  {"lat":42.900551,"lon":-72.305939,"city":"Swanzey","state":"NH","address":"189 W SWANZEY RD","name":""},
  {"lat":34.244053,"lon":-83.457588,"city":"Commerce","state":"GA","address":"40081 U.S. HIGHWAY 441","name":""},
  {"lat":30.004425,"lon":-95.296417,"city":"Humble","state":"TX","address":"8508 FM 1960 BYPASS RD W","name":""},
  {"lat":29.497351,"lon":-98.499878,"city":"San Antonio","state":"TX","address":"6443 SAN PEDRO AVE","name":""},
  {"lat":41.641308,"lon":-87.718712,"city":"Crestwood","state":"IL","address":"13830 S PULASKI","name":""},
  {"lat":42.73608,"lon":-77.843605,"city":"Mount","state":"NY","address":"3279 MOUNT MORRIS GENESEO RD","name":""},
  {"lat":42.423195,"lon":-82.941956,"city":"Detroit","state":"MI","address":"11030 MORANG RD.","name":""},
  {"lat":42.372707,"lon":-83.187561,"city":"Detroit","state":"MI","address":"14545 PLYMOUTH RD","name":""},
  {"lat":42.429775,"lon":-82.957367,"city":"Detroit","state":"MI","address":"18300 MORANG RD","name":""},
  {"lat":41.806976,"lon":-86.320892,"city":"Niles","state":"MI","address":"1655 MAYFLOWER RD","name":""},
  {"lat":33.829487,"lon":-93.392723,"city":"Prescott","state":"AR","address":"2066 HWY 19N","name":""},
  {"lat":46.595512,"lon":-111.933762,"city":"East Helena","state":"MT","address":"3680 E US HIGHWAY 12","name":""},
  {"lat":43.038586,"lon":-74.866264,"city":"Little Falls","state":"NY","address":"279 W MAIN ST","name":""},
  {"lat":45.673725,"lon":-111.07412,"city":"Bozeman","state":"MT","address":"2707 WEST MAIN STREET","name":""},
  {"lat":32.588161,"lon":-96.298805,"city":"Kaufman","state":"TX","address":"1420 E MULBERRY ST","name":""},
  {"lat":43.568848,"lon":-76.049835,"city":"Richland","state":"NY","address":"282 MAIN ST","name":""},
  {"lat":27.957201,"lon":-97.105728,"city":"Rockport","state":"TX","address":"4525 HWY 35S","name":""},
  {"lat":33.21035,"lon":-97.762802,"city":"Bridgeport","state":"TX","address":"575 HOVEY ST","name":""},
  {"lat":34.098221,"lon":-84.628433,"city":"Acworth","state":"GA","address":"6013-6251 JAMES DUPREE LN","name":""},
  {"lat":30.711632,"lon":-95.551575,"city":"Huntsville","state":"TX","address":"2020 SAM HOUSTON AVE","name":""},
  {"lat":35.120724,"lon":-86.195938,"city":"Belvidere","state":"TN","address":"8791 DAVID CROCKETT PKWY W","name":""},
  {"lat":40.846264,"lon":-72.997734,"city":"Medford","state":"NY","address":"3414 ROUTE 112","name":""},
  {"lat":29.819685,"lon":-90.484314,"city":"Des Allemands","state":"LA","address":"4322 HWY 90","name":""},
  {"lat":26.292398,"lon":-98.03817,"city":"La Blanca","state":"TX","address":"13625 E STATE HIGHWAY 107","name":""},
  {"lat":42.280415,"lon":-83.435555,"city":"Canton","state":"MI","address":"40200 MICHIGAN AVE.","name":""},
  {"lat":41.799328,"lon":-88.090614,"city":"Lisle","state":"IL","address":"1917 OGDEN AVE","name":""},
  {"lat":33.730816,"lon":-85.029297,"city":"Temple","state":"GA","address":"233 CARROLLTON ST","name":""},
  {"lat":36.533672,"lon":-86.03067,"city":"Lafayette","state":"TN","address":"1205 SCOTTSVILLE RD","name":""},
  {"lat":42.803722,"lon":-83.725121,"city":"Fenton","state":"MI","address":"2461 NORTH RD","name":""},
  {"lat":42.085499,"lon":-86.436935,"city":"Benton Harbor","state":"MI","address":"1808 M 139","name":""},
  {"lat":40.701324,"lon":-73.592995,"city":"Uniondale","state":"NY","address":"576 UNIONDALE AVE","name":""},
  {"lat":40.835613,"lon":-73.870605,"city":"The Bronx","state":"NY","address":"1730 CROSS BRONX EXPRESSWAY","name":""},
  {"lat":34.834717,"lon":-82.439903,"city":"Greenville","state":"SC","address":"1703 EASLEY BRIDGE RD","name":""},
  {"lat":34.386982,"lon":-89.499512,"city":"Oxford","state":"MS","address":"1581 JAMES KIMMONS DR","name":""},
  {"lat":42.343361,"lon":-83.235252,"city":"Detroit","state":"MI","address":"19840 W. WARREN","name":""},
  {"lat":42.498276,"lon":-83.303986,"city":"Southfield","state":"MI","address":"28681 NORTHWESTERN HWY","name":""},
  {"lat":33.744633,"lon":-116.715118,"city":"Idyllwild","state":"CA","address":"26128 HIGHWAY 243","name":""},
  {"lat":31.477015,"lon":-87.335884,"city":"Monroeville","state":"AL","address":"3781 S ALABAMA AVE","name":""},
  {"lat":26.362871,"lon":-80.081177,"city":"Boca Raton","state":"FL","address":"1380 N FEDERAL HIGHWAY","name":""},
  {"lat":31.200386,"lon":-87.310921,"city":"Brewton","state":"AL","address":"13288 HIGHWAY 113","name":""},
  {"lat":33.617786,"lon":-92.072258,"city":"Warren","state":"AR","address":"401 N MARTIN STEET","name":""},
  {"lat":35.245686,"lon":-91.714317,"city":"Searcy","state":"AR","address":"316 S BENTON ST","name":""},
  {"lat":35.260559,"lon":-91.744865,"city":"Searcy","state":"AR","address":"1199 N MAPLE ST","name":""},
  {"lat":33.585262,"lon":-92.850754,"city":"Camden","state":"AR","address":"1166 W WASHINGTON ST","name":""},
  {"lat":35.223793,"lon":-91.732018,"city":"Searcy","state":"AR","address":"2000 S MAIN ST","name":""},
  {"lat":31.342371,"lon":-89.306404,"city":"Hattiesburg","state":"MS","address":"5316 HWY 42","name":""},
  {"lat":36.70314,"lon":-77.54332,"city":"Emporia","state":"VA","address":"100 MARKET DR","name":""},
  {"lat":29.474125,"lon":-95.507439,"city":"Missouri City","state":"TX","address":"1420 SIENNA PARKWAY","name":""},
  {"lat":40.80632,"lon":-72.843887,"city":"Mastic","state":"NY","address":"1525 MONTAUK HWY","name":""},
  {"lat":41.626183,"lon":-87.696777,"city":"Posen","state":"IL","address":"3118 147th ST","name":""},
  {"lat":35.914837,"lon":-90.646515,"city":"Jonesboro","state":"AR","address":"4151 HIGHWAY 351","name":""},
  {"lat":44.895462,"lon":-85.069298,"city":"Mancelona","state":"MI","address":"9510 N FRONT ST","name":""},
  {"lat":43.239914,"lon":-73.010475,"city":"East Dorset","state":"VT","address":"2045 US-7 N","name":""},
  {"lat":33.986404,"lon":-83.892738,"city":"Dacula","state":"GA","address":"352 HARBINS RD","name":""},
  {"lat":33.803848,"lon":-84.248955,"city":"Clarkston","state":"GA","address":"3874 E PONCE DE LEON AVE","name":""},
  {"lat":37.404171,"lon":-122.118332,"city":"Los Altos","state":"CA","address":"4350 EL CAMINO REAL","name":""},
  {"lat":41.028225,"lon":-73.775032,"city":"White Plains","state":"NY","address":"69 BANK STREET","name":""},
  {"lat":25.447351,"lon":-80.4935,"city":"Homestead","state":"FL","address":"961 W PALM DRIVE","name":""},
  {"lat":26.934029,"lon":-80.134621,"city":"Jupiter","state":"FL","address":"2508 W INDIANTOWN RD","name":""},
  {"lat":26.841627,"lon":-80.099586,"city":"Palm Beach Gardens","state":"FL","address":"4150 PGA BLVD","name":""},
  {"lat":26.882317,"lon":-80.108086,"city":"Palm Beach Gardens","state":"FL","address":"4750 DONALD ROSS RD","name":""},
  {"lat":25.566313,"lon":-80.371338,"city":"Miami","state":"FL","address":"11100 SW 216th ST","name":""},
  {"lat":40.714081,"lon":-73.902039,"city":"Maspeth","state":"NY","address":"60-90 ELIOT AVENUE","name":""},
  {"lat":41.016956,"lon":-73.799812,"city":"Hartsdale","state":"NY","address":"74 SOUTH CENTRAL AVENUE","name":""},
  {"lat":40.807312,"lon":-73.923828,"city":"The Bronx","state":"NY","address":"164 WILLIS AVENUE","name":""},
  {"lat":40.805168,"lon":-73.912544,"city":"The Bronx","state":"NY","address":"250 JACKSON AVE","name":""},
  {"lat":26.747311,"lon":-81.76123,"city":"North Fort Myers","state":"FL","address":"19451 FL-31","name":""},
  {"lat":43.374096,"lon":-72.130135,"city":"Newport","state":"NH","address":"595 SUNAPEE ROAD","name":""},
  {"lat":42.908962,"lon":-72.261383,"city":"Swanzey","state":"NH","address":"37 MONADNOCK HW","name":""},
  {"lat":30.099073,"lon":-97.754082,"city":"Creedmoor","state":"TX","address":"12407 WRIGHT ROAD","name":""},
  {"lat":43.016071,"lon":-83.594353,"city":"Burton","state":"MI","address":"1117 S. BELSAY RD","name":""},
  {"lat":42.274899,"lon":-84.403252,"city":"Jackson","state":"MI","address":"1939 COOPERS STREET","name":""},
  {"lat":34.376835,"lon":-84.918839,"city":"Adairsville","state":"GA","address":"7700-7746 HIGHWAY 140 NW","name":""},
  {"lat":43.062462,"lon":-83.557091,"city":"Davison","state":"MI","address":"8006 E RICHFIELD RD","name":""},
  {"lat":34.046268,"lon":-94.346901,"city":"de Queen","state":"AR","address":"815 W COLLIN RAYE DR","name":""},
  {"lat":39.159081,"lon":-76.714073,"city":"Hanover","state":"MD","address":"1401 DORSEY RD","name":""},
  {"lat":41.324963,"lon":-87.823776,"city":"Peotone","state":"IL","address":"601 S 88TH AVE","name":""},
  {"lat":41.631504,"lon":-72.46035,"city":"Marlborough","state":"CT","address":"4 E. HAMPTON ROAD","name":""},
  {"lat":28.75251,"lon":-100.496841,"city":"Eagle Pass","state":"TX","address":"3165 DEL RIO BLVD","name":""},
  {"lat":28.686899,"lon":-100.47467,"city":"Eagle Pass","state":"TX","address":"1989 S VETERANS BLVD","name":""},
  {"lat":31.315729,"lon":-95.437309,"city":"Crockett","state":"TX","address":"1272 TX-304 LOOP","name":""},
  {"lat":41.897961,"lon":-71.960014,"city":"Pomfret Center","state":"CT","address":"19 PUTNAM RD","name":""},
  {"lat":34.067284,"lon":-80.954453,"city":"Columbia","state":"SC","address":"7351 TWO NOTCH RD","name":""},
  {"lat":41.931702,"lon":-71.931145,"city":"Woodstock","state":"CT","address":"9 WOODSTOCK AVE W","name":""},
  {"lat":41.209129,"lon":-73.430923,"city":"Wilton","state":"CT","address":"386 DANBURY RD","name":""},
  {"lat":41.422073,"lon":-72.839836,"city":"North Haven","state":"CT","address":"641 WASHINGTON AVE","name":""},
  {"lat":41.070255,"lon":-73.520164,"city":"Stamford","state":"CT","address":"493 GLENBROOK RD","name":""},
  {"lat":41.170807,"lon":-73.152016,"city":"Stratford","state":"CT","address":"440 LORDSHIP BLVD","name":""},
  {"lat":41.383945,"lon":-73.284691,"city":"Newtown","state":"CT","address":"151 SOUTH MAIIN ST","name":""},
  {"lat":41.682289,"lon":-72.942619,"city":"Bristol","state":"CT","address":"201 NORTH ST","name":""},
  {"lat":41.971313,"lon":-73.989265,"city":"Kingston","state":"NY","address":"1335 ULSTER AVE","name":""},
  {"lat":41.196251,"lon":-73.094727,"city":"Milford","state":"CT","address":"313 NAUGATUCK AVE","name":""},
  {"lat":41.754486,"lon":-87.878265,"city":"Hodgkins","state":"IL","address":"10000 75TH ST","name":""},
  {"lat":37.102978,"lon":-78.994942,"city":"Gladys","state":"VA","address":"14465 BROOKNEAL HWY","name":""},
  {"lat":42.391167,"lon":-73.831062,"city":"West Coxsackie","state":"NY","address":"12639 ROUTE 9W","name":""},
  {"lat":41.713902,"lon":-72.591423,"city":"Glastonbury","state":"CT","address":"592 HEBRON AVE","name":""},
  {"lat":41.465675,"lon":-73.163887,"city":"Southbury","state":"CT","address":"1411 SOUTHFORD RD","name":""},
  {"lat":42.715027,"lon":-73.931839,"city":"Schenectady","state":"NY","address":"3903 CARMAN RD","name":""},
  {"lat":42.388496,"lon":-73.556183,"city":"Old Chatham","state":"NY","address":"601 ROUTE 295","name":""},
  {"lat":42.868889,"lon":-73.933121,"city":"Glenville","state":"NY","address":"245 SARATOGA RD","name":""},
  {"lat":43.046661,"lon":-70.931396,"city":"Newfields","state":"NH","address":"60 NH-108","name":""},
  {"lat":42.758087,"lon":-72.009224,"city":"Rindge","state":"NH","address":"1116 NH ROUTE 119","name":""},
  {"lat":43.171429,"lon":-72.458107,"city":"Bellows Falls","state":"VT","address":"705 ROCKINGHAM RD","name":""},
  {"lat":43.642826,"lon":-72.418518,"city":"Quechee","state":"VT","address":"6800 WOODSTOCK RD","name":""},
  {"lat":30.237425,"lon":-93.324966,"city":"Sulphur","state":"LA","address":"3601-3675 E NAPOLEON ST","name":""},
  {"lat":32.828579,"lon":-97.035919,"city":"Fort Worth","state":"TX","address":"15151 FAA BLVD","name":""},
  {"lat":42.203293,"lon":-83.55806,"city":"Ypsilanti","state":"MI","address":"5970 BRIDGE RD.","name":""},
  {"lat":44.089779,"lon":-115.951904,"city":"Garden Valley","state":"ID","address":"1086 BANKS LOWMAN RD","name":""},
  {"lat":32.938572,"lon":-97.185356,"city":"Southlake","state":"TX","address":"2210 W SOUTHLAKE BLVD","name":""},
  {"lat":40.803982,"lon":-73.921181,"city":"The Bronx","state":"NY","address":"126 BRUCKNER BLVD","name":""},
  {"lat":41.477833,"lon":-74.041443,"city":"New Windsor","state":"NY","address":"173 WINDSOR HWY","name":""},
  {"lat":26.29525,"lon":-80.094139,"city":"Pompano Beach","state":"FL","address":"5200 NORTH FEDERAL HIGHWAY","name":""},
  {"lat":42.432301,"lon":-83.649872,"city":"South Lyon","state":"MI","address":"20777 PONTIAC TRAIL","name":""},
  {"lat":43.084614,"lon":-83.616554,"city":"Flint","state":"MI","address":"5272 N GENESSEE RD","name":""},
  {"lat":43.188084,"lon":-84.13195,"city":"Chesaning","state":"MI","address":"1310 W BRADY","name":""},
  {"lat":38.516941,"lon":-122.486626,"city":"St. Helen","state":"MI","address":"1025 N ST HELEN RD","name":""},
  {"lat":42.481014,"lon":-82.906792,"city":"St. Clair Shores","state":"MI","address":"25100 LITTLE MACK AVE","name":""},
  {"lat":43.151939,"lon":-83.520668,"city":"Otisville","state":"MI","address":"10001 N STATE RD","name":""},
  {"lat":42.568623,"lon":-82.913223,"city":"Clinton Township","state":"MI","address":"36887 GROESBECK","name":""},
  {"lat":34.713379,"lon":-86.658051,"city":"Huntsville","state":"AL","address":"6090 OLD MADISON PIKE","name":""},
  {"lat":42.327217,"lon":-85.569977,"city":"Parchment","state":"MI","address":"101 S. RIVERVIEW DR","name":""},
  {"lat":42.6096,"lon":-82.972069,"city":"Clinton Township","state":"MI","address":"42640 HAYES RD","name":""},
  {"lat":40.653145,"lon":-74.912025,"city":"Clinton","state":"NJ","address":"1747 STATE ROUTE 31","name":""},
  {"lat":40.657684,"lon":-74.118279,"city":"Bayonne","state":"NJ","address":"100 RT-440 HIGHWAY S","name":""},
  {"lat":30.469908,"lon":-83.422501,"city":"Madison","state":"FL","address":"551 W BASE ST","name":""},
  {"lat":41.943378,"lon":-86.494133,"city":"Baroda","state":"MI","address":"9691 CLEVELAND AVE.","name":""},
  {"lat":36.56189,"lon":-79.453888,"city":"Danville","state":"VA","address":"2100 W MAIN ST DANVILLE VA 24541","name":""},
  {"lat":32.086323,"lon":-96.520851,"city":"Corsicana","state":"TX","address":"1921 N 45TH ST","name":""},
  {"lat":42.376404,"lon":-71.243263,"city":"Waltham","state":"MA","address":"821 MAIN ST","name":""},
  {"lat":32.445354,"lon":-93.947304,"city":"Greenwood","state":"LA","address":"8541 Greenwood Rd","name":""},
  {"lat":30.469168,"lon":-83.409775,"city":"Madison","state":"FL","address":"408 EAST BASE STREET","name":""},
  {"lat":30.179476,"lon":-82.593155,"city":"Lake City","state":"FL","address":"923 SE SR 100","name":""},
  {"lat":29.764942,"lon":-82.408066,"city":"Gainesville","state":"FL","address":"11921 NW US Hwy 441","name":""},
  {"lat":42.569172,"lon":-83.127319,"city":"Troy","state":"MI","address":"3410 ROCHESTER RD","name":""},
  {"lat":30.516066,"lon":-82.945816,"city":"Jasper","state":"FL","address":"217 2nd Avenue SE","name":""},
  {"lat":41.977837,"lon":-86.495377,"city":"Baroda","state":"MI","address":"7773 BARODA","name":""},
  {"lat":42.197834,"lon":-85.966797,"city":"Paw Paw","state":"MI","address":"60902 M51 Hwy","name":""},
  {"lat":42.45293,"lon":-73.695053,"city":"Valatie","state":"NY","address":"3355 ROUTE 9","name":""},
  {"lat":41.549133,"lon":-89.127907,"city":"Mendota","state":"IL","address":"706 13TH AVE","name":""},
  {"lat":32.551952,"lon":-117.039398,"city":"San Diego","state":"CA","address":"301 E SAN YSIDRO BLVD","name":""},
  {"lat":40.896549,"lon":-74.699677,"city":"Netcong","state":"NJ","address":"10 ROUTE 46","name":""},
  {"lat":25.852365,"lon":-80.319427,"city":"Hialeah","state":"FL","address":"3333 W OKEECHOBEE RD","name":""},
  {"lat":33.995899,"lon":-85.980507,"city":"Gadsden","state":"AL","address":"1401 E BROAD ST","name":""},
  {"lat":32.603626,"lon":-93.671982,"city":"Bossier City","state":"LA","address":"3489 SWAN LAKE RD","name":""},
  {"lat":40.687939,"lon":-111.546127,"city":"Park City","state":"UT","address":"1815 CANYONS RESORT DR","name":""},
  {"lat":36.70628,"lon":-78.9095,"city":"South Boston","state":"VA","address":"1527 WILBORN AVE","name":""},
  {"lat":36.70673,"lon":-78.887283,"city":"South Boston","state":"VA","address":"910 JOHN RANDOLPH BLVD","name":""},
  {"lat":26.782217,"lon":-80.085983,"city":"West","state":"FL","address":"1900 W BLUE HERON BLVD","name":""},
  {"lat":40.788158,"lon":-73.13076,"city":"Ronkonkoma","state":"NY","address":"3289 VETERANS MEMORIAL HIGHWAY","name":""},
  {"lat":41.957169,"lon":-71.116753,"city":"Taunton","state":"MA","address":"1939 BAY STREET","name":""},
  {"lat":33.245823,"lon":-95.902527,"city":"Commerce","state":"TX","address":"1700 MONROE ST.","name":""},
  {"lat":29.755793,"lon":-95.40197,"city":"Houston","state":"TX","address":"1207 DUNLAVY ST","name":""},
  {"lat":34.725513,"lon":-76.935913,"city":"Newport","state":"NC","address":"2934 HWY. 24","name":""},
  {"lat":41.674164,"lon":-74.829063,"city":"White","state":"NY","address":"1490 STATE ROUTE 17B","name":""},
  {"lat":47.655579,"lon":-117.239723,"city":"Spokane","state":"WA","address":"115 S PINES RD","name":""},
  {"lat":35.511776,"lon":-78.813042,"city":"Fuquay Varina","state":"NC","address":"8920 US 401 NORTH","name":""},
  {"lat":27.638933,"lon":-80.514114,"city":"Vero Beach","state":"FL","address":"9097 20TH ST","name":""},
  {"lat":30.48105,"lon":-97.663376,"city":"Round Rock","state":"TX","address":"409 LOUIS HENNA BLVD","name":""},
  {"lat":32.636024,"lon":-97.062973,"city":"Grand Prairie","state":"TX","address":"3190 LYNN CREEK ROAD","name":""},
  {"lat":33.202965,"lon":-97.567261,"city":"Decatur","state":"TX","address":"3400 S US HIGHWAY 287","name":""},
  {"lat":30.027262,"lon":-95.782692,"city":"Cypress","state":"TX","address":"BAUER ROAD AND SCHIEL ROAD","name":""},
  {"lat":28.912989,"lon":-81.675652,"city":"Umatilla","state":"FL","address":"793 S CENTRAL AVENUE","name":""},
  {"lat":30.037825,"lon":-95.051392,"city":"Huffman","state":"TX","address":"14833 FM 1960 E","name":""},
  {"lat":30.315029,"lon":-95.339081,"city":"Conroe","state":"TX","address":"6762 WAUKEGAN RD","name":""},
  {"lat":30.165236,"lon":-95.923805,"city":"Waller","state":"TX","address":"31070 FM 1488","name":""},
  {"lat":30.403589,"lon":-95.436775,"city":"Willis","state":"TX","address":"11746 SEVEN COVES RD","name":""},
  {"lat":35.442566,"lon":-86.774071,"city":"Lewisburg","state":"TN","address":"360 S ELLINGTON PKWY","name":""},
  {"lat":29.779104,"lon":-95.284409,"city":"Houston","state":"TX","address":"8001 HERSHE ST","name":""},
  {"lat":35.467602,"lon":-93.519081,"city":"Clarksville","state":"AR","address":"2620 W. MAIN STREET","name":""},
  {"lat":36.157383,"lon":-80.317055,"city":"Winston Salem","state":"NC","address":"3619 REYNOLDA RD","name":""},
  {"lat":34.454941,"lon":-93.076981,"city":"Hot Springs National Park","state":"AR","address":"1885 HIGDON FERRY RD","name":""},
  {"lat":42.550774,"lon":-83.029724,"city":"Sterling Heights","state":"MI","address":"34949 VANDYKE","name":""},
  {"lat":32.65107,"lon":-97.376389,"city":"Fort Worth","state":"TX","address":"3850 ALTAMESA BLVD","name":""},
  {"lat":28.857134,"lon":-82.173927,"city":"Lake Panasoffkee","state":"FL","address":"7018 CR 470","name":""},
  {"lat":29.680609,"lon":-82.338928,"city":"Gainesville","state":"FL","address":"3001 NW 13TH ST","name":""},
  {"lat":42.675224,"lon":-73.783966,"city":"Albany","state":"NY","address":"651 CENTRAL AVE","name":""},
  {"lat":40.478031,"lon":-75.75798,"city":"Lyon Station","state":"PA","address":"VALERO ENERGY","name":""},
  {"lat":40.968609,"lon":-117.740761,"city":"Winnemucca","state":"NV","address":"685 W WINNEMUCCA BLVD","name":""},
  {"lat":26.107985,"lon":-98.265656,"city":"Hidalgo","state":"TX","address":"324 N INTERNATIONAL BLVD","name":""},
  {"lat":34.262424,"lon":-85.307968,"city":"Rome","state":"GA","address":"4590 ALABAMA HWY","name":""},
  {"lat":42.344425,"lon":-71.141953,"city":"Brighton","state":"MA","address":"1550 COMMONWEALTH AVE","name":""},
  {"lat":41.705685,"lon":-86.896347,"city":"Michigan City","state":"IN","address":"1811 FRANKLIN ST","name":""},
  {"lat":29.557079,"lon":-95.149086,"city":"Webster","state":"TX","address":"245 EL DORADO BLVD","name":""},
  {"lat":38.28228,"lon":-75.651863,"city":"Eden","state":"MD","address":"31680 EDEN ALLEN RD","name":""},
  {"lat":42.109341,"lon":-85.973907,"city":"Decatur","state":"MI","address":"107 E. DELAWARE","name":""},
  {"lat":42.433784,"lon":-83.023819,"city":"Detroit","state":"MI","address":"19030 Van Dyke St","name":""},
  {"lat":34.933231,"lon":-89.866112,"city":"Olive Branch","state":"MS","address":"8961 CHURCH RD","name":""},
  {"lat":35.952839,"lon":-79.956268,"city":"High Point","state":"NC","address":"2001 BAKER ROAD","name":""},
  {"lat":40.662392,"lon":-73.919571,"city":"Brooklyn","state":"NY","address":"211-299 TAPSCOTT ST","name":""},
  {"lat":29.930847,"lon":-95.308594,"city":"Houston","state":"TX","address":"14521 PICTON DR","name":""},
  {"lat":34.682701,"lon":-88.587387,"city":"Booneville","state":"MS","address":"1905 W CHAMBERS DR","name":""},
  {"lat":30.96987,"lon":-97.54493,"city":"Salado","state":"TX","address":"4050 FM 2484","name":""},
  {"lat":25.824888,"lon":-80.285515,"city":"Miami","state":"FL","address":"325 N ROYAL POICIANA BLVD","name":""},
  {"lat":41.666721,"lon":-85.985023,"city":"Elkhart","state":"IN","address":"1207 W LUSHER AVE","name":""},
  {"lat":42.026871,"lon":-87.777138,"city":"Morton Grove","state":"IL","address":"6000 OAKTON AVE","name":""},
  {"lat":29.904512,"lon":-95.753563,"city":"Cypress","state":"TX","address":"21860 WEST RD","name":""},
  {"lat":42.937626,"lon":-78.018631,"city":"Pavilion","state":"NY","address":"11091 LAKE STREET","name":""},
  {"lat":34.078079,"lon":-89.891228,"city":"Oakland","state":"MS","address":"28142 HWY 35","name":""},
  {"lat":42.982452,"lon":-78.163544,"city":"Batavia","state":"NY","address":"130 CEDAR ST","name":""},
  {"lat":42.008198,"lon":-71.508064,"city":"Woonsocket","state":"RI","address":"300 SOCIAL STREET","name":""},
  {"lat":30.549332,"lon":-97.69104,"city":"Round Rock","state":"TX","address":"3523 N IH 35","name":""},
  {"lat":40.784584,"lon":-73.445297,"city":"Plainview","state":"NY","address":"1610 ROUND SWAMP RD","name":""},
  {"lat":41.18174,"lon":-79.393669,"city":"Clarion","state":"PA","address":"79 NORTH POINT DRIVE","name":""},
  {"lat":29.590733,"lon":-95.46917,"city":"Houston","state":"TX","address":"16255 SOUTH POST OAK","name":""},
  {"lat":43.477684,"lon":-89.91671,"city":"Rock Springs","state":"WI","address":"103 W BROADWAY","name":""},
  {"lat":29.144403,"lon":-95.648788,"city":"West Columbia","state":"TX","address":"111 W BRAZOS","name":""},
  {"lat":41.901958,"lon":-87.75248,"city":"Chicago","state":"IL","address":"5035 W DIVISION ST","name":""},
  {"lat":41.751945,"lon":-88.344971,"city":"Aurora","state":"IL","address":"1150 PRAIRIE ST","name":""},
  {"lat":34.501148,"lon":-91.540039,"city":"Stuttgart","state":"AR","address":"195 S PARK AVE","name":""},
  {"lat":41.864746,"lon":-87.8088,"city":"Forest Park","state":"IL","address":"7400 ROOSEVELT RD","name":""},
  {"lat":30.277164,"lon":-98.40641,"city":"Johnson City","state":"TX","address":"509 E MAIN ST","name":""},
  {"lat":31.387678,"lon":-92.408707,"city":"Ball","state":"LA","address":"4823 MONROE HWY","name":""},
  {"lat":34.741756,"lon":-86.604584,"city":"Huntsville","state":"AL","address":"1512 PULASKI PIKE NW","name":""},
  {"lat":26.208857,"lon":-80.269005,"city":"Tamarac","state":"FL","address":"6921 NW 88 AVE","name":""},
  {"lat":34.193821,"lon":-79.761406,"city":"Florence","state":"SC","address":"304 E PALMETTO STREET","name":""},
  {"lat":31.261118,"lon":-90.474121,"city":"McComb","state":"MS","address":"203 EDGEWOOD DR","name":""},
  {"lat":32.256332,"lon":-91.745796,"city":"Baskin","state":"LA","address":"1193 LA 15","name":""},
  {"lat":34.311749,"lon":-92.429047,"city":"Sheridan","state":"AR","address":"1819 WEST CENTER","name":""},
  {"lat":42.736065,"lon":-87.838531,"city":"Racine","state":"WI","address":"1215 N GREEN BAY RD","name":""},
  {"lat":43.803932,"lon":-84.385414,"city":"Edenville","state":"MI","address":"6650 M30","name":""},
  {"lat":40.777878,"lon":-73.25898,"city":"Brentwood","state":"NY","address":"400 SUFFOLK AVE","name":""},
  {"lat":41.850311,"lon":-71.064476,"city":"Berkley","state":"MA","address":"34 PADELFORD STREET","name":""},
  {"lat":45.202694,"lon":-84.981949,"city":"Boyne City","state":"MI","address":"1231 M-75Y","name":""},
  {"lat":28.569294,"lon":-81.232582,"city":"Orlando","state":"FL","address":"10520 E COLONIAL DR","name":""},
  {"lat":32.684292,"lon":-97.318848,"city":"Fort Worth","state":"TX","address":"900 E SEMINARY DRIVE","name":""},
  {"lat":41.722374,"lon":-87.605011,"city":"Chicago","state":"IL","address":"9454 S COTTAGE GROVE","name":""},
  {"lat":33.951416,"lon":-78.311279,"city":"Supply","state":"NC","address":"1680 HOLDEN BEACH ROAD","name":""},
  {"lat":30.18663,"lon":-95.14595,"city":"Roman Forest","state":"TX","address":"3202 ROMAN FOREST BLVD","name":""},
  {"lat":30.290371,"lon":-95.339981,"city":"Conroe","state":"TX","address":"11099 FM-1485","name":""},
  {"lat":29.919884,"lon":-95.070007,"city":"Crosby","state":"TX","address":"6424 FM 2100 RD","name":""},
  {"lat":29.720121,"lon":-95.322662,"city":"Houston","state":"TX","address":"5335 GULF FWY","name":""},
  {"lat":29.491964,"lon":-95.026573,"city":"League City","state":"TX","address":"3901 E FM 646","name":""},
  {"lat":32.695145,"lon":-96.893867,"city":"Dallas","state":"TX","address":"4010 SOUTH WALTON WALKER BLVD","name":""},
  {"lat":34.256012,"lon":-88.728645,"city":"Tupelo","state":"MS","address":"1307 W MAIN ST","name":""},
  {"lat":42.638416,"lon":-83.096245,"city":"Rochester","state":"MI","address":"1799 E. AUBURN RD","name":""},
  {"lat":42.719749,"lon":-78.839325,"city":"Hamburg","state":"NY","address":"108 LAKE ST","name":""},
  {"lat":33.580658,"lon":-85.085968,"city":"Carrollton","state":"GA","address":"699 ALABAMA ST","name":""},
  {"lat":33.530235,"lon":-85.253601,"city":"Bowdon","state":"GA","address":"619 TYUS RD","name":""},
  {"lat":43.90266,"lon":-69.623978,"city":"Boothbay","state":"ME","address":"601 WISCASSET RD","name":""},
  {"lat":37.759033,"lon":-77.463814,"city":"Ashland","state":"VA","address":"816 ENGLAND ST","name":""},
  {"lat":29.497128,"lon":-82.295868,"city":"Micanopy","state":"FL","address":"17100 SE COUNTY ROAD 234","name":""},
  {"lat":37.533188,"lon":-79.098442,"city":"Amherst","state":"VA","address":"188 FAULCONERVILLE DR","name":""},
  {"lat":33.549675,"lon":-86.739883,"city":"Birmingham","state":"AL","address":"6601 1st Avenue North","name":""},
  {"lat":34.206448,"lon":-86.87368,"city":"Cullman","state":"AL","address":"5901 AL HWY 157","name":""},
  {"lat":41.624374,"lon":-87.461334,"city":"East Chicago","state":"IN","address":"4901 KENNEDY AVE","name":""},
  {"lat":37.358601,"lon":-121.860748,"city":"San Jose","state":"CA","address":"1705 MCKEE ROAD","name":""},
  {"lat":28.662367,"lon":-81.39077,"city":"Altamonte Springs","state":"FL","address":"201 FL-436","name":""},
  {"lat":31.472902,"lon":-90.893379,"city":"Meadville","state":"MS","address":"50 MAIN ST","name":""},
  {"lat":42.660439,"lon":-84.074722,"city":"Fowlerville","state":"MI","address":"203 W GRAND RIVER AVE","name":""},
  {"lat":42.092636,"lon":-84.247925,"city":"Brooklyn","state":"MI","address":"11700 M-50","name":""},
  {"lat":31.147173,"lon":-83.730164,"city":"Moultrie","state":"GA","address":"1435 HWY 133 SOUTH","name":""},
  {"lat":40.74123,"lon":-73.692406,"city":"New Hyde Park","state":"NY","address":"1011 LAKEVILLE RD","name":""},
  {"lat":32.522423,"lon":-93.755814,"city":"Shreveport","state":"LA","address":"420 N MARKET ST","name":""},
  {"lat":29.692148,"lon":-95.319748,"city":"Houston","state":"TX","address":"6142 LONG DR.","name":""},
  {"lat":39.478378,"lon":-76.249107,"city":"Belcamp","state":"MD","address":"1327 POLICY DR.","name":""},
  {"lat":38.981022,"lon":-80.086327,"city":"Buckhannon","state":"WV","address":"66 MOUNT NEBO RD.","name":""},
  {"lat":40.894051,"lon":-73.824585,"city":"Mount Vernon","state":"NY","address":"767 S COLUMBUS AVE.","name":""},
  {"lat":35.05106,"lon":-80.619064,"city":"Monroe","state":"NC","address":"2700 CHAMBER DRIVE","name":""},
  {"lat":30.502363,"lon":-97.676277,"city":"Round Rock","state":"TX","address":"801 S MAYS STREET","name":""},
  {"lat":43.443668,"lon":-71.592247,"city":"Tilton","state":"NH","address":"311 MAIN ST","name":""},
  {"lat":43.436321,"lon":-71.655853,"city":"Franklin","state":"NH","address":"221 SOUTH MAIN ST","name":""},
  {"lat":35.756199,"lon":-80.34626,"city":"Linwood","state":"NC","address":"1132-1224 SNIDER-KINES RD","name":""},
  {"lat":35.193592,"lon":-92.391312,"city":"Greenbrier","state":"AR","address":"286 S BROADVIEW","name":""},
  {"lat":40.933704,"lon":-74.660805,"city":"Hopatcong","state":"NJ","address":"38 HOPATCHUNG RD.","name":""},
  {"lat":33.605236,"lon":-117.875778,"city":"Corona Del Mar","state":"CA","address":"2201 E COAST HWY","name":""},
  {"lat":34.157951,"lon":-86.836975,"city":"Cullman","state":"AL","address":"1701 CHEROKEE AVE SW","name":""},
  {"lat":34.180553,"lon":-86.847443,"city":"Cullman","state":"AL","address":"415 2ND AVE NW","name":""},
  {"lat":34.170967,"lon":-86.877747,"city":"Cullman","state":"AL","address":"1935 4TH ST SW","name":""},
  {"lat":27.883154,"lon":-98.61763,"city":"Freer","state":"TX","address":"116 E RILEY ST","name":""},
  {"lat":32.217541,"lon":-96.483719,"city":"Rice","state":"TX","address":"2502 SW MCKINNEY ST","name":""},
  {"lat":30.936434,"lon":-99.782875,"city":"Menard","state":"TX","address":"1300 FRISCO ST","name":""},
  {"lat":34.08041,"lon":-86.78582,"city":"Hanceville","state":"AL","address":"926 MAIN ST NE","name":""},
  {"lat":34.207451,"lon":-86.874924,"city":"Cullman","state":"AL","address":"5982 AL-157","name":""},
  {"lat":42.243969,"lon":-73.88652,"city":"Leeds","state":"NY","address":"375 ROUTE 23B","name":""},
  {"lat":37.200104,"lon":-77.333229,"city":"Petersburg","state":"VA","address":"1200 COURTHOUSE RD","name":""},
  {"lat":33.11639,"lon":-85.549362,"city":"Wadley","state":"AL","address":"49265 HIGHWAY 22","name":""},
  {"lat":42.908775,"lon":-73.899246,"city":"Burnt Hills","state":"NY","address":"804 SARATOGA ROAD","name":""},
  {"lat":41.986317,"lon":-72.484482,"city":"Somers","state":"CT","address":"169 MAIN STREET","name":""},
  {"lat":40.89497,"lon":-73.882652,"city":"The Bronx","state":"NY","address":"71 MAJOR DEEGAN EXPRESSWAY","name":""},
  {"lat":41.931042,"lon":-71.42543,"city":"Cumberland","state":"RI","address":"1152 MENDON ROAD","name":""},
  {"lat":41.68845,"lon":-73.180023,"city":"Morris","state":"CT","address":"1 THOMASTON ROAD","name":""},
  {"lat":40.765537,"lon":-73.86232,"city":"Flushing","state":"NY","address":"108-01 GRAND CENTRAL PKWY","name":""},
  {"lat":34.273602,"lon":-83.883659,"city":"Gainesville","state":"GA","address":"3010 MCEVER RD","name":""},
  {"lat":40.725143,"lon":-73.771469,"city":"Hollis","state":"NY","address":"196-03 GRAND CENTRAL PKWY","name":""},
  {"lat":40.767754,"lon":-73.865189,"city":"Flushing","state":"NY","address":"107-02 GRAND CENTRAL PARKWAY EAST","name":""},
  {"lat":40.895134,"lon":-73.881477,"city":"The Bronx","state":"NY","address":"70 MAJOR DEEGAN EXPRESSWAY","name":""},
  {"lat":29.408245,"lon":-94.931053,"city":"Texas City","state":"TX","address":"2502 25TH AVE N","name":""},
  {"lat":32.421127,"lon":-85.040588,"city":"Phenix City","state":"AL","address":"3424 HWY 431","name":""},
  {"lat":31.178366,"lon":-83.776443,"city":"Moultrie","state":"GA","address":"1000 SW 1ST AV","name":""},
  {"lat":42.216175,"lon":-86.108238,"city":"Lawrence","state":"MI","address":"57887 RED ARROW HWY","name":""},
  {"lat":30.20821,"lon":-95.418495,"city":"Conroe","state":"TX","address":"10675 TX-242","name":""},
  {"lat":43.717224,"lon":-87.75721,"city":"Sheboygan","state":"WI","address":"3715 WASHINGTON AVENUE","name":""},
  {"lat":33.828476,"lon":-84.613647,"city":"Austell","state":"GA","address":"5161 AUSTELL ROAD","name":""},
  {"lat":33.76984,"lon":-84.404991,"city":"Atlanta","state":"GA","address":"548 NORTHSIDE DR NW","name":""},
  {"lat":30.070463,"lon":-95.375801,"city":"Spring","state":"TX","address":"25819 CYPRESSWOOD DR","name":""},
  {"lat":42.042053,"lon":-88.282906,"city":"Elgin","state":"IL","address":"180 KIMBALL ST","name":""},
  {"lat":38.648365,"lon":-90.327896,"city":"St. Louis","state":"MO","address":"7360 FORSYTH BLVD","name":""},
  {"lat":47.155708,"lon":-122.468437,"city":"Lakewood","state":"WA","address":"11202 STEELE ST S","name":""},
  {"lat":30.29566,"lon":-94.23983,"city":"Kountze","state":"TX","address":"1456 HIGHWAY 69","name":""},
  {"lat":28.368784,"lon":-80.605988,"city":"Cocoa Beach","state":"FL","address":"5625 N. ATLANTIC AVENUE","name":""},
  {"lat":28.373337,"lon":-80.747032,"city":"Cocoa","state":"FL","address":"1204 DIXON BLVD","name":""},
  {"lat":30.396076,"lon":-96.094543,"city":"Navasota","state":"TX","address":"912 N LA SALLE ST","name":""},
  {"lat":34.186642,"lon":-86.849846,"city":"Cullman","state":"AL","address":"1006 2ND AVE NW","name":""},
  {"lat":36.833321,"lon":-79.396194,"city":"Chatham","state":"VA","address":"302 NORTH MAIN ST","name":""},
  {"lat":29.831455,"lon":-95.84063,"city":"Katy","state":"TX","address":"4011 PITTS RD","name":""},
  {"lat":30.103018,"lon":-95.639595,"city":"Tomball","state":"TX","address":"29733 TOMBALL PARKWAY","name":""},
  {"lat":26.019339,"lon":-81.631508,"city":"Naples","state":"FL","address":"17100 TAMIAMI TRAIL E","name":""},
  {"lat":42.810913,"lon":-78.72216,"city":"Orchard Park","state":"NY","address":"2721 SOUTHWESTERN BLVD","name":""},
  {"lat":43.502106,"lon":-90.679047,"city":"Viola","state":"WI","address":"309 GOMACRO WAY","name":""},
  {"lat":43.723343,"lon":-90.59169,"city":"Ontario","state":"WI","address":"201 N GARDEN ST","name":""},
  {"lat":43.580662,"lon":-91.226433,"city":"Genoa","state":"WI","address":"4050 STATE HIGHWAY 35","name":""},
  {"lat":30.189825,"lon":-96.550743,"city":"Brenham","state":"TX","address":"US-290 W AND FM 1948","name":""},
  {"lat":43.658764,"lon":-90.855919,"city":"Westby","state":"WI","address":"411 N MAIN ST","name":""},
  {"lat":43.574211,"lon":-90.638443,"city":"La Farge","state":"WI","address":"217 W MAIN ST","name":""},
  {"lat":43.654465,"lon":-90.222992,"city":"Wonewoc","state":"WI","address":"300 CENTER ST","name":""},
  {"lat":43.791683,"lon":-90.366348,"city":"Kendall","state":"WI","address":"223 E SOUTH RAILROAD ST","name":""},
  {"lat":41.73893,"lon":-87.818535,"city":"Justice","state":"IL","address":"8359 S ROBERTS RD","name":""},
  {"lat":33.646576,"lon":-85.506035,"city":"Heflin","state":"AL","address":"6658 HWY 46","name":""},
  {"lat":33.670868,"lon":-84.340057,"city":"Conley","state":"GA","address":"3000 MORELAND AVENUE","name":""},
  {"lat":33.719521,"lon":-84.155632,"city":"Lithonia","state":"GA","address":"6429 COVINGTON HWY","name":""},
  {"lat":32.928974,"lon":-85.114433,"city":"West Point","state":"GA","address":"3000 KIA BLVD","name":""},
  {"lat":34.186157,"lon":-83.590729,"city":"Jefferson","state":"GA","address":"1810 DRY POND ROAD","name":""},
  {"lat":34.196709,"lon":-83.887032,"city":"Flowery Branch","state":"GA","address":"4207 MARTIN RD","name":""},
  {"lat":33.552402,"lon":-84.333168,"city":"Jonesboro","state":"GA","address":"7402 MT. ZION BLVD","name":""},
  {"lat":33.608532,"lon":-84.445892,"city":"Atlanta","state":"GA","address":"1697 NORMAN DRIVE","name":""},
  {"lat":38.485119,"lon":-90.767197,"city":"Pacific","state":"MO","address":"2027 W OSAGE ST","name":""},
  {"lat":29.677101,"lon":-98.638054,"city":"San Antonio","state":"TX","address":"25291 IH-10 W","name":""},
  {"lat":33.173843,"lon":-80.207649,"city":"Ridgeville","state":"SC","address":"3147 STATE RD","name":""},
  {"lat":42.878948,"lon":-88.584602,"city":"Palmyra","state":"WI","address":"102 E MAIN ST","name":""},
  {"lat":40.741192,"lon":-73.213974,"city":"Islip","state":"NY","address":"2300 SUNRISE HIGHWAY","name":""},
  {"lat":35.504116,"lon":-93.845421,"city":"Ozark","state":"AR","address":"1605 NORTH 18TH ST","name":""},
  {"lat":34.283783,"lon":-83.847145,"city":"Gainesville","state":"GA","address":"1785 BROWNS BRIDGE RD","name":""},
  {"lat":30.735386,"lon":-98.033813,"city":"Bertram","state":"TX","address":"109 COUNTY ROAD CR 269","name":""},
  {"lat":30.019836,"lon":-98.129799,"city":"Wimberley","state":"TX","address":"2935 JACOBS WELL ROAD","name":""},
  {"lat":35.614326,"lon":-80.832558,"city":"Mooresville","state":"NC","address":"2187 CHARLOTTE HWY","name":""},
  {"lat":42.480091,"lon":-88.2052,"city":"Spring Grove","state":"IL","address":"351 IL ROUTE 173","name":""},
  {"lat":37.728729,"lon":-81.10614,"city":"Daniels","state":"WV","address":"2109 RITTER DRIVE","name":""},
  {"lat":37.017841,"lon":-88.590149,"city":"Paducah","state":"KY","address":"2730 JOHN L PURYEAR DR","name":""},
  {"lat":32.934437,"lon":-80.659431,"city":"Walterboro","state":"SC","address":"2327 JEFFERIES HWY","name":""},
  {"lat":37.310425,"lon":-79.237862,"city":"Evington","state":"VA","address":"18186 LEESVILLE ROAD","name":""},
  {"lat":30.24004,"lon":-95.311356,"city":"Conroe","state":"TX","address":"17000 FM 3083","name":""},
  {"lat":31.105379,"lon":-97.717606,"city":"Killeen","state":"TX","address":"920 S WS YOUNG DR","name":""},
  {"lat":29.382162,"lon":-95.298485,"city":"Alvin","state":"TX","address":"10510 E FM 1462","name":""},
  {"lat":29.343748,"lon":-95.034531,"city":"Hitchcock","state":"TX","address":"7017 FM 2004","name":""},
  {"lat":30.004221,"lon":-97.734604,"city":"Kyle","state":"TX","address":"12968 CAMINO REAL","name":""},
  {"lat":29.529882,"lon":-95.346733,"city":"Pearland","state":"TX","address":"8080 BAILEY RD","name":""},
  {"lat":29.769001,"lon":-95.90065,"city":"Brookshire","state":"TX","address":"30575 KINGSLAND BLVD","name":""},
  {"lat":29.917887,"lon":-95.668999,"city":"Houston","state":"TX","address":"16902 TUCKERTON RD","name":""},
  {"lat":30.135235,"lon":-95.287682,"city":"Porter","state":"TX","address":"21775 FM 1314","name":""},
  {"lat":30.161819,"lon":-95.89801,"city":"Waller","state":"TX","address":"29503 FM 1488","name":""},
  {"lat":34.857754,"lon":-89.6884,"city":"Byhalia","state":"MS","address":"525 HWY 309 S BYHALIA MS","name":""},
  {"lat":34.335934,"lon":-84.383492,"city":"Ball Ground","state":"GA","address":"2880 CANTON HIGHWAY","name":""},
  {"lat":34.711468,"lon":-84.479912,"city":"Ellijay","state":"GA","address":"807 BOARDTOWN ROAD","name":""},
  {"lat":34.612904,"lon":-78.980751,"city":"Lumberton","state":"NC","address":"1925 E 5TH STREET","name":""},
  {"lat":35.555508,"lon":-80.860344,"city":"Mooresville","state":"NC","address":"861 WILLIAMSON ROAD","name":""},
  {"lat":36.389233,"lon":-86.459213,"city":"Gallatin","state":"TN","address":"600 LONG HOLLOW PIKE","name":""},
  {"lat":36.372475,"lon":-86.462158,"city":"Gallatin","state":"TN","address":"377 HANCOCK ST","name":""},
  {"lat":32.993813,"lon":-95.936546,"city":"Lone Oak","state":"TX","address":"412 CHURCH STREE","name":""},
  {"lat":37.498844,"lon":-77.536522,"city":"Richmond","state":"VA","address":"7559 MIDLOTHIAN TURNPIKE","name":""},
  {"lat":41.3008,"lon":-73.916718,"city":"Peekskill","state":"NY","address":"722 N DIVISION ST","name":""},
  {"lat":41.722195,"lon":-87.578629,"city":"Chicago","state":"IL","address":"1839 EAST 95TH ST","name":""},
  {"lat":41.935474,"lon":-88.864243,"city":"Malta","state":"IL","address":"4201 IL ROUTE 38","name":""},
  {"lat":41.930725,"lon":-88.758453,"city":"Dekalb","state":"IL","address":"218 W LINCOLN HWY","name":""},
  {"lat":27.530539,"lon":-97.877724,"city":"Kingsville","state":"TX","address":"730 W CORRAL AVE","name":""},
  {"lat":27.299881,"lon":-81.359123,"city":"Lake Placid","state":"FL","address":"134 US 27N","name":""},
  {"lat":37.285744,"lon":-78.107178,"city":"Jetersville","state":"VA","address":"22501 PATRICK HENRY HWY","name":""},
  {"lat":32.224926,"lon":-95.058769,"city":"Arp","state":"TX","address":"111 S MAIN ST","name":""},
  {"lat":35.020073,"lon":-89.839622,"city":"Memphis","state":"TN","address":"6705 EAST SHELBY DRIVE","name":""},
  {"lat":31.22233,"lon":-90.479172,"city":"McComb","state":"MS","address":"107 North Crossings Drive","name":""},
  {"lat":40.924191,"lon":-73.049141,"city":"Port Jefferson Station","state":"NY","address":"5912 NESCONSET HIGHWAY","name":""},
  {"lat":43.234501,"lon":-86.066864,"city":"Muskegon","state":"MI","address":"7211 E APPLE AVE","name":""},
  {"lat":35.719898,"lon":-79.176537,"city":"Pittsboro","state":"NC","address":"52 EAST ST","name":""},
  {"lat":33.932064,"lon":-84.152519,"city":"Norcross","state":"GA","address":"1649 BEAVER RUIN ROAD","name":""},
  {"lat":30.625137,"lon":-96.377701,"city":"Bryan","state":"TX","address":"1910 LA BRISA DRIVE","name":""},
  {"lat":34.590515,"lon":-87.030342,"city":"Decatur","state":"AL","address":"2401 BELTLINE RD SW","name":""},
  {"lat":33.603065,"lon":-83.855728,"city":"Covington","state":"GA","address":"3251 US-278 NE","name":""},
  {"lat":30.234659,"lon":-92.10717,"city":"Scott","state":"LA","address":"6337 CAMERON ST","name":""},
  {"lat":33.976913,"lon":-80.540855,"city":"Sumter","state":"SC","address":"1290 N KINGS HWY","name":""},
  {"lat":42.998627,"lon":-85.639954,"city":"Grand Rapids","state":"MI","address":"1965 FULLER AVE NE","name":""},
  {"lat":32.825363,"lon":-96.355614,"city":"Rockwall","state":"TX","address":"10689 S STATE HIGHWAY 205","name":""},
  {"lat":26.644089,"lon":-80.113129,"city":"West","state":"FL","address":"2269 S.MILITARY TRAIL","name":""},
  {"lat":26.526686,"lon":-80.099136,"city":"Boynton Beach","state":"FL","address":"3510 WEST BOYNTON BLVD","name":""},
  {"lat":27.198557,"lon":-80.830742,"city":"Okeechobee","state":"FL","address":"4993 US HIGHWAY 441 SOUTH","name":""},
  {"lat":27.207182,"lon":-81.330864,"city":"Lake Placid","state":"FL","address":"2758 US HWY NO. 27","name":""},
  {"lat":34.11475,"lon":-80.941734,"city":"Columbia","state":"SC","address":"2502 HARD SCRABBLE RD","name":""},
  {"lat":42.726765,"lon":-72.435455,"city":"Winchester","state":"NH","address":"860 MANNING HILL ROAD","name":""},
  {"lat":40.935135,"lon":-73.885803,"city":"Yonkers","state":"NY","address":"102 YONKERS AVE","name":""},
  {"lat":34.96883,"lon":-89.794731,"city":"Olive Branch","state":"MS","address":"7532 HACKS CROSS ROAD","name":""},
  {"lat":26.512125,"lon":-80.122643,"city":"Boynton Beach","state":"FL","address":"11190 S. MILITARY TRAIL","name":""},
  {"lat":33.936089,"lon":-80.44162,"city":"Sumter","state":"SC","address":"3880 PATRIOT PKWY","name":""},
  {"lat":35.044842,"lon":-89.633499,"city":"Piperton","state":"TN","address":"530 TENNESSEE 57","name":""},
  {"lat":42.831551,"lon":-77.896156,"city":"Piffard","state":"NY","address":"3667 MAIN ST","name":""},
  {"lat":35.751881,"lon":-78.630905,"city":"Raleigh","state":"NC","address":"2121 GARNER RD","name":""},
  {"lat":41.928013,"lon":-87.76593,"city":"Chicago","state":"IL","address":"2611 N CENTRAL AVE","name":""},
  {"lat":37.622967,"lon":-79.111763,"city":"Amherst","state":"VA","address":"1869 LEXINGTON TPKE","name":""},
  {"lat":31.808773,"lon":-94.192886,"city":"Center","state":"TX","address":"1013 HURST ST.","name":""},
  {"lat":31.487003,"lon":-97.171806,"city":"Waco","state":"TX","address":"6435 BAGBY AVE","name":""},
  {"lat":39.597855,"lon":-76.832024,"city":"Trenton","state":"MD","address":"625 HANOVER PIKE","name":""},
  {"lat":36.22617,"lon":-83.254318,"city":"Morristown","state":"TN","address":"152 MILLERS LANDING BLVD","name":""},
  {"lat":26.691599,"lon":-80.112259,"city":"West","state":"FL","address":"959 N MILITARY TRAIL","name":""},
  {"lat":42.292141,"lon":-73.85331,"city":"Athens","state":"NY","address":"9815 US 9W","name":""},
  {"lat":35.001091,"lon":-85.292595,"city":"Chattanooga","state":"TN","address":"3701 ROSSVILLE BLVD","name":""},
  {"lat":34.67342,"lon":-86.023506,"city":"Scottsboro","state":"AL","address":"102 VETERANS DR","name":""},
  {"lat":39.967422,"lon":-74.685257,"city":"Pemberton","state":"NJ","address":"211 HANOVER STREET","name":""},
  {"lat":40.684563,"lon":-74.103706,"city":"Bayonne","state":"NJ","address":"1064 AVENUE C","name":""},
  {"lat":39.38718,"lon":-74.537003,"city":"Pleasantville","state":"NJ","address":"910 S NEW ROAD","name":""},
  {"lat":26.707491,"lon":-80.156624,"city":"West","state":"FL","address":"6950 OKEECHOBEE BLVD","name":""},
  {"lat":27.630823,"lon":-81.825493,"city":"Bowling Green","state":"FL","address":"4129 US HIGHWAY 17 N","name":""},
  {"lat":36.133144,"lon":-81.671989,"city":"Blowing Rock","state":"NC","address":"7816 VALLEY BLVD","name":""},
  {"lat":30.51812,"lon":-91.177315,"city":"Baton Rouge","state":"LA","address":"7776 SCENIC HWY","name":""},
  {"lat":40.745979,"lon":-73.933685,"city":"Long Island City","state":"NY","address":"31-05 QUEENS BOULEVARD","name":""},
  {"lat":32.752884,"lon":-89.538239,"city":"Carthage","state":"MS","address":"1310 HIGHWAY 35 N","name":""},
  {"lat":42.054104,"lon":-71.298615,"city":"Wrentham","state":"MA","address":"500 THURSTON ST","name":""},
  {"lat":42.431728,"lon":-73.315781,"city":"Pittsfield","state":"MA","address":"1475 W HOUSATONIC STREET","name":""},
  {"lat":27.520979,"lon":-82.575333,"city":"Palmetto","state":"FL","address":"920 10TH AVE W","name":""},
  {"lat":32.809467,"lon":-83.744965,"city":"Macon","state":"GA","address":"5730 COLUMBUS ROAD","name":""},
  {"lat":38.012344,"lon":-77.334755,"city":"Milford","state":"VA","address":"18209 RICHMOND TURNPIKE","name":""},
  {"lat":33.385509,"lon":-84.819847,"city":"Newnan","state":"GA","address":"2 FRANKLIN RD","name":""},
  {"lat":33.966499,"lon":-84.537636,"city":"Marietta","state":"GA","address":"619 FAIRGROUND ST. NE","name":""},
  {"lat":30.303457,"lon":-81.63121,"city":"Jacksonville","state":"FL","address":"3260 BEACH BLVD","name":""},
  {"lat":41.887871,"lon":-87.863441,"city":"Bellwood","state":"IL","address":"2418 ST CHARLES RD","name":""},
  {"lat":41.567627,"lon":-87.558418,"city":"Lansing","state":"IL","address":"18025 TORRENCE AVE","name":""},
  {"lat":41.791023,"lon":-87.809166,"city":"Summit","state":"IL","address":"7455 W ARCHER","name":""},
  {"lat":41.611477,"lon":-88.041306,"city":"Lockport","state":"IL","address":"1228 STATE STREET","name":""},
  {"lat":41.735149,"lon":-87.692162,"city":"Evergreen Park","state":"IL","address":"2755 W 87TH","name":""},
  {"lat":41.735035,"lon":-87.692818,"city":"Evergreen Park","state":"IL","address":"2801 W 87TH ST","name":""},
  {"lat":42.072178,"lon":-87.722435,"city":"Wilmette","state":"IL","address":"1837 WILMETTE AVE","name":""},
  {"lat":41.719933,"lon":-87.76767,"city":"Oak Lawn","state":"IL","address":"5870 W. 95TH STREET","name":""},
  {"lat":41.907837,"lon":-87.893066,"city":"Northlake","state":"IL","address":"300 E NORTH AVE","name":""},
  {"lat":35.409851,"lon":-82.513718,"city":"Fletcher","state":"NC","address":"5411 HENDERSONVILLE RD","name":""},
  {"lat":32.397331,"lon":-94.878014,"city":"Kilgore","state":"TX","address":"206 TX-31","name":""},
  {"lat":42.182083,"lon":-88.424072,"city":"Huntley","state":"IL","address":"10111 ROUTE 47","name":""},
  {"lat":41.900711,"lon":-87.856697,"city":"Melrose Park","state":"IL","address":"1503 BROADWAY AVE","name":""},
  {"lat":41.730484,"lon":-87.663162,"city":"Chicago","state":"IL","address":"8950 S ASHLAND AVE.","name":""},
  {"lat":41.881939,"lon":-87.882927,"city":"Bellwood","state":"IL","address":"545 MANNHEIM RD","name":""},
  {"lat":33.901237,"lon":-84.379097,"city":"Atlanta","state":"GA","address":"5345 ROSWELL RD","name":""},
  {"lat":35.90844,"lon":-89.260399,"city":"Friendship","state":"TN","address":"9013 HWY 412","name":""},
  {"lat":42.613045,"lon":-73.728012,"city":"Rensselaer","state":"NY","address":"295 COLUMBIA TURNPIKE","name":""},
  {"lat":36.557537,"lon":-86.239937,"city":"Westmoreland","state":"TN","address":"5294 HIGHWAY 31E","name":""},
  {"lat":36.060341,"lon":-86.715935,"city":"Nashville","state":"TN","address":"5016 NOLENSVILLE PIKE","name":""},
  {"lat":36.38789,"lon":-86.498573,"city":"Gallatin","state":"TN","address":"1174 LONG HOLLOW PIKE","name":""},
  {"lat":36.31543,"lon":-87.675156,"city":"Erin","state":"TN","address":"6565 HIGHWAY 13","name":""},
  {"lat":36.42881,"lon":-86.804916,"city":"Greenbrier","state":"TN","address":"2561 HIGHWAY 41","name":""},
  {"lat":36.177811,"lon":-86.749817,"city":"Nashville","state":"TN","address":"1101 WOODLAND ST","name":""},
  {"lat":36.056179,"lon":-88.114616,"city":"Camden","state":"TN","address":"281 W. MAIN ST","name":""},
  {"lat":36.344543,"lon":-86.718269,"city":"Goodlettsville","state":"TN","address":"848 LOUISVILLE HIGHWAY","name":""},
  {"lat":27.24942,"lon":-80.797501,"city":"Okeechobee","state":"FL","address":"3007 FL-70 E","name":""},
  {"lat":36.359287,"lon":-86.438904,"city":"Gallatin","state":"TN","address":"1303 SOUTH WATER AVE","name":""},
  {"lat":37.344482,"lon":-77.979149,"city":"Amelia Court House","state":"VA","address":"16340 GOODES BRIDGE ROAD","name":""},
  {"lat":37.358295,"lon":-77.887077,"city":"Amelia Court House","state":"VA","address":"11901 PATRICK HENRY HWY","name":""},
  {"lat":29.813297,"lon":-95.564651,"city":"Houston","state":"TX","address":"2303 W. SAM HOUSTON PARKWAY","name":""},
  {"lat":44.71719,"lon":-108.861328,"city":"Ralston","state":"WY","address":"492A MAIN STREET","name":""},
  {"lat":35.816837,"lon":-86.774757,"city":"Franklin","state":"TN","address":"4778 PEYTONSVILLE RD","name":""},
  {"lat":30.363411,"lon":-95.671677,"city":"Montgomery","state":"TX","address":"20985 FM 2854 RD.","name":""},
  {"lat":40.806942,"lon":-73.248436,"city":"Brentwood","state":"NY","address":"642 MOTOR PARKWAY","name":""},
  {"lat":42.763138,"lon":-73.748848,"city":"Latham","state":"NY","address":"616 COLUMBIA STREET EXTENSION","name":""},
  {"lat":32.940701,"lon":-97.098938,"city":"Grapevine","state":"TX","address":"2041 W NORTHWEST HWY","name":""},
  {"lat":35.735813,"lon":-79.661255,"city":"Ramseur","state":"NC","address":"6320 JORDAN RD","name":""},
  {"lat":33.192684,"lon":-97.12455,"city":"Denton","state":"TX","address":"1700 TEASLEY LANE","name":""},
  {"lat":30.482855,"lon":-90.917892,"city":"Denham Springs","state":"LA","address":"8404 FLORIDA BOULEVARD","name":""},
  {"lat":29.798273,"lon":-95.801292,"city":"Katy","state":"TX","address":"1744 KATY FORT BEND RD","name":""},
  {"lat":38.079937,"lon":-88.175865,"city":"Carmi","state":"IL","address":"1109 W. MAIN ST.","name":""},
  {"lat":27.712124,"lon":-81.561348,"city":"Frostproof","state":"FL","address":"5320 US 27 S","name":""},
  {"lat":36.123199,"lon":-80.178856,"city":"Winston Salem","state":"NC","address":"4206 REIDSVILLE ROAD, WINSTON SALEM","name":""},
  {"lat":34.84288,"lon":-92.375755,"city":"Maumelle","state":"AR","address":"9340 WHITE OAK CROSSING","name":""},
  {"lat":32.63266,"lon":-80.873711,"city":"Yemassee","state":"SC","address":"698 KINGS HWY","name":""},
  {"lat":43.404495,"lon":-72.412552,"city":"Ascutney","state":"VT","address":"301 VT-131","name":""},
  {"lat":41.882816,"lon":-71.028168,"city":"East Taunton","state":"MA","address":"508 MIDDLEBORO AVE","name":""},
  {"lat":30.365263,"lon":-91.066284,"city":"Baton Rouge","state":"LA","address":"13796 PERKINS RD","name":""},
  {"lat":40.84552,"lon":-74.162674,"city":"Clifton","state":"NJ","address":"630 ALLWOOD ROAD","name":""},
  {"lat":42.185829,"lon":-86.305878,"city":"Coloma","state":"MI","address":"121 S CHURCH ST","name":""},
  {"lat":42.559513,"lon":-72.042892,"city":"East Templeton","state":"MA","address":"198 PATRIOTS ROAD","name":""},
  {"lat":30.301579,"lon":-81.394188,"city":"Jacksonville Beach","state":"FL","address":"1403 N 3rd St","name":""},
  {"lat":36.608448,"lon":-87.377739,"city":"Clarksville","state":"TN","address":"2155 PEACHERS MILL RD","name":""},
  {"lat":32.754074,"lon":-96.439682,"city":"Forney","state":"TX","address":"1150 FM-548","name":""},
  {"lat":28.552452,"lon":-81.475464,"city":"Orlando","state":"FL","address":"6999 W COLONIAL DR","name":""},
  {"lat":29.834127,"lon":-82.598091,"city":"High Springs","state":"FL","address":"19531 US Hwy 441","name":""},
  {"lat":32.279121,"lon":-95.748932,"city":"Murchison","state":"TX","address":"6551 HWY 31 E","name":""},
  {"lat":42.281975,"lon":-83.766731,"city":"Ann Arbor","state":"MI","address":"1500 JACKSON AVE","name":""},
  {"lat":30.329603,"lon":-95.340134,"city":"Conroe","state":"TX","address":"750 WAUKEGAN RD","name":""},
  {"lat":31.395039,"lon":-97.207375,"city":"Lorena","state":"TX","address":"12016 S IH 35","name":""},
  {"lat":33.628689,"lon":-96.419846,"city":"Bells","state":"TX","address":"1202 N PECAN STREET","name":""},
  {"lat":32.599678,"lon":-117.051926,"city":"Chula Vista","state":"CA","address":"1500 HILLTOP DR","name":""},
  {"lat":32.752979,"lon":-97.699814,"city":"Hudson Oaks","state":"TX","address":"3196 I-20 SERVICE RD","name":""},
  {"lat":35.050926,"lon":-89.886192,"city":"Memphis","state":"TN","address":"3580 S. MENDENHALL RD","name":""},
  {"lat":36.411724,"lon":-80.498199,"city":"Pilot Mountain","state":"NC","address":"3175 COOK SCHOOL RD","name":""},
  {"lat":29.839979,"lon":-95.156197,"city":"Houston","state":"TX","address":"15110 CROSBY FRWY","name":""},
  {"lat":30.08424,"lon":-95.243546,"city":"Porter","state":"TX","address":"24980 US HWY 59","name":""},
  {"lat":30.066097,"lon":-93.213799,"city":"Lake Charles","state":"LA","address":"9346 GULF HWY","name":""},
  {"lat":35.607204,"lon":-91.237717,"city":"Newport","state":"AR","address":"3201 STEGALL RD","name":""},
  {"lat":35.250206,"lon":-93.035278,"city":"Pottsville","state":"AR","address":"I-40 AND AR 363","name":""},
  {"lat":35.675289,"lon":-90.522087,"city":"Trumann","state":"AR","address":"301 AR-463","name":""},
  {"lat":35.906895,"lon":-90.588921,"city":"Brookland","state":"AR","address":"8039 HIGHWAY 49","name":""},
  {"lat":35.609653,"lon":-90.330811,"city":"Lepanto","state":"AR","address":"404 GREENWOOD","name":""},
  {"lat":35.741806,"lon":-90.566284,"city":"Bay","state":"AR","address":"108 N BAY DRIVE","name":""},
  {"lat":35.56522,"lon":-90.930008,"city":"Waldenburg","state":"AR","address":"7974 HIGHWAY 49","name":""},
  {"lat":34.183029,"lon":-93.071274,"city":"Arkadelphia","state":"AR","address":"147 EAST VALLEY","name":""},
  {"lat":34.293739,"lon":-91.324287,"city":"de Witt","state":"AR","address":"207 S WHITEHEAD DR","name":""},
  {"lat":35.678959,"lon":-90.518883,"city":"Trumann","state":"AR","address":"800 WEST SPEEDWAY","name":""},
  {"lat":36.052517,"lon":-90.480743,"city":"Paragould","state":"AR","address":"420 E KINGS HWY","name":""},
  {"lat":30.188454,"lon":-93.187935,"city":"Lake Charles","state":"LA","address":"3999 5TH AVE","name":""},
  {"lat":42.595291,"lon":-87.835342,"city":"Kenosha","state":"WI","address":"4433 22ND AVE","name":""},
  {"lat":32.727852,"lon":-116.90995,"city":"Spring Valley","state":"CA","address":"12868 CAMPO RD","name":""},
  {"lat":41.78677,"lon":-87.649483,"city":"Chicago","state":"IL","address":"5901 S MORGAN ST","name":""},
  {"lat":29.071606,"lon":-81.305016,"city":"Deland","state":"FL","address":"2201 N WOODLAND BLVD","name":""},
  {"lat":33.182907,"lon":-94.733681,"city":"Omaha","state":"TX","address":"203 WHITE OAK AVE","name":""},
  {"lat":33.724014,"lon":-84.392838,"city":"Atlanta","state":"GA","address":"1152 PRYOR RD SW","name":""},
  {"lat":34.513008,"lon":-84.935638,"city":"Calhoun","state":"GA","address":"101 NEWTOWN ROAD NE","name":""},
  {"lat":34.503551,"lon":-84.924652,"city":"Calhoun","state":"GA","address":"1206 DEWS POND RD NE","name":""},
  {"lat":33.54369,"lon":-84.217339,"city":"Stockbridge","state":"GA","address":"4150 N HENRY BLVD","name":""},
  {"lat":34.883602,"lon":-79.37085,"city":"Wagram","state":"NC","address":"24000 MAIN STREET","name":""},
  {"lat":26.555979,"lon":-98.121712,"city":"Edinburg","state":"TX","address":"36188 NORTH EXPRESSWAY 281","name":""},
  {"lat":36.673275,"lon":-79.746094,"city":"Axton","state":"VA","address":"58 Food Corner","name":""},
  {"lat":36.055855,"lon":-83.971008,"city":"Knoxville","state":"TN","address":"1325 EAST BEAVER CREEK ROAD","name":""},
  {"lat":34.147762,"lon":-84.908455,"city":"Cartersville","state":"GA","address":"851 EUHARLEE ROAD","name":""},
  {"lat":29.926233,"lon":-94.250259,"city":"Beaumont","state":"TX","address":"19216 FM 365","name":""},
  {"lat":32.506493,"lon":-92.269402,"city":"West","state":"LA","address":"715 CAMP RD","name":""},
  {"lat":32.58326,"lon":-93.893417,"city":"Shreveport","state":"LA","address":"139 MAIN ST","name":""},
  {"lat":35.19413,"lon":-77.41011,"city":"Dover","state":"NC","address":"6041 US HIGHWAY 70","name":""},
  {"lat":35.277027,"lon":-77.563469,"city":"Kinston","state":"NC","address":"1502 GREENVILLE HWY","name":""},
  {"lat":35.114487,"lon":-77.094803,"city":"New Bern","state":"NC","address":"1509 S. GLENBURNIE ROAD","name":""},
  {"lat":32.924358,"lon":-96.736092,"city":"Dallas","state":"TX","address":"13010 ABRAMS RD","name":""},
  {"lat":41.881027,"lon":-87.738358,"city":"Chicago","state":"IL","address":"10 N KILBOURN AVE","name":""},
  {"lat":42.048946,"lon":-84.272865,"city":"Brooklyn","state":"MI","address":"14335 US HIGHWAY 12","name":""},
  {"lat":33.104034,"lon":-80.285698,"city":"Ridgeville","state":"SC","address":"614 HIGHWAY 78","name":""},
  {"lat":43.234802,"lon":-108.110229,"city":"Shoshoni","state":"WY","address":"110 W 2ND STREET","name":""},
  {"lat":47.543797,"lon":-122.386642,"city":"Seattle","state":"WA","address":"6540 CALIFORNIA AVE S","name":""},
  {"lat":34.192207,"lon":-79.767555,"city":"Florence","state":"SC","address":"320 S IRBY ST","name":""},
  {"lat":33.370377,"lon":-96.76664,"city":"Celina","state":"TX","address":"3722 N PRESTON RD","name":""},
  {"lat":33.275383,"lon":-96.813782,"city":"Prosper","state":"TX","address":"3608 S DALLAS PKWY","name":""},
  {"lat":34.107563,"lon":-117.209221,"city":"Highland","state":"CA","address":"8020 PALM AVE","name":""},
  {"lat":41.922165,"lon":-83.40786,"city":"Monroe","state":"MI","address":"919 W ELM ST","name":""},
  {"lat":42.756145,"lon":-84.54348,"city":"Lansing","state":"MI","address":"2100 N LARCH ST.","name":""},
  {"lat":29.945866,"lon":-95.465782,"city":"Houston","state":"TX","address":"11242 VETERANS MEMORIAL DR","name":""},
  {"lat":36.780388,"lon":-80.71302,"city":"Hillsville","state":"VA","address":"301 SYLVATUS HWY","name":""},
  {"lat":44.99929,"lon":-73.330101,"city":"Alburgh","state":"VT","address":"3030 US RT 2 NORTH","name":""},
  {"lat":36.839363,"lon":-80.586891,"city":"Dugspur","state":"VA","address":"10287 FLOYD PIKE","name":""},
  {"lat":37.367443,"lon":-79.910454,"city":"Roanoke","state":"VA","address":"1338 LEE HIGHWAY","name":""},
  {"lat":37.380215,"lon":-79.719772,"city":"Montvale","state":"VA","address":"10761 WEST MONTVALE LYNCHBURG","name":""},
  {"lat":42.059898,"lon":-83.379837,"city":"Carleton","state":"MI","address":"12710 GRAFTON RD","name":""},
  {"lat":42.0047,"lon":-84.349281,"city":"Addison","state":"MI","address":"8311 US 127","name":""},
  {"lat":36.130081,"lon":-90.511101,"city":"Paragould","state":"AR","address":"5829 Hwy 135 N","name":""},
  {"lat":40.798401,"lon":-73.516197,"city":"Syosset","state":"NY","address":"297 Robbins Lane","name":""},
  {"lat":34.01606,"lon":-117.038475,"city":"Yucaipa","state":"CA","address":"35112 Wildwood Canyon Dr","name":""},
  {"lat":41.856998,"lon":-88.160507,"city":"Winfield","state":"IL","address":"27W572 Roosevelt Rd","name":""},
  {"lat":32.943729,"lon":-80.617783,"city":"Walterboro","state":"SC","address":"1941 SIDNEYS ROAD","name":""},
  {"lat":36.021389,"lon":-79.360817,"city":"Graham","state":"NC","address":"1101 E MAIN ST","name":""},
  {"lat":32.843395,"lon":-97.186798,"city":"Hurst","state":"TX","address":"1635 PRECINCT LINE RD","name":""},
  {"lat":27.585833,"lon":-80.414696,"city":"Vero Beach","state":"FL","address":"975 27TH AVENUE","name":""},
  {"lat":30.066006,"lon":-95.89212,"city":"Waller","state":"TX","address":"30010 FM 2920 RD","name":""},
  {"lat":29.853575,"lon":-95.185707,"city":"Houston","state":"TX","address":"8930 E SAM HOUSTON PARKWAY","name":""},
  {"lat":30.079756,"lon":-95.681564,"city":"Tomball","state":"TX","address":"16848 FM 2920 Rd.","name":""},
  {"lat":30.093803,"lon":-95.577003,"city":"Tomball","state":"TX","address":"10002 FM-2920","name":""},
  {"lat":34.004669,"lon":-86.113976,"city":"Attalla","state":"AL","address":"1525 3RD STREET SW","name":""},
  {"lat":37.347042,"lon":-120.611443,"city":"Atwater","state":"CA","address":"1401 ATWATER BLVD","name":""},
  {"lat":33.476173,"lon":-94.289139,"city":"Hooks","state":"TX","address":"902 N MAIN ST","name":""},
  {"lat":28.619318,"lon":-81.313683,"city":"Winter Park","state":"FL","address":"1735 STATE ROAD 436","name":""},
  {"lat":28.721691,"lon":-81.336868,"city":"Longwood","state":"FL","address":"1823 LONGWOOD LAKE MARY ROAD","name":""},
  {"lat":32.096668,"lon":-81.143929,"city":"Savannah","state":"GA","address":"305 US HIGHWAY 80 W","name":""},
  {"lat":34.230522,"lon":-84.855774,"city":"Cartersville","state":"GA","address":"1348 CASSVILLE RD NW","name":""},
  {"lat":26.593098,"lon":-80.052643,"city":"Lake Worth","state":"FL","address":"874 N DIXIE HWY","name":""},
  {"lat":34.887592,"lon":-117.02227,"city":"Barstow","state":"CA","address":"913 BARSTOW RD","name":""},
  {"lat":42.21777,"lon":-73.874451,"city":"Catskill","state":"NY","address":"72 MAPLE AVE","name":""},
  {"lat":41.140003,"lon":-73.348869,"city":"Westport","state":"CT","address":"485 POST ROAD EAST","name":""},
  {"lat":37.059231,"lon":-80.744461,"city":"Pulaski","state":"VA","address":"1865 BOB WHITE BLVD","name":""},
  {"lat":32.282459,"lon":-83.467293,"city":"Hawkinsville","state":"GA","address":"86 BROAD STREET","name":""},
  {"lat":33.916157,"lon":-81.513573,"city":"Leesville","state":"SC","address":"371 E COLUMBIA AVE","name":""},
  {"lat":36.004871,"lon":-79.391426,"city":"Graham","state":"NC","address":"3006 NC HWY 87 S","name":""},
  {"lat":30.335894,"lon":-81.75811,"city":"Jacksonville","state":"FL","address":"6745 Commonwealth Ave","name":""},
  {"lat":34.173065,"lon":-81.36898,"city":"Chapin","state":"SC","address":"1855 Chapin Road","name":""},
  {"lat":29.757589,"lon":-95.375565,"city":"Houston","state":"TX","address":"705 W DALLAS ST","name":""},
  {"lat":32.988789,"lon":-96.575081,"city":"Sachse","state":"TX","address":"7410 HWY 78","name":""},
  {"lat":32.748005,"lon":-94.940002,"city":"Gilmer","state":"TX","address":"1117 US HIGHWAY 271 N","name":""},
  {"lat":42.343887,"lon":-83.19593,"city":"Dearborn","state":"MI","address":"15430 W WARREN AVE","name":""},
  {"lat":42.045979,"lon":-88.260651,"city":"Elgin","state":"IL","address":"789 SUMMIT ST","name":""},
  {"lat":30.109001,"lon":-94.190552,"city":"Beaumont","state":"TX","address":"3529 N MAJOR DR","name":""},
  {"lat":29.907745,"lon":-93.920959,"city":"Port Arthur","state":"TX","address":"3649 GULFWAY DR","name":""},
  {"lat":30.066578,"lon":-94.19014,"city":"Beaumont","state":"TX","address":"910 S MAJOR DR","name":""},
  {"lat":29.93948,"lon":-93.925743,"city":"Groves","state":"TX","address":"5410 W PARKWAY ST","name":""},
  {"lat":29.960995,"lon":-93.904747,"city":"Groves","state":"TX","address":"3911 PURE ATLANTIC RD","name":""},
  {"lat":30.119522,"lon":-94.16777,"city":"Beaumont","state":"TX","address":"4095 DOWLEN RD","name":""},
  {"lat":30.117229,"lon":-94.144341,"city":"Beaumont","state":"TX","address":"3980 EASTEX FREEWAY","name":""},
  {"lat":30.324785,"lon":-94.16655,"city":"Silsbee","state":"TX","address":"3025 US HIGHWAY 96 N","name":""},
  {"lat":30.076031,"lon":-94.172112,"city":"Beaumont","state":"TX","address":"255 DOWLEN RD","name":""},
  {"lat":32.915722,"lon":-96.639755,"city":"Garland","state":"TX","address":"730 W WALNUT STREET","name":""},
  {"lat":30.034515,"lon":-94.064163,"city":"Beaumont","state":"TX","address":"1755 E CARDINAL HIGHWAY 69","name":""},
  {"lat":30.035011,"lon":-94.099121,"city":"Beaumont","state":"TX","address":"1650 W CARDINAL DR","name":""},
  {"lat":29.971067,"lon":-94.024033,"city":"Nederland","state":"TX","address":"2357 HIGHWAY 69 N","name":""},
  {"lat":32.20615,"lon":-90.150253,"city":"Richland","state":"MS","address":"285 CLEARY RD","name":""},
  {"lat":41.063705,"lon":-73.775551,"city":"White Plains","state":"NY","address":"71 VIRGINIA RD","name":""},
  {"lat":29.460922,"lon":-98.401596,"city":"San Antonio","state":"TX","address":"4610 SEGUIN RD","name":""},
  {"lat":29.643021,"lon":-95.397148,"city":"Houston","state":"TX","address":"1898 AIRPORT BLVD","name":""},
  {"lat":40.767506,"lon":-72.986465,"city":"Patchogue","state":"NY","address":"770 MONTAUK HWY","name":""},
  {"lat":40.692719,"lon":-73.631477,"city":"Hempstead","state":"NY","address":"797 PENINSULA BOULEVARD","name":""},
  {"lat":41.824753,"lon":-87.744675,"city":"Cicero","state":"IL","address":"3738 S CICERO AVE","name":""},
  {"lat":30.14864,"lon":-81.756821,"city":"Orange Park","state":"FL","address":"686 BLANDING BLVD","name":""},
  {"lat":40.546196,"lon":-74.277374,"city":"Woodbridge","state":"NJ","address":"154 AMBOY AVE","name":""},
  {"lat":33.766899,"lon":-117.85112,"city":"Santa Ana","state":"CA","address":"2231 GRAND AVE","name":""},
  {"lat":42.566017,"lon":-112.177231,"city":"Arimo","state":"ID","address":"290 N MEADOWVIEW DR","name":""},
  {"lat":29.187248,"lon":-82.126778,"city":"Ocala","state":"FL","address":"963 E. SILVER SPRINGS BLVD","name":""},
  {"lat":29.257057,"lon":-81.117462,"city":"Ormond Beach","state":"FL","address":"1629 W GRANADA BLVD","name":""},
  {"lat":28.526329,"lon":-81.425827,"city":"Orlando","state":"FL","address":"1205 BRUTON BLVD","name":""},
  {"lat":36.8918,"lon":-79.399406,"city":"Chatham","state":"VA","address":"22076 U.S. HIGHWAY 29","name":""},
  {"lat":26.691559,"lon":-80.174706,"city":"West","state":"FL","address":"8000 BLEVEDERE RD","name":""},
  {"lat":36.257282,"lon":-90.973083,"city":"Pocahontas","state":"AR","address":"647 US-67","name":""},
  {"lat":42.359535,"lon":-87.869194,"city":"Waukegan","state":"IL","address":"2720 WASHINGTON ST","name":""},
  {"lat":43.58712,"lon":-88.428795,"city":"Lomira","state":"WI","address":"211 CHURCH ST","name":""},
  {"lat":39.666553,"lon":-77.700432,"city":"Hagerstown","state":"MD","address":"19348 LEITERSBURG PIKE","name":""},
  {"lat":34.262417,"lon":-92.106392,"city":"White Hall","state":"AR","address":"8539 SHERIDAN ROAD","name":""},
  {"lat":33.902168,"lon":-84.205353,"city":"Norcross","state":"GA","address":"5297 SINGLETON RD NW","name":""},
  {"lat":30.601585,"lon":-97.686768,"city":"Georgetown","state":"TX","address":"4601 S IH 35","name":""},
  {"lat":33.134014,"lon":-96.054451,"city":"Greenville","state":"TX","address":"3004 I-30","name":""},
  {"lat":30.177092,"lon":-93.154419,"city":"Lake Charles","state":"LA","address":"3170 E MCNEESE ST.","name":""},
  {"lat":40.654427,"lon":-74.212219,"city":"Elizabeth","state":"NJ","address":"419 US HIGHWAY 1","name":""},
  {"lat":34.015408,"lon":-84.493011,"city":"Marietta","state":"GA","address":"2690 SANDY PLAINS ROAD","name":""},
  {"lat":29.821617,"lon":-94.832405,"city":"Baytown","state":"TX","address":"8711 FM ROAD 1409","name":""},
  {"lat":32.194553,"lon":-81.029488,"city":"Hardeeville","state":"SC","address":"3522 SOUTH OKATIE HWY","name":""},
  {"lat":32.817867,"lon":-83.709518,"city":"Macon","state":"GA","address":"4691 LOG CABIN DRIVE","name":""},
  {"lat":32.692741,"lon":-97.332031,"city":"Fort Worth","state":"TX","address":"3800 HEMPHILL ST","name":""},
  {"lat":35.768169,"lon":-86.522194,"city":"Rockvale","state":"TN","address":"8050 HWY 99","name":""},
  {"lat":33.20034,"lon":-87.577736,"city":"Tuscaloosa","state":"AL","address":"1500 MARTIN LUTHER KING JR. BLVD","name":""},
  {"lat":44.473957,"lon":-72.697197,"city":"Stowe","state":"VT","address":"968 MOUNTAIN RD","name":""},
  {"lat":44.166893,"lon":-73.253967,"city":"Vergennes","state":"VT","address":"2 S WATER STREET","name":""},
  {"lat":41.531372,"lon":-88.071991,"city":"Joliet","state":"IL","address":"334 COLLINS ST","name":""},
  {"lat":32.332428,"lon":-95.281937,"city":"Tyler","state":"TX","address":"1527 E 5TH ST","name":""},
  {"lat":32.542473,"lon":-92.711746,"city":"Grambling","state":"LA","address":"1130 RWE JONES DRIVE","name":""},
  {"lat":34.770432,"lon":-82.575027,"city":"Easley","state":"SC","address":"2904 PELZER HWY","name":""},
  {"lat":34.535618,"lon":-82.608826,"city":"Anderson","state":"SC","address":"2401 OLD WILLIAMSTON RD","name":""},
  {"lat":34.546867,"lon":-82.670334,"city":"Anderson","state":"SC","address":"3416 CLEMSON BLVD","name":""},
  {"lat":34.520985,"lon":-82.693077,"city":"Anderson","state":"SC","address":"1003 PEARMAN DAIRY ROAD","name":""},
  {"lat":34.516357,"lon":-82.486382,"city":"Belton","state":"SC","address":"422 SOUTH MAIN STREET","name":""},
  {"lat":42.127956,"lon":-88.334724,"city":"Carpentersville","state":"IL","address":"2431 RANDALL RD","name":""},
  {"lat":30.532835,"lon":-84.597107,"city":"Quincy","state":"FL","address":"3749 PAT THOMAS PKWY","name":""},
  {"lat":34.006626,"lon":-81.141724,"city":"Westover Acres","state":"SC","address":"3937 LEAPHART ROAD","name":""},
  {"lat":31.95982,"lon":-89.870682,"city":"Mendenhall","state":"MS","address":"102 W SOUTH ST","name":""},
  {"lat":36.391003,"lon":-86.437645,"city":"Gallatin","state":"TN","address":"446 E MAIN ST.","name":""},
  {"lat":36.390675,"lon":-86.432228,"city":"Gallatin","state":"TN","address":"601 HARTSVILLE PIKE","name":""},
  {"lat":34.224503,"lon":-91.978371,"city":"Pine Bluff","state":"AR","address":"2401 E 6TH","name":""},
  {"lat":29.949942,"lon":-95.272308,"city":"Humble","state":"TX","address":"15914 OLD HUMBLE ROAD","name":""},
  {"lat":36.21587,"lon":-86.763481,"city":"Nashville","state":"TN","address":"2705 DICKERSON PIKE","name":""},
  {"lat":40.963802,"lon":-74.595001,"city":"Lake Hopatcong","state":"NJ","address":"778 NJ-15 LAKE HOPATCONG NJ","name":""},
  {"lat":34.106693,"lon":-117.940521,"city":"Irwindale","state":"CA","address":"15612 ARROW HWY","name":""},
  {"lat":28.520491,"lon":-81.397469,"city":"Orlando","state":"FL","address":"2012 S ORANGE BLOSSOM TRL.","name":""},
  {"lat":35.243515,"lon":-80.890411,"city":"Charlotte","state":"NC","address":"3158 FREEDOM DR","name":""},
  {"lat":43.025505,"lon":-85.725601,"city":"Walker","state":"MI","address":"3360 WALKER AVE NW","name":""},
  {"lat":41.601669,"lon":-87.370773,"city":"Gary","state":"IN","address":"2725 W 5TH AVE, #27","name":""},
  {"lat":32.337795,"lon":-86.260689,"city":"Montgomery","state":"AL","address":"3001 MCGEHEE RD","name":""},
  {"lat":31.847773,"lon":-86.640373,"city":"Greenville","state":"AL","address":"939 FORT DALE RD","name":""},
  {"lat":32.396297,"lon":-86.273048,"city":"Montgomery","state":"AL","address":"1307 FEDERAL DR","name":""},
  {"lat":31.538172,"lon":-87.887337,"city":"Jackson","state":"AL","address":"2715 COLLEGE AVE","name":""},
  {"lat":31.823063,"lon":-86.66256,"city":"Greenville","state":"AL","address":"2931 PINEAPPLE HWY","name":""},
  {"lat":31.455271,"lon":-86.962692,"city":"Evergreen","state":"AL","address":"850 LIBERTY HILL DR","name":""},
  {"lat":32.405426,"lon":-86.16507,"city":"Montgomery","state":"AL","address":"2111 MCLEMORE DR","name":""},
  {"lat":32.361675,"lon":-86.135857,"city":"Montgomery","state":"AL","address":"10251 CHANTILLY PKWY","name":""},
  {"lat":42.305275,"lon":-89.09584,"city":"Rockford","state":"IL","address":"3121 N ROCKTON AVE","name":""},
  {"lat":41.430592,"lon":-75.664444,"city":"Scranton","state":"PA","address":"1327 PROVIDENCE RD","name":""},
  {"lat":35.921558,"lon":-79.933723,"city":"Archdale","state":"NC","address":"1771 NC HIGHWAY 62 W","name":""},
  {"lat":30.021891,"lon":-97.872719,"city":"Kyle","state":"TX","address":"4650 S FM 1626","name":""},
  {"lat":47.978897,"lon":-122.193367,"city":"Everett","state":"WA","address":"2802 HEWITT AVE","name":""},
  {"lat":27.719013,"lon":-82.67585,"city":"St. Petersburg","state":"FL","address":"3100 54TH AVE S","name":""},
  {"lat":32.292587,"lon":-95.258278,"city":"Tyler","state":"TX","address":"5315 TROUP HIGHWAY","name":""},
  {"lat":40.898151,"lon":-73.838303,"city":"Mount Vernon","state":"NY","address":"140 WEST SANFORD BLVD","name":""},
  {"lat":34.968723,"lon":-80.076744,"city":"Wadesboro","state":"NC","address":"106 W CASWELL ST.","name":""},
  {"lat":32.988258,"lon":-82.79911,"city":"Sandersville","state":"GA","address":"BUSY FOOD MART","name":""},
  {"lat":42.564423,"lon":-82.895416,"city":"Clinton Township","state":"MI","address":"36315 S GRATIOT AVE","name":""},
  {"lat":42.351345,"lon":-83.15789,"city":"Dearborn","state":"MI","address":"10001 TIREMAN AVE","name":""},
  {"lat":42.350693,"lon":-83.196114,"city":"Dearborn","state":"MI","address":"7954 GREENFIELD RD","name":""},
  {"lat":42.365749,"lon":-83.187881,"city":"Detroit","state":"MI","address":"14600 W CHICAGO","name":""},
  {"lat":42.386505,"lon":-83.23645,"city":"Detroit","state":"MI","address":"19836 SCHOOLCRAFT","name":""},
  {"lat":42.386841,"lon":-83.197395,"city":"Detroit","state":"MI","address":"15439 SCHOOLCRAFT","name":""},
  {"lat":42.40123,"lon":-83.198128,"city":"Detroit","state":"MI","address":"15140 GREENFIELD RD","name":""},
  {"lat":42.376213,"lon":-83.031975,"city":"Detroit","state":"MI","address":"1701 E GRAND BLVD","name":""},
  {"lat":42.355083,"lon":-83.017929,"city":"Detroit","state":"MI","address":"3735 E VERNOR HWY","name":""},
  {"lat":41.623302,"lon":-87.592056,"city":"Dolton","state":"IL","address":"1008 SIBLEY BLVD","name":""},
  {"lat":43.16436,"lon":-77.659027,"city":"Rochester","state":"NY","address":"1291 LYELL AVE","name":""},
  {"lat":33.487961,"lon":-83.955505,"city":"Covington","state":"GA","address":"5485 HWY 81","name":""},
  {"lat":33.531017,"lon":-84.355484,"city":"Jonesboro","state":"GA","address":"249 N MAIN ST","name":""},
  {"lat":29.875679,"lon":-82.539444,"city":"High Springs","state":"FL","address":"18501 NW COUNTY ROAD 236","name":""},
  {"lat":32.377747,"lon":-98.830223,"city":"Eastland","state":"TX","address":"11618 IH-20","name":""},
  {"lat":32.005474,"lon":-90.342003,"city":"Crystal Springs","state":"MS","address":"26132 HIGHWAY 27","name":""},
  {"lat":34.554562,"lon":-78.998451,"city":"Lumberton","state":"NC","address":"4410 ALAMAC ROAD","name":""},
  {"lat":41.677429,"lon":-87.66256,"city":"Calumet Park","state":"IL","address":"11900 S MARSHFIELD AVE","name":""},
  {"lat":41.73737,"lon":-88.303963,"city":"Aurora","state":"IL","address":"611 Ashland Ave","name":""},
  {"lat":41.601852,"lon":-87.375488,"city":"Gary","state":"IN","address":"3101 W 5th Ave","name":""},
  {"lat":35.965569,"lon":-78.510689,"city":"Wake Forest","state":"NC","address":"906-998 S FRANKLIN ST","name":""},
  {"lat":41.659019,"lon":-85.96962,"city":"Elkhart","state":"IN","address":"245 W Hively","name":""},
  {"lat":32.163162,"lon":-91.720215,"city":"Winnsboro","state":"LA","address":"3860 FRONT ST","name":""},
  {"lat":34.058304,"lon":-81.012718,"city":"Columbia","state":"SC","address":"5901 N MAIN ST","name":""},
  {"lat":41.071728,"lon":-73.523605,"city":"Stamford","state":"CT","address":"351 HOPE ST","name":""},
  {"lat":34.93327,"lon":-89.936768,"city":"Southaven","state":"MS","address":"5042 GETWELL","name":""},
  {"lat":35.34127,"lon":-89.887558,"city":"Millington","state":"TN","address":"5273 NAVY RD","name":""},
  {"lat":42.477818,"lon":-82.987175,"city":"Warren","state":"MI","address":"13560 E 10 MILE FUEL","name":""},
  {"lat":36.198002,"lon":-89.664848,"city":"Caruthersville","state":"MO","address":"300 Truman Blvd","name":""},
  {"lat":35.161793,"lon":-90.158188,"city":"West Memphis","state":"AR","address":"1551 Ingram Blvd West","name":""},
  {"lat":41.148819,"lon":-73.860207,"city":"Ossining","state":"NY","address":"155 S HIGHLAND AVE","name":""},
  {"lat":34.989307,"lon":-78.788155,"city":"Fayetteville","state":"NC","address":"3209 CEDAR CREEK RD","name":""},
  {"lat":40.795395,"lon":-72.865753,"city":"Shirley","state":"NY","address":"520 WILLIAM FLOYD PARKWAY","name":""},
  {"lat":37.770401,"lon":-81.068687,"city":"Beaver","state":"WV","address":"2267 GRANDVIEW RD SUITE A","name":""},
  {"lat":37.319412,"lon":-81.134735,"city":"Princeton","state":"WV","address":"9562 BIG LAUREL HIGHWAY","name":""},
  {"lat":42.396751,"lon":-83.413086,"city":"Livonia","state":"MI","address":"37450 5 MILE","name":""},
  {"lat":29.676712,"lon":-95.643013,"city":"Houston","state":"TX","address":"9401 TX-6","name":""},
  {"lat":26.689375,"lon":-80.684479,"city":"Belle Glade","state":"FL","address":"356 NW 16TH ST","name":""},
  {"lat":26.383024,"lon":-80.195511,"city":"Boca Raton","state":"FL","address":"19775 HAMPTOM DR","name":""},
  {"lat":26.819174,"lon":-80.082932,"city":"Palm Beach Gardens","state":"FL","address":"9730 ALT A1A","name":""},
  {"lat":26.934593,"lon":-80.123482,"city":"Jupiter","state":"FL","address":"1651 W INDIANTOWN ROAD","name":""},
  {"lat":34.017334,"lon":-84.618523,"city":"Kennesaw","state":"GA","address":"2650 N. COBB PARKWAY","name":""},
  {"lat":31.989454,"lon":-90.365929,"city":"Crystal Springs","state":"MI","address":"25066 Highway 51","name":""},
  {"lat":43.965401,"lon":-70.578171,"city":"Naples","state":"ME","address":"323 Roosevelt Trial","name":""},
  {"lat":33.403381,"lon":-81.434547,"city":"Williston","state":"SC","address":"13669 CHURCH STREET","name":""},
  {"lat":41.975708,"lon":-87.748039,"city":"Chicago","state":"IL","address":"5200 N CICERO AVE","name":""},
  {"lat":37.723602,"lon":-77.446121,"city":"Ashland","state":"VA","address":"10114 LEWISTOWN ROAD","name":""},
  {"lat":30.104233,"lon":-94.137161,"city":"Beaumont","state":"TX","address":"2795 EASTEX FEEWAY","name":""},
  {"lat":30.535845,"lon":-97.591934,"city":"Hutto","state":"TX","address":"100 TRADESMENS PARK DRIVE","name":""},
  {"lat":45.362049,"lon":-85.021072,"city":"Petoskey","state":"MI","address":"3916 CHARLEVOIX RD","name":""},
  {"lat":40.511265,"lon":-79.994331,"city":"Pittsburgh","state":"PA","address":"2200 BABCOCK HILL RD","name":""},
  {"lat":38.742535,"lon":-77.05674,"city":"Alexandria","state":"VA","address":"7926 FORT HUNT ROAD","name":""},
  {"lat":30.319729,"lon":-95.587227,"city":"Montgomery","state":"TX","address":"14650 FM 2854","name":""},
  {"lat":36.233673,"lon":-89.748634,"city":"Hayti","state":"MO","address":"301 E WASHINGTON ST","name":""},
  {"lat":32.063622,"lon":-81.095055,"city":"Savannah","state":"GA","address":"1116 ABERCORN ST","name":""},
  {"lat":39.059212,"lon":-77.120964,"city":"Rockville","state":"MD","address":"1900 ROCKVILLE PIKE","name":""},
  {"lat":39.835773,"lon":-75.424255,"city":"Marcus Hook","state":"PA","address":"2355 MARKET ST","name":""},
  {"lat":26.882351,"lon":-80.113571,"city":"Palm Beach Gardens","state":"FL","address":"5200 DONALD ROSS RD","name":""},
  {"lat":37.480305,"lon":-77.511292,"city":"Richmond","state":"VA","address":"6400 HULL STREET RICHMOND VA 23224","name":""},
  {"lat":37.60463,"lon":-77.371498,"city":"Mechanicsville","state":"VA","address":"8006 MECHANICSVILLE TURNPIKE","name":""},
  {"lat":35.56501,"lon":-90.724533,"city":"Harrisburg","state":"AR","address":"109 N ILLINOIS AVE","name":""},
  {"lat":33.506699,"lon":-80.956451,"city":"Orangeburg","state":"SC","address":"1710 NEESES HIGHWAY","name":""},
  {"lat":27.922594,"lon":-82.338615,"city":"Tampa","state":"FL","address":"10323 CAUSEWAY BLVD","name":""},
  {"lat":29.407274,"lon":-82.246361,"city":"Reddick","state":"FL","address":"7424 W HIGHWAY 318","name":""},
  {"lat":29.823099,"lon":-82.059212,"city":"Starke","state":"FL","address":"7326 SE 9TH AVENUE","name":""},
  {"lat":27.886782,"lon":-82.331535,"city":"Riverview","state":"FL","address":"6459 US 301 S","name":""},
  {"lat":29.581732,"lon":-95.028732,"city":"Seabrook","state":"TX","address":"3308 BAYPORT BLVD","name":""},
  {"lat":35.811947,"lon":-79.088486,"city":"Pittsboro","state":"NC","address":"45 TAYLOR RD","name":""},
  {"lat":40.750153,"lon":-86.077927,"city":"Peru","state":"IN","address":"286 WEST MAIN STREET","name":""},
  {"lat":41.158718,"lon":-73.243431,"city":"Fairfield","state":"CT","address":"500 GRASMERE AVE","name":""},
  {"lat":33.09795,"lon":-97.410721,"city":"Rhome","state":"TX","address":"2000 ILLINOIS ST","name":""},
  {"lat":31.919481,"lon":-81.308891,"city":"Richmond Hill","state":"GA","address":"1355 HARRIS TRAIL RD","name":""},
  {"lat":37.825165,"lon":-79.794128,"city":"Clifton Forge","state":"VA","address":"2610 GRAFTON ST","name":""},
  {"lat":38.412155,"lon":-79.579788,"city":"Monterey","state":"VA","address":"16 WEST MAIN STREET","name":""},
  {"lat":37.38422,"lon":-79.800751,"city":"Blue Ridge","state":"VA","address":"42 BLUE RIDGE DR","name":""},
  {"lat":38.010372,"lon":-79.814651,"city":"Hot Springs","state":"VA","address":"9046 SAM SNEAD HWY","name":""},
  {"lat":38.231754,"lon":-80.091438,"city":"Marlinton","state":"WV","address":"524 NORTH SENECA TRAIL","name":""},
  {"lat":36.244427,"lon":-84.670219,"city":"Sunbright","state":"TN","address":"8110 MORGAN COUNTY HIGHWAY","name":""},
  {"lat":29.746967,"lon":-95.455627,"city":"Houston","state":"TX","address":"4423 SAN FELIPE ST.","name":""},
  {"lat":32.451202,"lon":-95.186745,"city":"Tyler","state":"TX","address":"12898 STATE HIGHWAY 155 N","name":""},
  {"lat":32.340904,"lon":-96.230324,"city":"Kemp","state":"TX","address":"1200 N SEVEN POINTS BLVD","name":""},
  {"lat":34.500999,"lon":-90.612,"city":"Helena","state":"AR","address":"90 AR-20","name":""},
  {"lat":34.554462,"lon":-90.71492,"city":"West Helena","state":"AR","address":"3053 HWY 49","name":""},
  {"lat":35.697384,"lon":-90.0261,"city":"Osceola","state":"AR","address":"4365 West Keiser","name":""},
  {"lat":41.350109,"lon":-72.101669,"city":"New London","state":"CT","address":"525 BANK ST","name":""},
  {"lat":44.177727,"lon":-88.484924,"city":"Neenah","state":"WI","address":"700 S. GREEN BAY RD","name":""},
  {"lat":41.308434,"lon":-88.145119,"city":"Wilmington","state":"IL","address":"204 E BALTIMORE RD","name":""},
  {"lat":37.317997,"lon":-79.260872,"city":"Lynchburg","state":"VA","address":"22539 TIMBERLAKE ROAD","name":""},
  {"lat":29.808174,"lon":-94.835373,"city":"Baytown","state":"TX","address":"5605 FM 565 South","name":""},
  {"lat":32.449497,"lon":-91.153862,"city":"Tallulah","state":"LA","address":"266 US-65","name":""},
  {"lat":32.631184,"lon":-96.021378,"city":"Wills Point","state":"TX","address":"28129 INTERSTATE 20","name":""},
  {"lat":32.387589,"lon":-95.274826,"city":"Tyler","state":"TX","address":"1212 E NE LOOP 323","name":""},
  {"lat":37.462967,"lon":-122.224777,"city":"Redwood City","state":"CA","address":"975 WOODSIDE ROAD","name":""},
  {"lat":39.257561,"lon":-114.860344,"city":"Ely","state":"NV","address":"1490 E AULTMAN ST.","name":""},
  {"lat":42.336418,"lon":-88.031174,"city":"Grayslake","state":"IL","address":"735 EAST BELVIDERE ROAD","name":""},
  {"lat":37.496681,"lon":-76.634094,"city":"Saluda","state":"VA","address":"12228 GEORGE WASHINGTON MEMORIAL HW","name":""},
  {"lat":29.598688,"lon":-95.492752,"city":"Missouri City","state":"TX","address":"7105 W FUQUA STREET","name":""},
  {"lat":31.569527,"lon":-91.437157,"city":"Vidalia","state":"LA","address":"1112 CARTER STREET","name":""},
  {"lat":34.368542,"lon":-89.518562,"city":"Oxford","state":"MS","address":"321 N LAMAR","name":""},
  {"lat":30.712091,"lon":-97.762138,"city":"Georgetown","state":"TX","address":"6601 RANCH ROAD 2338","name":""},
  {"lat":42.545898,"lon":-83.789207,"city":"Brighton","state":"MI","address":"8355 GRAND RIVER","name":""},
  {"lat":32.824074,"lon":-96.918823,"city":"Irving","state":"TX","address":"1901 E UNION BOWER ROAD","name":""},
  {"lat":34.852501,"lon":-92.089722,"city":"Jacksonville","state":"AR","address":"1605 SOUTH J P WRIGHT LOOP RD","name":""},
  {"lat":42.08802,"lon":-88.530655,"city":"Hampshire","state":"IL","address":"1000 S STATE ST","name":""},
  {"lat":34.405849,"lon":-83.80368,"city":"Gainesville","state":"GA","address":"4110 CLEVELAND HWY","name":""},
  {"lat":34.979912,"lon":-89.863739,"city":"Olive Branch","state":"MS","address":"8191 NEW CRAFT RD","name":""},
  {"lat":40.673111,"lon":-73.78846,"city":"Jamaica","state":"NY","address":"149-20 ROCKAWAY BLVD","name":""},
  {"lat":37.104351,"lon":-80.688026,"city":"Dublin","state":"VA","address":"129 BROAD STREET","name":""},
  {"lat":34.324986,"lon":-78.707985,"city":"Whiteville","state":"NC","address":"416 S JK POWELL BLVD","name":""},
  {"lat":29.50362,"lon":-95.453232,"city":"Rosharon","state":"TX","address":"14105 HIGHWAY 6","name":""},
  {"lat":33.849998,"lon":-117.905998,"city":"Anaheim","state":"CA","address":"1200 N EAST STREET","name":""},
  {"lat":38.747173,"lon":-90.75576,"city":"O'Fallon","state":"MO","address":"701 CALEDONIA DR","name":""},
  {"lat":33.235554,"lon":-86.48214,"city":"Wilsonville","state":"AL","address":"30744 HWY 25","name":""},
  {"lat":30.200338,"lon":-95.73542,"city":"Magnolia","state":"TX","address":"831 MAGNOLIA BLVD","name":""},
  {"lat":41.921131,"lon":-88.274963,"city":"St. Charles","state":"IL","address":"3025 E MAIN ST","name":""},
  {"lat":41.905045,"lon":-87.985146,"city":"Villa Park","state":"IL","address":"151 NORTH AVE","name":""},
  {"lat":42.427414,"lon":-83.765678,"city":"Whitmore","state":"MI","address":"9885 MAIN ST","name":""},
  {"lat":32.506031,"lon":-95.642609,"city":"Van","state":"TX","address":"133 FM 314","name":""},
  {"lat":35.867142,"lon":-86.457222,"city":"Murfreesboro","state":"TN","address":"3127 MEDICAL CENTER PARKWAY SUITE B","name":""},