{"key":"exxon","displayName":"Exxon","category":"gas_station","useLocationName":false,"locations":[
  {"lat":30.189957,"lon":-85.662048,"city":"Panama City","state":"FL","address":"128 W 23RD STREET","name":""},
  {"lat":33.832596,"lon":-84.337685,"city":"Atlanta","state":"GA","address":"2055 N DRUID HILLS RD","name":""},
  {"lat":47.597401,"lon":-114.113678,"city":"Pablo","state":"MT","address":"52001 HIGHWAY 93","name":""},
  {"lat":41.249264,"lon":-76.922195,"city":"Montoursville","state":"PA","address":"447 BROAD ST","name":""},
  {"lat":36.177078,"lon":-89.66906,"city":"Caruthersville","state":"MO","address":"1906 TRUMAN BLVD","name":""},
  {"lat":35.779839,"lon":-90.808891,"city":"Jonesboro","state":"AR","address":"9250 US 49 S","name":""},
  {"lat":47.700474,"lon":-117.411842,"city":"Spokane","state":"WA","address":"4615 N DIVISION ST","name":""},
  {"lat":48.684147,"lon":-116.320786,"city":"Bonners Ferry","state":"ID","address":"6723 MAIN ST","name":""},
  {"lat":41.970066,"lon":-88.11451,"city":"Roselle","state":"IL","address":"1330 W LAKE ST","name":""},
  {"lat":39.213707,"lon":-81.650055,"city":"Washington","state":"WV","address":"34 NEW ENGLAND RIDGE RD.","name":""},
  {"lat":33.471912,"lon":-95.220695,"city":"Bogata","state":"TX","address":"605 PARIS RD","name":""},
  {"lat":32.941666,"lon":-97.06543,"city":"Grapevine","state":"TX","address":"1001 NORTHWEST HWY","name":""},
  {"lat":32.606083,"lon":-98.111397,"city":"Santo","state":"TX","address":"14100 S HWY 281","name":""},
  {"lat":37.745014,"lon":-77.133766,"city":"Aylett","state":"VA","address":"5033 RICHMOND TAPPAHANNOCK HWY","name":""},
  {"lat":32.183422,"lon":-90.25441,"city":"Byram","state":"MS","address":"5700 I-55 SOUTH FRONTAGE RD","name":""},
  {"lat":40.635567,"lon":-79.939186,"city":"Gibsonia","state":"PA","address":"5610 WILLIAM FLINN HWY","name":""},
  {"lat":35.642796,"lon":-80.483231,"city":"Salisbury","state":"NC","address":"939 JAKE ALEXANDER BLVD S","name":""},
  {"lat":30.372299,"lon":-97.625603,"city":"Austin","state":"TX","address":"4751 E PARMER LN","name":""},
  {"lat":34.049988,"lon":-83.929649,"city":"Buford","state":"GA","address":"1955 GRAVEL SPRINGS RD","name":""},
  {"lat":40.526218,"lon":-111.906235,"city":"Draper","state":"UT","address":"12300 SOUTH 550 WEST","name":""},
  {"lat":37.609341,"lon":-77.446808,"city":"Richmond","state":"VA","address":"5609 CHAMBERLAYNE ROAD","name":""},
  {"lat":31.77417,"lon":-97.102127,"city":"West","state":"TX","address":"19676 I 35 FRONTAGE RD","name":""},
  {"lat":34.99408,"lon":-89.872192,"city":"Olive Branch","state":"MS","address":"9137 YAHWEH RD","name":""},
  {"lat":40.510719,"lon":-111.413727,"city":"Heber City","state":"UT","address":"215 N MAIN ST","name":""},
  {"lat":37.515636,"lon":-77.794289,"city":"Powhatan","state":"VA","address":"2150 ANDERSON HIGHWAY","name":""},
  {"lat":29.84523,"lon":-95.806633,"city":"Katy","state":"TX","address":"4940 KATY HOCKLEY CUT OFF RD","name":""},
  {"lat":30.004858,"lon":-95.37207,"city":"Humble","state":"TX","address":"19906 ALDINE WESTFIELD RD","name":""},
  {"lat":30.358454,"lon":-95.78965,"city":"Montgomery","state":"TX","address":"26866 SH 105 WEST","name":""},
  {"lat":29.842985,"lon":-95.183578,"city":"Houston","state":"TX","address":"13812 BEAUMONT HWY","name":""},
  {"lat":30.057838,"lon":-95.086464,"city":"Huffman","state":"TX","address":"26610 FM 2100","name":""},
  {"lat":39.628044,"lon":-106.064796,"city":"Silverthorne","state":"CO","address":"180 STEPHENS WAY","name":""},
  {"lat":35.983891,"lon":-79.459846,"city":"Burlington","state":"NC","address":"5673 HWY 49 S","name":""},
  {"lat":33.001133,"lon":-97.218292,"city":"Roanoke","state":"TX","address":"704 BYRON NELSON BLVD","name":""},
  {"lat":35.045517,"lon":-89.685051,"city":"Collierville","state":"TN","address":"679 W POPLAR AV","name":""},
  {"lat":47.764801,"lon":-117.354881,"city":"Mead","state":"WA","address":"11810 N MARKET ST","name":""},
  {"lat":36.731308,"lon":-91.877937,"city":"West Plains","state":"MO","address":"1808 W BROADWAY STREET","name":""},
  {"lat":35.178921,"lon":-89.835892,"city":"Memphis","state":"TN","address":"1974 WHITTEN RD","name":""},
  {"lat":34.964176,"lon":-89.801003,"city":"Olive Branch","state":"MS","address":"10680 GOODMAN RD","name":""},
  {"lat":39.605534,"lon":-75.743668,"city":"Newark","state":"DE","address":"2360 PULASKI HWY","name":""},
  {"lat":42.603394,"lon":-88.442993,"city":"Lake Geneva","state":"WI","address":"1231 GRANT ST LAKE GENEVA WI","name":""},
  {"lat":31.281738,"lon":-97.260582,"city":"Eddy","state":"TX","address":"206 S IH 35","name":""},
  {"lat":33.548016,"lon":-83.357407,"city":"Buckhead","state":"GA","address":"1740 SEVEN ISLANDS RD","name":""},
  {"lat":34.314701,"lon":-79.033173,"city":"Fair Bluff","state":"NC","address":"945 MAIN ST","name":""},
  {"lat":35.20961,"lon":-80.757721,"city":"Charlotte","state":"NC","address":"5124 CENTRAL AVE","name":""},
  {"lat":40.862553,"lon":-74.030037,"city":"Ridgefield Park","state":"NJ","address":"87 RAILROAD AVE","name":""},
  {"lat":30.072691,"lon":-95.768494,"city":"Hockley","state":"TX","address":"20130 TUSCAN TERRACE","name":""},
  {"lat":27.81749,"lon":-97.074631,"city":"Port Aransas","state":"TX","address":"1960 TX 361","name":""},
  {"lat":35.747299,"lon":-90.570091,"city":"Bay","state":"AR","address":"613 N BAY DR","name":""},
  {"lat":37.122581,"lon":-113.625038,"city":"St. George","state":"UT","address":"1925 W SUNSET BLVD","name":""},
  {"lat":35.257603,"lon":-79.041046,"city":"Cameron","state":"NC","address":"1360 NC 24-87","name":""},
  {"lat":35.116779,"lon":-78.880745,"city":"Fayetteville","state":"NC","address":"4147 RAMSEY STREET","name":""},
  {"lat":34.930923,"lon":-78.853691,"city":"Fayetteville","state":"NC","address":"4946 NC HIGHWAY 87 S","name":""},
  {"lat":40.531895,"lon":-74.291672,"city":"Hopelawn","state":"NJ","address":"119 W POND RD","name":""},
  {"lat":31.413836,"lon":-100.475487,"city":"San Angelo","state":"TX","address":"4798 KNICKERBOCKER ROAD","name":""},
  {"lat":35.119827,"lon":-80.880646,"city":"Charlotte","state":"NC","address":"8641 SOUTH BLVD","name":""},
  {"lat":31.986429,"lon":-95.77037,"city":"Montalba","state":"TX","address":"17589 STATE HWY 19","name":""},
  {"lat":33.617786,"lon":-84.307381,"city":"Ellenwood","state":"GA","address":"5020 GA-42","name":""},
  {"lat":39.64854,"lon":-77.917755,"city":"Clear Spring","state":"MD","address":"12911 CLEAR SPRING ROAD","name":""},
  {"lat":-83.814156,"lon":35.340324,"city":"Robbinsville","state":"NC","address":"1037 TAPOCA RD","name":""},
  {"lat":25.628754,"lon":-80.340904,"city":"Miami","state":"FL","address":"15201 S DIXIE HWY","name":""},
  {"lat":31.534655,"lon":-94.126007,"city":"San Augustine","state":"TX","address":"209 N EL CAMINO CROSSING","name":""},
  {"lat":43.885414,"lon":-89.486595,"city":"Westfield","state":"WI","address":"327 E 2ND ST","name":""},
  {"lat":31.97488,"lon":-89.865196,"city":"Mendenhall","state":"MS","address":"3791 HWY 49","name":""},
  {"lat":29.747141,"lon":-95.851791,"city":"Katy","state":"TX","address":"2947 FM 1493 ROAD","name":""},
  {"lat":34.950798,"lon":-79.053421,"city":"Parkton","state":"NC","address":"148 DAVIS BRIDGE","name":""},
  {"lat":30.0452,"lon":-95.698021,"city":"Tomball","state":"TX","address":"19109 CYPRESS ROSEHILL RD","name":""},
  {"lat":26.706511,"lon":-80.101074,"city":"West Palm Beach","state":"FL","address":"2900 OKEECHOBEE BLVD","name":""},
  {"lat":34.244053,"lon":-83.457588,"city":"Commerce","state":"GA","address":"40081 U.S. HIGHWAY 441","name":""},
  {"lat":29.497351,"lon":-98.499878,"city":"San Antonio","state":"TX","address":"6443 SAN PEDRO AVE","name":""},
  {"lat":41.641308,"lon":-87.718712,"city":"Crestwood","state":"IL","address":"13830 S PULASKI","name":""},
  {"lat":42.372707,"lon":-83.187561,"city":"Detroit","state":"MI","address":"14545 PLYMOUTH RD","name":""},
  {"lat":33.829487,"lon":-93.392723,"city":"Prescott","state":"AR","address":"2066 HWY 19N","name":""},
  {"lat":46.595512,"lon":-111.933762,"city":"East Helena","state":"MT","address":"3680 E US HIGHWAY 12","name":""},
  {"lat":45.673725,"lon":-111.07412,"city":"Bozeman","state":"MT","address":"2707 WEST MAIN STREET","name":""},
  {"lat":32.588161,"lon":-96.298805,"city":"Kaufman","state":"TX","address":"1420 E MULBERRY ST","name":""},
  {"lat":27.957201,"lon":-97.105728,"city":"Rockport","state":"TX","address":"4525 HWY 35S","name":""},
  {"lat":33.21035,"lon":-97.762802,"city":"Bridgeport","state":"TX","address":"575 HOVEY ST","name":""},
  {"lat":34.098221,"lon":-84.628433,"city":"Acworth","state":"GA","address":"6013-6251 JAMES DUPREE LN","name":""},
  {"lat":35.120724,"lon":-86.195938,"city":"Belvidere","state":"TN","address":"8791 DAVID CROCKETT PKWY W","name":""},
  {"lat":29.819685,"lon":-90.484314,"city":"Des Allemands","state":"LA","address":"4322 HWY 90","name":""},
  {"lat":26.292398,"lon":-98.03817,"city":"La Blanca","state":"TX","address":"13625 E STATE HIGHWAY 107","name":""},
  {"lat":33.730816,"lon":-85.029297,"city":"Temple","state":"GA","address":"233 CARROLLTON ST","name":""},
  {"lat":36.533672,"lon":-86.03067,"city":"Lafayette","state":"TN","address":"1205 SCOTTSVILLE RD","name":""},
  {"lat":42.085499,"lon":-86.436935,"city":"Benton Harbor","state":"MI","address":"1808 M 139","name":""},
  {"lat":34.834717,"lon":-82.439903,"city":"Greenville","state":"SC","address":"1703 EASLEY BRIDGE RD","name":""},
  {"lat":34.386982,"lon":-89.499512,"city":"Oxford","state":"MS","address":"1581 JAMES KIMMONS DR","name":""},
  {"lat":31.477015,"lon":-87.335884,"city":"Monroeville","state":"AL","address":"3781 S ALABAMA AVE","name":""},
  {"lat":26.362871,"lon":-80.081177,"city":"Boca Raton","state":"FL","address":"1380 N FEDERAL HIGHWAY","name":""},
  {"lat":31.200386,"lon":-87.310921,"city":"Brewton","state":"AL","address":"13288 HIGHWAY 113","name":""},
  {"lat":31.342371,"lon":-89.306404,"city":"Hattiesburg","state":"MS","address":"5316 HWY 42","name":""},
  {"lat":29.474125,"lon":-95.507439,"city":"Missouri City","state":"TX","address":"1420 SIENNA PARKWAY","name":""},
  {"lat":41.626183,"lon":-87.696777,"city":"Posen","state":"IL","address":"3118 147th ST","name":""},
  {"lat":35.914837,"lon":-90.646515,"city":"Jonesboro","state":"AR","address":"4151 HIGHWAY 351","name":""},
  {"lat":33.986404,"lon":-83.892738,"city":"Dacula","state":"GA","address":"352 HARBINS RD","name":""},
  {"lat":41.028225,"lon":-73.775032,"city":"White Plains","state":"NY","address":"69 BANK STREET","name":""},
  {"lat":26.934029,"lon":-80.134621,"city":"Jupiter","state":"FL","address":"2508 W INDIANTOWN RD","name":""},
  {"lat":26.882317,"lon":-80.108086,"city":"Palm Beach Gardens","state":"FL","address":"4750 DONALD ROSS RD","name":""},
  {"lat":40.714081,"lon":-73.902039,"city":"Maspeth","state":"NY","address":"60-90 ELIOT AVENUE","name":""},
  {"lat":26.747311,"lon":-81.76123,"city":"North Fort Myers","state":"FL","address":"19451 FL-31","name":""},
  {"lat":30.099073,"lon":-97.754082,"city":"Creedmoor","state":"TX","address":"12407 WRIGHT ROAD","name":""},
  {"lat":43.016071,"lon":-83.594353,"city":"Burton","state":"MI","address":"1117 S. BELSAY RD","name":""},
  {"lat":34.376835,"lon":-84.918839,"city":"Adairsville","state":"GA","address":"7700-7746 HIGHWAY 140 NW","name":""},
  {"lat":28.686899,"lon":-100.47467,"city":"Eagle Pass","state":"TX","address":"1989 S VETERANS BLVD","name":""},
  {"lat":34.067284,"lon":-80.954453,"city":"Columbia","state":"SC","address":"7351 TWO NOTCH RD","name":""},
  {"lat":41.196251,"lon":-73.094727,"city":"Milford","state":"CT","address":"313 NAUGATUCK AVE","name":""},
  {"lat":37.102978,"lon":-78.994942,"city":"Gladys","state":"VA","address":"14465 BROOKNEAL HWY","name":""},
  {"lat":32.828579,"lon":-97.035919,"city":"Fort Worth","state":"TX","address":"15151 FAA BLVD","name":""},
  {"lat":44.089779,"lon":-115.951904,"city":"Garden Valley","state":"ID","address":"1086 BANKS LOWMAN RD","name":""},
  {"lat":42.481014,"lon":-82.906792,"city":"St. Clair Shores","state":"MI","address":"25100 LITTLE MACK AVE","name":""},
  {"lat":43.151939,"lon":-83.520668,"city":"Otisville","state":"MI","address":"10001 N STATE RD","name":""},
  {"lat":42.568623,"lon":-82.913223,"city":"Clinton Township","state":"MI","address":"36887 GROESBECK","name":""},
  {"lat":34.713379,"lon":-86.658051,"city":"Huntsville","state":"AL","address":"6090 OLD MADISON PIKE","name":""},
  {"lat":42.6096,"lon":-82.972069,"city":"Clinton Township","state":"MI","address":"42640 HAYES RD","name":""},
  {"lat":40.653145,"lon":-74.912025,"city":"Clinton","state":"NJ","address":"1747 STATE ROUTE 31","name":""},
  {"lat":41.943378,"lon":-86.494133,"city":"Baroda","state":"MI","address":"9691 CLEVELAND AVE.","name":""},
  {"lat":36.56189,"lon":-79.453888,"city":"Danville","state":"VA","address":"2100 W MAIN ST DANVILLE VA 24541","name":""},
  {"lat":32.445354,"lon":-93.947304,"city":"Greenwood","state":"LA","address":"8541 Greenwood Rd","name":""},
  {"lat":30.179476,"lon":-82.593155,"city":"Lake City","state":"FL","address":"923 SE SR 100","name":""},
  {"lat":32.603626,"lon":-93.671982,"city":"Bossier City","state":"LA","address":"3489 SWAN LAKE RD","name":""},
  {"lat":40.687939,"lon":-111.546127,"city":"Park City","state":"UT","address":"1815 CANYONS RESORT DR","name":""},
  {"lat":36.70628,"lon":-78.9095,"city":"South Boston","state":"VA","address":"1527 WILBORN AVE","name":""},
  {"lat":29.755793,"lon":-95.40197,"city":"Houston","state":"TX","address":"1207 DUNLAVY ST","name":""},
  {"lat":41.674164,"lon":-74.829063,"city":"White Lake","state":"NY","address":"1490 STATE ROUTE 17B","name":""},
  {"lat":35.511776,"lon":-78.813042,"city":"Fuquay Varina","state":"NC","address":"8920 US 401 NORTH","name":""},
  {"lat":30.48105,"lon":-97.663376,"city":"Round Rock","state":"TX","address":"409 LOUIS HENNA BLVD","name":""},
  {"lat":32.636024,"lon":-97.062973,"city":"Grand Prairie","state":"TX","address":"3190 LYNN CREEK ROAD","name":""},
  {"lat":33.202965,"lon":-97.567261,"city":"Decatur","state":"TX","address":"3400 S US HIGHWAY 287","name":""},
  {"lat":30.027262,"lon":-95.782692,"city":"Cypress","state":"TX","address":"BAUER ROAD AND SCHIEL ROAD","name":""},
  {"lat":30.037825,"lon":-95.051392,"city":"Huffman","state":"TX","address":"14833 FM 1960 E","name":""},
  {"lat":30.315029,"lon":-95.339081,"city":"Conroe","state":"TX","address":"6762 WAUKEGAN RD","name":""},
  {"lat":30.165236,"lon":-95.923805,"city":"Waller","state":"TX","address":"31070 FM 1488","name":""},
  {"lat":30.403589,"lon":-95.436775,"city":"Willis","state":"TX","address":"11746 SEVEN COVES RD","name":""},
  {"lat":35.442566,"lon":-86.774071,"city":"Lewisburg","state":"TN","address":"360 S ELLINGTON PKWY","name":""},
  {"lat":29.779104,"lon":-95.284409,"city":"Houston","state":"TX","address":"8001 HERSHE ST","name":""},
  {"lat":35.467602,"lon":-93.519081,"city":"Clarksville","state":"AR","address":"2620 W. MAIN STREET","name":""},
  {"lat":36.157383,"lon":-80.317055,"city":"Winston Salem","state":"NC","address":"3619 REYNOLDA RD","name":""},
  {"lat":42.550774,"lon":-83.029724,"city":"Sterling Heights","state":"MI","address":"34949 VANDYKE","name":""},
  {"lat":28.857134,"lon":-82.173927,"city":"Lake Panasoffkee","state":"FL","address":"7018 CR 470","name":""},
  {"lat":29.680609,"lon":-82.338928,"city":"Gainesville","state":"FL","address":"3001 NW 13TH ST","name":""},
  {"lat":40.478031,"lon":-75.75798,"city":"Lyon Station","state":"PA","address":"VALERO ENERGY","name":""},
  {"lat":26.107985,"lon":-98.265656,"city":"Hidalgo","state":"TX","address":"324 N INTERNATIONAL BLVD","name":""},
  {"lat":34.262424,"lon":-85.307968,"city":"Rome","state":"GA","address":"4590 ALABAMA HWY","name":""},
  {"lat":38.28228,"lon":-75.651863,"city":"Eden","state":"MD","address":"31680 EDEN ALLEN RD","name":""},
  {"lat":42.433784,"lon":-83.023819,"city":"Detroit","state":"MI","address":"19030 Van Dyke St","name":""},
  {"lat":34.933231,"lon":-89.866112,"city":"Olive Branch","state":"MS","address":"8961 CHURCH RD","name":""},
  {"lat":34.682701,"lon":-88.587387,"city":"Booneville","state":"MS","address":"1905 W CHAMBERS DR","name":""},
  {"lat":30.96987,"lon":-97.54493,"city":"Salado","state":"TX","address":"4050 FM 2484","name":""},
  {"lat":29.904512,"lon":-95.753563,"city":"Cypress","state":"TX","address":"21860 WEST RD","name":""},
  {"lat":34.078079,"lon":-89.891228,"city":"Oakland","state":"MS","address":"28142 HWY 35","name":""},
  {"lat":30.549332,"lon":-97.69104,"city":"Round Rock","state":"TX","address":"3523 N IH 35","name":""},
  {"lat":41.18174,"lon":-79.393669,"city":"Clarion","state":"PA","address":"79 NORTH POINT DRIVE","name":""},
  {"lat":29.590733,"lon":-95.46917,"city":"Houston","state":"TX","address":"16255 SOUTH POST OAK","name":""},
  {"lat":29.144403,"lon":-95.648788,"city":"West Columbia","state":"TX","address":"111 W BRAZOS","name":""},
  {"lat":34.501148,"lon":-91.540039,"city":"Stuttgart","state":"AR","address":"195 S PARK AVE","name":""},
  {"lat":31.261118,"lon":-90.474121,"city":"McComb","state":"MS","address":"203 EDGEWOOD DR","name":""},
  {"lat":32.256332,"lon":-91.745796,"city":"Baskin","state":"LA","address":"1193 LA 15","name":""},
  {"lat":34.311749,"lon":-92.429047,"city":"Sheridan","state":"AR","address":"1819 WEST CENTER","name":""},
  {"lat":28.569294,"lon":-81.232582,"city":"Orlando","state":"FL","address":"10520 E COLONIAL DR","name":""},
  {"lat":32.684292,"lon":-97.318848,"city":"Fort Worth","state":"TX","address":"900 E SEMINARY DRIVE","name":""},
  {"lat":33.951416,"lon":-78.311279,"city":"Supply","state":"NC","address":"1680 HOLDEN BEACH ROAD","name":""},
  {"lat":30.18663,"lon":-95.14595,"city":"Roman Forest","state":"TX","address":"3202 ROMAN FOREST BLVD","name":""},
  {"lat":30.290371,"lon":-95.339981,"city":"Conroe","state":"TX","address":"11099 FM-1485","name":""},
  {"lat":29.919884,"lon":-95.070007,"city":"Crosby","state":"TX","address":"6424 FM 2100 RD","name":""},
  {"lat":29.491964,"lon":-95.026573,"city":"League City","state":"TX","address":"3901 E FM 646","name":""},
  {"lat":34.256012,"lon":-88.728645,"city":"Tupelo","state":"MS","address":"1307 W MAIN ST","name":""},
  {"lat":42.638416,"lon":-83.096245,"city":"Rochester","state":"MI","address":"1799 E. AUBURN RD","name":""},
  {"lat":33.580658,"lon":-85.085968,"city":"Carrollton","state":"GA","address":"699 ALABAMA ST","name":""},
  {"lat":33.530235,"lon":-85.253601,"city":"Bowdon","state":"GA","address":"619 TYUS RD","name":""},
  {"lat":29.497128,"lon":-82.295868,"city":"Micanopy","state":"FL","address":"17100 SE COUNTY ROAD 234","name":""},
  {"lat":37.533188,"lon":-79.098442,"city":"Amherst","state":"VA","address":"188 FAULCONERVILLE DR","name":""},
  {"lat":31.472902,"lon":-90.893379,"city":"Meadville","state":"MS","address":"50 MAIN ST","name":""},
  {"lat":31.147173,"lon":-83.730164,"city":"Moultrie","state":"GA","address":"1435 HWY 133 SOUTH","name":""},
  {"lat":40.74123,"lon":-73.692406,"city":"New Hyde Park","state":"NY","address":"1011 LAKEVILLE RD","name":""},
  {"lat":32.522423,"lon":-93.755814,"city":"Shreveport","state":"LA","address":"420 N MARKET ST","name":""},
  {"lat":29.692148,"lon":-95.319748,"city":"Houston","state":"TX","address":"6142 LONG DR.","name":""},
  {"lat":39.478378,"lon":-76.249107,"city":"Belcamp","state":"MD","address":"1327 POLICY DR.","name":""},
  {"lat":38.981022,"lon":-80.086327,"city":"Buckhannon","state":"WV","address":"66 MOUNT NEBO RD.","name":""},
  {"lat":30.502363,"lon":-97.676277,"city":"Round Rock","state":"TX","address":"801 S MAYS STREET","name":""},
  {"lat":35.756199,"lon":-80.34626,"city":"Linwood","state":"NC","address":"1132-1224 SNIDER-KINES RD","name":""},
  {"lat":35.193592,"lon":-92.391312,"city":"Greenbrier","state":"AR","address":"286 S BROADVIEW","name":""},
  {"lat":40.933704,"lon":-74.660805,"city":"Hopatcong","state":"NJ","address":"38 HOPATCHUNG RD.","name":""},
  {"lat":34.157951,"lon":-86.836975,"city":"Cullman","state":"AL","address":"1701 CHEROKEE AVE SW","name":""},
  {"lat":27.883154,"lon":-98.61763,"city":"Freer","state":"TX","address":"116 E RILEY ST","name":""},
  {"lat":32.217541,"lon":-96.483719,"city":"Rice","state":"TX","address":"2502 SW MCKINNEY ST","name":""},
  {"lat":30.936434,"lon":-99.782875,"city":"Menard","state":"TX","address":"1300 FRISCO ST","name":""},
  {"lat":34.08041,"lon":-86.78582,"city":"Hanceville","state":"AL","address":"926 MAIN ST NE","name":""},
  {"lat":37.200104,"lon":-77.333229,"city":"Petersburg","state":"VA","address":"1200 COURTHOUSE RD","name":""},
  {"lat":33.11639,"lon":-85.549362,"city":"Wadley","state":"AL","address":"49265 HIGHWAY 22","name":""},
  {"lat":32.421127,"lon":-85.040588,"city":"Phenix City","state":"AL","address":"3424 HWY 431","name":""},
  {"lat":31.178366,"lon":-83.776443,"city":"Moultrie","state":"GA","address":"1000 SW 1ST AV","name":""},
  {"lat":33.828476,"lon":-84.613647,"city":"Austell","state":"GA","address":"5161 AUSTELL ROAD","name":""},
  {"lat":33.76984,"lon":-84.404991,"city":"Atlanta","state":"GA","address":"548 NORTHSIDE DR NW","name":""},
  {"lat":30.070463,"lon":-95.375801,"city":"Spring","state":"TX","address":"25819 CYPRESSWOOD DR","name":""},
  {"lat":42.042053,"lon":-88.282906,"city":"Elgin","state":"IL","address":"180 KIMBALL ST","name":""},
  {"lat":30.29566,"lon":-94.23983,"city":"Kountze","state":"TX","address":"1456 HIGHWAY 69","name":""},
  {"lat":28.368784,"lon":-80.605988,"city":"Cocoa Beach","state":"FL","address":"5625 N. ATLANTIC AVENUE","name":""},
  {"lat":28.373337,"lon":-80.747032,"city":"Cocoa","state":"FL","address":"1204 DIXON BLVD","name":""},
  {"lat":30.396076,"lon":-96.094543,"city":"Navasota","state":"TX","address":"912 N LA SALLE ST","name":""},
  {"lat":29.831455,"lon":-95.84063,"city":"Katy","state":"TX","address":"4011 PITTS RD","name":""},
  {"lat":30.103018,"lon":-95.639595,"city":"Tomball","state":"TX","address":"29733 TOMBALL PARKWAY","name":""},
  {"lat":30.189825,"lon":-96.550743,"city":"Brenham","state":"TX","address":"US-290 W AND FM 1948","name":""},
  {"lat":41.73893,"lon":-87.818535,"city":"Justice","state":"IL","address":"8359 S ROBERTS RD","name":""},
  {"lat":33.646576,"lon":-85.506035,"city":"Heflin","state":"AL","address":"6658 HWY 46","name":""},
  {"lat":33.670868,"lon":-84.340057,"city":"Conley","state":"GA","address":"3000 MORELAND AVENUE","name":""},
  {"lat":33.719521,"lon":-84.155632,"city":"Lithonia","state":"GA","address":"6429 COVINGTON HWY","name":""},
  {"lat":32.928974,"lon":-85.114433,"city":"West Point","state":"GA","address":"3000 KIA BLVD","name":""},
  {"lat":34.186157,"lon":-83.590729,"city":"Jefferson","state":"GA","address":"1810 DRY POND ROAD","name":""},
  {"lat":34.196709,"lon":-83.887032,"city":"Flowery Branch","state":"GA","address":"4207 MARTIN RD","name":""},
  {"lat":33.552402,"lon":-84.333168,"city":"Jonesboro","state":"GA","address":"7402 MT. ZION BLVD","name":""},
  {"lat":33.608532,"lon":-84.445892,"city":"Atlanta","state":"GA","address":"1697 NORMAN DRIVE","name":""},
  {"lat":29.677101,"lon":-98.638054,"city":"San Antonio","state":"TX","address":"25291 IH-10 W","name":""},
  {"lat":33.173843,"lon":-80.207649,"city":"Ridgeville","state":"SC","address":"3147 STATE RD","name":""},
  {"lat":35.504116,"lon":-93.845421,"city":"Ozark","state":"AR","address":"1605 NORTH 18TH ST","name":""},
  {"lat":34.283783,"lon":-83.847145,"city":"Gainesville","state":"GA","address":"1785 BROWNS BRIDGE RD","name":""},
  {"lat":30.019836,"lon":-98.129799,"city":"Wimberley","state":"TX","address":"2935 JACOBS WELL ROAD","name":""},
  {"lat":35.614326,"lon":-80.832558,"city":"Mooresville","state":"NC","address":"2187 CHARLOTTE HWY","name":""},
  {"lat":37.728729,"lon":-81.10614,"city":"Daniels","state":"WV","address":"2109 RITTER DRIVE","name":""},
  {"lat":37.017841,"lon":-88.590149,"city":"Paducah","state":"KY","address":"2730 JOHN L PURYEAR DR","name":""},
  {"lat":32.934437,"lon":-80.659431,"city":"Walterboro","state":"SC","address":"2327 JEFFERIES HWY","name":""},
  {"lat":37.310425,"lon":-79.237862,"city":"Evington","state":"VA","address":"18186 LEESVILLE ROAD","name":""},
  {"lat":29.382162,"lon":-95.298485,"city":"Alvin","state":"TX","address":"10510 E FM 1462","name":""},
  {"lat":30.004221,"lon":-97.734604,"city":"Kyle","state":"TX","address":"12968 CAMINO REAL","name":""},
  {"lat":29.529882,"lon":-95.346733,"city":"Pearland","state":"TX","address":"8080 BAILEY RD","name":""},
  {"lat":29.769001,"lon":-95.90065,"city":"Brookshire","state":"TX","address":"30575 KINGSLAND BLVD","name":""},
  {"lat":29.917887,"lon":-95.668999,"city":"Houston","state":"TX","address":"16902 TUCKERTON RD","name":""},
  {"lat":30.135235,"lon":-95.287682,"city":"Porter","state":"TX","address":"21775 FM 1314","name":""},
  {"lat":30.161819,"lon":-95.89801,"city":"Waller","state":"TX","address":"29503 FM 1488","name":""},
  {"lat":34.711468,"lon":-84.479912,"city":"Ellijay","state":"GA","address":"807 BOARDTOWN ROAD","name":""},
  {"lat":35.555508,"lon":-80.860344,"city":"Mooresville","state":"NC","address":"861 WILLIAMSON ROAD","name":""},
  {"lat":36.389233,"lon":-86.459213,"city":"Gallatin","state":"TN","address":"600 LONG HOLLOW PIKE","name":""},
  {"lat":36.372475,"lon":-86.462158,"city":"Gallatin","state":"TN","address":"377 HANCOCK ST","name":""},
  {"lat":32.993813,"lon":-95.936546,"city":"Lone Oak","state":"TX","address":"412 CHURCH STREE","name":""},
  {"lat":37.498844,"lon":-77.536522,"city":"Richmond","state":"VA","address":"7559 MIDLOTHIAN TURNPIKE","name":""},
  {"lat":37.285744,"lon":-78.107178,"city":"Jetersville","state":"VA","address":"22501 PATRICK HENRY HWY","name":""},
  {"lat":32.224926,"lon":-95.058769,"city":"Arp","state":"TX","address":"111 S MAIN ST","name":""},
  {"lat":31.22233,"lon":-90.479172,"city":"McComb","state":"MS","address":"107 North Crossings Drive","name":""},
  {"lat":35.719898,"lon":-79.176537,"city":"Pittsboro","state":"NC","address":"52 EAST ST","name":""},
  {"lat":33.932064,"lon":-84.152519,"city":"Norcross","state":"GA","address":"1649 BEAVER RUIN ROAD","name":""},
  {"lat":34.590515,"lon":-87.030342,"city":"Decatur","state":"AL","address":"2401 BELTLINE RD SW","name":""},
  {"lat":30.234659,"lon":-92.10717,"city":"Scott","state":"LA","address":"6337 CAMERON ST","name":""},
  {"lat":32.825363,"lon":-96.355614,"city":"Rockwall","state":"TX","address":"10689 S STATE HIGHWAY 205","name":""},
  {"lat":26.526686,"lon":-80.099136,"city":"Boynton Beach","state":"FL","address":"3510 WEST BOYNTON BLVD","name":""},
  {"lat":33.936089,"lon":-80.44162,"city":"Sumter","state":"SC","address":"3880 PATRIOT PKWY","name":""},
  {"lat":35.044842,"lon":-89.633499,"city":"Piperton","state":"TN","address":"530 TENNESSEE 57","name":""},
  {"lat":41.928013,"lon":-87.76593,"city":"Chicago","state":"IL","address":"2611 N CENTRAL AVE","name":""},
  {"lat":37.622967,"lon":-79.111763,"city":"Amherst","state":"VA","address":"1869 LEXINGTON TPKE","name":""},
  {"lat":31.487003,"lon":-97.171806,"city":"Waco","state":"TX","address":"6435 BAGBY AVE","name":""},
  {"lat":39.597855,"lon":-76.832024,"city":"Trenton","state":"MD","address":"625 HANOVER PIKE","name":""},
  {"lat":36.22617,"lon":-83.254318,"city":"Morristown","state":"TN","address":"152 MILLERS LANDING BLVD","name":""},
  {"lat":35.001091,"lon":-85.292595,"city":"Chattanooga","state":"TN","address":"3701 ROSSVILLE BLVD","name":""},
  {"lat":34.67342,"lon":-86.023506,"city":"Scottsboro","state":"AL","address":"102 VETERANS DR","name":""},
  {"lat":39.967422,"lon":-74.685257,"city":"Pemberton","state":"NJ","address":"211 HANOVER STREET","name":""},
  {"lat":26.707491,"lon":-80.156624,"city":"West Palm Beach","state":"FL","address":"6950 OKEECHOBEE BLVD","name":""},
  {"lat":36.133144,"lon":-81.671989,"city":"Blowing Rock","state":"NC","address":"7816 VALLEY BLVD","name":""},
  {"lat":40.745979,"lon":-73.933685,"city":"Long Island City","state":"NY","address":"31-05 QUEENS BOULEVARD","name":""},
  {"lat":32.752884,"lon":-89.538239,"city":"Carthage","state":"MS","address":"1310 HIGHWAY 35 N","name":""},
  {"lat":27.520979,"lon":-82.575333,"city":"Palmetto","state":"FL","address":"920 10TH AVE W","name":""},
  {"lat":32.809467,"lon":-83.744965,"city":"Macon","state":"GA","address":"5730 COLUMBUS ROAD","name":""},
  {"lat":38.012344,"lon":-77.334755,"city":"Milford","state":"VA","address":"18209 RICHMOND TURNPIKE","name":""},
  {"lat":33.385509,"lon":-84.819847,"city":"Newnan","state":"GA","address":"2 FRANKLIN RD","name":""},
  {"lat":33.966499,"lon":-84.537636,"city":"Marietta","state":"GA","address":"619 FAIRGROUND ST. NE","name":""},
  {"lat":41.735149,"lon":-87.692162,"city":"Evergreen Park","state":"IL","address":"2755 W 87TH","name":""},
  {"lat":41.719933,"lon":-87.76767,"city":"Oak Lawn","state":"IL","address":"5870 W. 95TH STREET","name":""},
  {"lat":41.907837,"lon":-87.893066,"city":"Northlake","state":"IL","address":"300 E NORTH AVE","name":""},
  {"lat":35.409851,"lon":-82.513718,"city":"Fletcher","state":"NC","address":"5411 HENDERSONVILLE RD","name":""},
  {"lat":32.397331,"lon":-94.878014,"city":"Kilgore","state":"TX","address":"206 TX-31","name":""},
  {"lat":35.90844,"lon":-89.260399,"city":"Friendship","state":"TN","address":"9013 HWY 412","name":""},
  {"lat":36.557537,"lon":-86.239937,"city":"Westmoreland","state":"TN","address":"5294 HIGHWAY 31E","name":""},
  {"lat":36.38789,"lon":-86.498573,"city":"Gallatin","state":"TN","address":"1174 LONG HOLLOW PIKE","name":""},
  {"lat":36.31543,"lon":-87.675156,"city":"Erin","state":"TN","address":"6565 HIGHWAY 13","name":""},
  {"lat":36.056179,"lon":-88.114616,"city":"Camden","state":"TN","address":"281 W. MAIN ST","name":""},
  {"lat":36.359287,"lon":-86.438904,"city":"Gallatin","state":"TN","address":"1303 SOUTH WATER AVE","name":""},
  {"lat":37.344482,"lon":-77.979149,"city":"Amelia Court House","state":"VA","address":"16340 GOODES BRIDGE ROAD","name":""},
  {"lat":29.813297,"lon":-95.564651,"city":"Houston","state":"TX","address":"2303 W. SAM HOUSTON PARKWAY","name":""},
  {"lat":44.71719,"lon":-108.861328,"city":"Ralston","state":"WY","address":"492A MAIN STREET","name":""},
  {"lat":35.816837,"lon":-86.774757,"city":"Franklin","state":"TN","address":"4778 PEYTONSVILLE RD","name":""},
  {"lat":30.363411,"lon":-95.671677,"city":"Montgomery","state":"TX","address":"20985 FM 2854 RD.","name":""},
  {"lat":40.806942,"lon":-73.248436,"city":"Brentwood","state":"NY","address":"642 MOTOR PARKWAY","name":""},
  {"lat":32.940701,"lon":-97.098938,"city":"Grapevine","state":"TX","address":"2041 W NORTHWEST HWY","name":""},
  {"lat":35.735813,"lon":-79.661255,"city":"Ramseur","state":"NC","address":"6320 JORDAN RD","name":""},
  {"lat":33.192684,"lon":-97.12455,"city":"Denton","state":"TX","address":"1700 TEASLEY LANE","name":""},
  {"lat":29.798273,"lon":-95.801292,"city":"Katy","state":"TX","address":"1744 KATY FORT BEND RD","name":""},
  {"lat":38.079937,"lon":-88.175865,"city":"Carmi","state":"IL","address":"1109 W. MAIN ST.","name":""},
  {"lat":34.84288,"lon":-92.375755,"city":"Maumelle","state":"AR","address":"9340 WHITE OAK CROSSING","name":""},
  {"lat":30.301579,"lon":-81.394188,"city":"Jacksonville Beach","state":"FL","address":"1403 N 3rd St","name":""},
  {"lat":36.608448,"lon":-87.377739,"city":"Clarksville","state":"TN","address":"2155 PEACHERS MILL RD","name":""},
  {"lat":32.754074,"lon":-96.439682,"city":"Forney","state":"TX","address":"1150 FM-548","name":""},
  {"lat":28.552452,"lon":-81.475464,"city":"Orlando","state":"FL","address":"6999 W COLONIAL DR","name":""},
  {"lat":32.279121,"lon":-95.748932,"city":"Murchison","state":"TX","address":"6551 HWY 31 E","name":""},
  {"lat":31.395039,"lon":-97.207375,"city":"Lorena","state":"TX","address":"12016 S IH 35","name":""},
  {"lat":33.628689,"lon":-96.419846,"city":"Bells","state":"TX","address":"1202 N PECAN STREET","name":""},
  {"lat":36.411724,"lon":-80.498199,"city":"Pilot Mountain","state":"NC","address":"3175 COOK SCHOOL RD","name":""},
  {"lat":29.839979,"lon":-95.156197,"city":"Houston","state":"TX","address":"15110 CROSBY FRWY","name":""},
  {"lat":30.066097,"lon":-93.213799,"city":"Lake Charles","state":"LA","address":"9346 GULF HWY","name":""},
  {"lat":35.607204,"lon":-91.237717,"city":"Newport","state":"AR","address":"3201 STEGALL RD","name":""},
  {"lat":35.250206,"lon":-93.035278,"city":"Pottsville","state":"AR","address":"I-40 AND AR 363","name":""},
  {"lat":35.906895,"lon":-90.588921,"city":"Brookland","state":"AR","address":"8039 HIGHWAY 49","name":""},
  {"lat":35.609653,"lon":-90.330811,"city":"Lepanto","state":"AR","address":"404 GREENWOOD","name":""},
  {"lat":35.741806,"lon":-90.566284,"city":"Bay","state":"AR","address":"108 N BAY DRIVE","name":""},
  {"lat":35.56522,"lon":-90.930008,"city":"Waldenburg","state":"AR","address":"7974 HIGHWAY 49","name":""},
  {"lat":30.188454,"lon":-93.187935,"city":"Lake Charles","state":"LA","address":"3999 5TH AVE","name":""},
  {"lat":42.595291,"lon":-87.835342,"city":"Kenosha","state":"WI","address":"4433 22ND AVE","name":""},
  {"lat":41.78677,"lon":-87.649483,"city":"Chicago","state":"IL","address":"5901 S MORGAN ST","name":""},
  {"lat":33.182907,"lon":-94.733681,"city":"Omaha","state":"TX","address":"203 WHITE OAK AVE","name":""},
  {"lat":33.724014,"lon":-84.392838,"city":"Atlanta","state":"GA","address":"1152 PRYOR RD SW","name":""},
  {"lat":34.513008,"lon":-84.935638,"city":"Calhoun","state":"GA","address":"101 NEWTOWN ROAD NE","name":""},
  {"lat":34.503551,"lon":-84.924652,"city":"Calhoun","state":"GA","address":"1206 DEWS POND RD NE","name":""},
  {"lat":34.883602,"lon":-79.37085,"city":"Wagram","state":"NC","address":"24000 MAIN STREET","name":""},
  {"lat":26.555979,"lon":-98.121712,"city":"Edinburg","state":"TX","address":"36188 NORTH EXPRESSWAY 281","name":""},
  {"lat":36.673275,"lon":-79.746094,"city":"Axton","state":"VA","address":"58 Food Corner","name":""},
  {"lat":36.055855,"lon":-83.971008,"city":"Knoxville","state":"TN","address":"1325 EAST BEAVER CREEK ROAD","name":""},
  {"lat":34.147762,"lon":-84.908455,"city":"Cartersville","state":"GA","address":"851 EUHARLEE ROAD","name":""},
  {"lat":32.506493,"lon":-92.269402,"city":"West Monroe","state":"LA","address":"715 CAMP RD","name":""},
  {"lat":32.58326,"lon":-93.893417,"city":"Shreveport","state":"LA","address":"139 MAIN ST","name":""},
  {"lat":35.19413,"lon":-77.41011,"city":"Dover","state":"NC","address":"6041 US HIGHWAY 70","name":""},
  {"lat":35.277027,"lon":-77.563469,"city":"Kinston","state":"NC","address":"1502 GREENVILLE HWY","name":""},
  {"lat":32.924358,"lon":-96.736092,"city":"Dallas","state":"TX","address":"13010 ABRAMS RD","name":""},
  {"lat":41.881027,"lon":-87.738358,"city":"Chicago","state":"IL","address":"10 N KILBOURN AVE","name":""},
  {"lat":33.104034,"lon":-80.285698,"city":"Ridgeville","state":"SC","address":"614 HIGHWAY 78","name":""},
  {"lat":43.234802,"lon":-108.110229,"city":"Shoshoni","state":"WY","address":"110 W 2ND STREET","name":""},
  {"lat":34.192207,"lon":-79.767555,"city":"Florence","state":"SC","address":"320 S IRBY ST","name":""},
  {"lat":33.370377,"lon":-96.76664,"city":"Celina","state":"TX","address":"3722 N PRESTON RD","name":""},
  {"lat":33.275383,"lon":-96.813782,"city":"Prosper","state":"TX","address":"3608 S DALLAS PKWY","name":""},
  {"lat":36.780388,"lon":-80.71302,"city":"Hillsville","state":"VA","address":"301 SYLVATUS HWY","name":""},
  {"lat":36.839363,"lon":-80.586891,"city":"Dugspur","state":"VA","address":"10287 FLOYD PIKE","name":""},
  {"lat":36.130081,"lon":-90.511101,"city":"Paragould","state":"AR","address":"5829 Hwy 135 N","name":""},
  {"lat":32.943729,"lon":-80.617783,"city":"Walterboro","state":"SC","address":"1941 SIDNEYS ROAD","name":""},
  {"lat":36.021389,"lon":-79.360817,"city":"Graham","state":"NC","address":"1101 E MAIN ST","name":""},
  {"lat":30.066006,"lon":-95.89212,"city":"Waller","state":"TX","address":"30010 FM 2920 RD","name":""},
  {"lat":29.853575,"lon":-95.185707,"city":"Houston","state":"TX","address":"8930 E SAM HOUSTON PARKWAY","name":""},
  {"lat":30.079756,"lon":-95.681564,"city":"Tomball","state":"TX","address":"16848 FM 2920 Rd.","name":""},
  {"lat":30.093803,"lon":-95.577003,"city":"Tomball","state":"TX","address":"10002 FM-2920","name":""},
  {"lat":33.476173,"lon":-94.289139,"city":"Hooks","state":"TX","address":"902 N MAIN ST","name":""},
  {"lat":28.721691,"lon":-81.336868,"city":"Longwood","state":"FL","address":"1823 LONGWOOD LAKE MARY ROAD","name":""},
  {"lat":32.096668,"lon":-81.143929,"city":"Savannah","state":"GA","address":"305 US HIGHWAY 80 W","name":""},
  {"lat":26.593098,"lon":-80.052643,"city":"Lake Worth","state":"FL","address":"874 N DIXIE HWY","name":""},
  {"lat":41.140003,"lon":-73.348869,"city":"Westport","state":"CT","address":"485 POST ROAD EAST","name":""},
  {"lat":37.059231,"lon":-80.744461,"city":"Pulaski","state":"VA","address":"1865 BOB WHITE BLVD","name":""},
  {"lat":32.282459,"lon":-83.467293,"city":"Hawkinsville","state":"GA","address":"86 BROAD STREET","name":""},
  {"lat":36.004871,"lon":-79.391426,"city":"Graham","state":"NC","address":"3006 NC HWY 87 S","name":""},
  {"lat":34.173065,"lon":-81.36898,"city":"Chapin","state":"SC","address":"1855 Chapin Road","name":""},
  {"lat":29.757589,"lon":-95.375565,"city":"Houston","state":"TX","address":"705 W DALLAS ST","name":""},
  {"lat":32.988789,"lon":-96.575081,"city":"Sachse","state":"TX","address":"7410 HWY 78","name":""},
  {"lat":32.748005,"lon":-94.940002,"city":"Gilmer","state":"TX","address":"1117 US HIGHWAY 271 N","name":""},
  {"lat":42.343887,"lon":-83.19593,"city":"Dearborn","state":"MI","address":"15430 W WARREN AVE","name":""},
  {"lat":30.066578,"lon":-94.19014,"city":"Beaumont","state":"TX","address":"910 S MAJOR DR","name":""},
  {"lat":29.93948,"lon":-93.925743,"city":"Groves","state":"TX","address":"5410 W PARKWAY ST","name":""},
  {"lat":30.117229,"lon":-94.144341,"city":"Beaumont","state":"TX","address":"3980 EASTEX FREEWAY","name":""},
  {"lat":30.324785,"lon":-94.16655,"city":"Silsbee","state":"TX","address":"3025 US HIGHWAY 96 N","name":""},
  {"lat":30.076031,"lon":-94.172112,"city":"Beaumont","state":"TX","address":"255 DOWLEN RD","name":""},
  {"lat":30.035011,"lon":-94.099121,"city":"Beaumont","state":"TX","address":"1650 W CARDINAL DR","name":""},
  {"lat":29.971067,"lon":-94.024033,"city":"Nederland","state":"TX","address":"2357 HIGHWAY 69 N","name":""},
  {"lat":32.20615,"lon":-90.150253,"city":"Richland","state":"MS","address":"285 CLEARY RD","name":""},
  {"lat":29.460922,"lon":-98.401596,"city":"San Antonio","state":"TX","address":"4610 SEGUIN RD","name":""},
  {"lat":29.643021,"lon":-95.397148,"city":"Houston","state":"TX","address":"1898 AIRPORT BLVD","name":""},
  {"lat":30.14864,"lon":-81.756821,"city":"Orange Park","state":"FL","address":"686 BLANDING BLVD","name":""},
  {"lat":42.566017,"lon":-112.177231,"city":"Arimo","state":"ID","address":"290 N MEADOWVIEW DR","name":""},
  {"lat":29.187248,"lon":-82.126778,"city":"Ocala","state":"FL","address":"963 E. SILVER SPRINGS BLVD","name":""},
  {"lat":29.257057,"lon":-81.117462,"city":"Ormond Beach","state":"FL","address":"1629 W GRANADA BLVD","name":""},
  {"lat":28.526329,"lon":-81.425827,"city":"Orlando","state":"FL","address":"1205 BRUTON BLVD","name":""},
  {"lat":36.8918,"lon":-79.399406,"city":"Chatham","state":"VA","address":"22076 U.S. HIGHWAY 29","name":""},
  {"lat":42.359535,"lon":-87.869194,"city":"Waukegan","state":"IL","address":"2720 WASHINGTON ST","name":""},
  {"lat":39.666553,"lon":-77.700432,"city":"Hagerstown","state":"MD","address":"19348 LEITERSBURG PIKE","name":""},
  {"lat":33.902168,"lon":-84.205353,"city":"Norcross","state":"GA","address":"5297 SINGLETON RD NW","name":""},
  {"lat":30.601585,"lon":-97.686768,"city":"Georgetown","state":"TX","address":"4601 S IH 35","name":""},
  {"lat":33.134014,"lon":-96.054451,"city":"Greenville","state":"TX","address":"3004 I-30","name":""},
  {"lat":30.177092,"lon":-93.154419,"city":"Lake Charles","state":"LA","address":"3170 E MCNEESE ST.","name":""},
  {"lat":34.015408,"lon":-84.493011,"city":"Marietta","state":"GA","address":"2690 SANDY PLAINS ROAD","name":""},
  {"lat":29.821617,"lon":-94.832405,"city":"Baytown","state":"TX","address":"8711 FM ROAD 1409","name":""},
  {"lat":32.194553,"lon":-81.029488,"city":"Hardeeville","state":"SC","address":"3522 SOUTH OKATIE HWY","name":""},
  {"lat":32.692741,"lon":-97.332031,"city":"Fort Worth","state":"TX","address":"3800 HEMPHILL ST","name":""},
  {"lat":35.768169,"lon":-86.522194,"city":"Rockvale","state":"TN","address":"8050 HWY 99","name":""},
  {"lat":33.20034,"lon":-87.577736,"city":"Tuscaloosa","state":"AL","address":"1500 MARTIN LUTHER KING JR. BLVD","name":""},
  {"lat":41.531372,"lon":-88.071991,"city":"Joliet","state":"IL","address":"334 COLLINS ST","name":""},
  {"lat":32.542473,"lon":-92.711746,"city":"Grambling","state":"LA","address":"1130 RWE JONES DRIVE","name":""},
  {"lat":34.770432,"lon":-82.575027,"city":"Easley","state":"SC","address":"2904 PELZER HWY","name":""},
  {"lat":34.535618,"lon":-82.608826,"city":"Anderson","state":"SC","address":"2401 OLD WILLIAMSTON RD","name":""},
  {"lat":34.546867,"lon":-82.670334,"city":"Anderson","state":"SC","address":"3416 CLEMSON BLVD","name":""},
  {"lat":34.520985,"lon":-82.693077,"city":"Anderson","state":"SC","address":"1003 PEARMAN DAIRY ROAD","name":""},
  {"lat":34.516357,"lon":-82.486382,"city":"Belton","state":"SC","address":"422 SOUTH MAIN STREET","name":""},
  {"lat":42.127956,"lon":-88.334724,"city":"Carpentersville","state":"IL","address":"2431 RANDALL RD","name":""},
  {"lat":34.006626,"lon":-81.141724,"city":"Westover Acres","state":"SC","address":"3937 LEAPHART ROAD","name":""},
  {"lat":31.95982,"lon":-89.870682,"city":"Mendenhall","state":"MS","address":"102 W SOUTH ST","name":""},
  {"lat":36.391003,"lon":-86.437645,"city":"Gallatin","state":"TN","address":"446 E MAIN ST.","name":""},
  {"lat":34.224503,"lon":-91.978371,"city":"Pine Bluff","state":"AR","address":"2401 E 6TH","name":""},
  {"lat":29.949942,"lon":-95.272308,"city":"Humble","state":"TX","address":"15914 OLD HUMBLE ROAD","name":""},
  {"lat":28.520491,"lon":-81.397469,"city":"Orlando","state":"FL","address":"2012 S ORANGE BLOSSOM TRL.","name":""},
  {"lat":35.243515,"lon":-80.890411,"city":"Charlotte","state":"NC","address":"3158 FREEDOM DR","name":""},
  {"lat":32.337795,"lon":-86.260689,"city":"Montgomery","state":"AL","address":"3001 MCGEHEE RD","name":""},
  {"lat":32.396297,"lon":-86.273048,"city":"Montgomery","state":"AL","address":"1307 FEDERAL DR","name":""},
  {"lat":31.538172,"lon":-87.887337,"city":"Jackson","state":"AL","address":"2715 COLLEGE AVE","name":""},
  {"lat":31.823063,"lon":-86.66256,"city":"Greenville","state":"AL","address":"2931 PINEAPPLE HWY","name":""},
  {"lat":31.455271,"lon":-86.962692,"city":"Evergreen","state":"AL","address":"850 LIBERTY HILL DR","name":""},
  {"lat":32.405426,"lon":-86.16507,"city":"Montgomery","state":"AL","address":"2111 MCLEMORE DR","name":""},
  {"lat":32.361675,"lon":-86.135857,"city":"Montgomery","state":"AL","address":"10251 CHANTILLY PKWY","name":""},
  {"lat":42.305275,"lon":-89.09584,"city":"Rockford","state":"IL","address":"3121 N ROCKTON AVE","name":""},
  {"lat":41.430592,"lon":-75.664444,"city":"Scranton","state":"PA","address":"1327 PROVIDENCE RD","name":""},
  {"lat":35.921558,"lon":-79.933723,"city":"Archdale","state":"NC","address":"1771 NC HIGHWAY 62 W","name":""},
  {"lat":30.021891,"lon":-97.872719,"city":"Kyle","state":"TX","address":"4650 S FM 1626","name":""},
  {"lat":32.292587,"lon":-95.258278,"city":"Tyler","state":"TX","address":"5315 TROUP HIGHWAY","name":""},
  {"lat":34.968723,"lon":-80.076744,"city":"Wadesboro","state":"NC","address":"106 W CASWELL ST.","name":""},
  {"lat":42.386505,"lon":-83.23645,"city":"Detroit","state":"MI","address":"19836 SCHOOLCRAFT","name":""},
  {"lat":42.386841,"lon":-83.197395,"city":"Detroit","state":"MI","address":"15439 SCHOOLCRAFT","name":""},
  {"lat":42.40123,"lon":-83.198128,"city":"Detroit","state":"MI","address":"15140 GREENFIELD RD","name":""},
  {"lat":42.376213,"lon":-83.031975,"city":"Detroit","state":"MI","address":"1701 E GRAND BLVD","name":""},
  {"lat":43.16436,"lon":-77.659027,"city":"Rochester","state":"NY","address":"1291 LYELL AVE","name":""},
  {"lat":33.487961,"lon":-83.955505,"city":"Covington","state":"GA","address":"5485 HWY 81","name":""},
  {"lat":32.377747,"lon":-98.830223,"city":"Eastland","state":"TX","address":"11618 IH-20","name":""},
  {"lat":35.965569,"lon":-78.510689,"city":"Wake Forest","state":"NC","address":"906-998 S FRANKLIN ST","name":""},
  {"lat":41.659019,"lon":-85.96962,"city":"Elkhart","state":"IN","address":"245 W Hively","name":""},
  {"lat":32.163162,"lon":-91.720215,"city":"Winnsboro","state":"LA","address":"3860 FRONT ST","name":""},
  {"lat":34.93327,"lon":-89.936768,"city":"Southaven","state":"MS","address":"5042 GETWELL","name":""},
  {"lat":35.34127,"lon":-89.887558,"city":"Millington","state":"TN","address":"5273 NAVY RD","name":""},
  {"lat":42.477818,"lon":-82.987175,"city":"Warren","state":"MI","address":"13560 E 10 MILE FUEL","name":""},
  {"lat":36.198002,"lon":-89.664848,"city":"Caruthersville","state":"MO","address":"300 Truman Blvd","name":""},
  {"lat":35.161793,"lon":-90.158188,"city":"West Memphis","state":"AR","address":"1551 Ingram Blvd West","name":""},
  {"lat":34.989307,"lon":-78.788155,"city":"Fayetteville","state":"NC","address":"3209 CEDAR CREEK RD","name":""},
  {"lat":37.770401,"lon":-81.068687,"city":"Beaver","state":"WV","address":"2267 GRANDVIEW RD SUITE A","name":""},
  {"lat":37.319412,"lon":-81.134735,"city":"Princeton","state":"WV","address":"9562 BIG LAUREL HIGHWAY","name":""},
  {"lat":29.676712,"lon":-95.643013,"city":"Houston","state":"TX","address":"9401 TX-6","name":""},
  {"lat":26.819174,"lon":-80.082932,"city":"Palm Beach Gardens","state":"FL","address":"9730 ALT A1A","name":""},
  {"lat":26.934593,"lon":-80.123482,"city":"Jupiter","state":"FL","address":"1651 W INDIANTOWN ROAD","name":""},
  {"lat":31.989454,"lon":-90.365929,"city":"Crystal Springs","state":"MI","address":"25066 Highway 51","name":""},
  {"lat":41.975708,"lon":-87.748039,"city":"Chicago","state":"IL","address":"5200 N CICERO AVE","name":""},
  {"lat":37.723602,"lon":-77.446121,"city":"Ashland","state":"VA","address":"10114 LEWISTOWN ROAD","name":""},
  {"lat":30.535845,"lon":-97.591934,"city":"Hutto","state":"TX","address":"100 TRADESMENS PARK DRIVE","name":""},
  {"lat":40.511265,"lon":-79.994331,"city":"Pittsburgh","state":"PA","address":"2200 BABCOCK HILL RD","name":""},
  {"lat":38.742535,"lon":-77.05674,"city":"Alexandria","state":"VA","address":"7926 FORT HUNT ROAD","name":""},
  {"lat":30.319729,"lon":-95.587227,"city":"Montgomery","state":"TX","address":"14650 FM 2854","name":""},
  {"lat":36.233673,"lon":-89.748634,"city":"Hayti","state":"MO","address":"301 E WASHINGTON ST","name":""},
  {"lat":32.063622,"lon":-81.095055,"city":"Savannah","state":"GA","address":"1116 ABERCORN ST","name":""},
  {"lat":39.059212,"lon":-77.120964,"city":"Rockville","state":"MD","address":"1900 ROCKVILLE PIKE","name":""},
  {"lat":39.835773,"lon":-75.424255,"city":"Marcus Hook","state":"PA","address":"2355 MARKET ST","name":""},
  {"lat":37.60463,"lon":-77.371498,"city":"Mechanicsville","state":"VA","address":"8006 MECHANICSVILLE TURNPIKE","name":""},
  {"lat":35.56501,"lon":-90.724533,"city":"Harrisburg","state":"AR","address":"109 N ILLINOIS AVE","name":""},
  {"lat":33.506699,"lon":-80.956451,"city":"Orangeburg","state":"SC","address":"1710 NEESES HIGHWAY","name":""},
  {"lat":27.922594,"lon":-82.338615,"city":"Tampa","state":"FL","address":"10323 CAUSEWAY BLVD","name":""},
  {"lat":29.407274,"lon":-82.246361,"city":"Reddick","state":"FL","address":"7424 W HIGHWAY 318","name":""},
  {"lat":29.823099,"lon":-82.059212,"city":"Starke","state":"FL","address":"7326 SE 9TH AVENUE","name":""},
  {"lat":27.886782,"lon":-82.331535,"city":"Riverview","state":"FL","address":"6459 US 301 S","name":""},
  {"lat":29.581732,"lon":-95.028732,"city":"Seabrook","state":"TX","address":"3308 BAYPORT BLVD","name":""},
  {"lat":35.811947,"lon":-79.088486,"city":"Pittsboro","state":"NC","address":"45 TAYLOR RD","name":""},
  {"lat":41.158718,"lon":-73.243431,"city":"Fairfield","state":"CT","address":"500 GRASMERE AVE","name":""},
  {"lat":33.09795,"lon":-97.410721,"city":"Rhome","state":"TX","address":"2000 ILLINOIS ST","name":""},
  {"lat":37.38422,"lon":-79.800751,"city":"Blue Ridge","state":"VA","address":"42 BLUE RIDGE DR","name":""},
  {"lat":38.010372,"lon":-79.814651,"city":"Hot Springs","state":"VA","address":"9046 SAM SNEAD HWY","name":""},
  {"lat":38.231754,"lon":-80.091438,"city":"Marlinton","state":"WV","address":"524 NORTH SENECA TRAIL","name":""},
  {"lat":36.244427,"lon":-84.670219,"city":"Sunbright","state":"TN","address":"8110 MORGAN COUNTY HIGHWAY","name":""},
  {"lat":29.746967,"lon":-95.455627,"city":"Houston","state":"TX","address":"4423 SAN FELIPE ST.","name":""},
  {"lat":32.451202,"lon":-95.186745,"city":"Tyler","state":"TX","address":"12898 STATE HIGHWAY 155 N","name":""},
  {"lat":32.340904,"lon":-96.230324,"city":"Kemp","state":"TX","address":"1200 N SEVEN POINTS BLVD","name":""},
  {"lat":34.500999,"lon":-90.612,"city":"Helena","state":"AR","address":"90 AR-20","name":""},
  {"lat":34.554462,"lon":-90.71492,"city":"West Helena","state":"AR","address":"3053 HWY 49","name":""},
  {"lat":35.697384,"lon":-90.0261,"city":"Osceola","state":"AR","address":"4365 West Keiser","name":""},
  {"lat":41.350109,"lon":-72.101669,"city":"New London","state":"CT","address":"525 BANK ST","name":""},
  {"lat":44.177727,"lon":-88.484924,"city":"Neenah","state":"WI","address":"700 S. GREEN BAY RD","name":""},
  {"lat":37.317997,"lon":-79.260872,"city":"Lynchburg","state":"VA","address":"22539 TIMBERLAKE ROAD","name":""},
  {"lat":29.808174,"lon":-94.835373,"city":"Baytown","state":"TX","address":"5605 FM 565 South","name":""},
  {"lat":32.449497,"lon":-91.153862,"city":"Tallulah","state":"LA","address":"266 US-65","name":""},
  {"lat":32.631184,"lon":-96.021378,"city":"Wills Point","state":"TX","address":"28129 INTERSTATE 20","name":""},
  {"lat":32.387589,"lon":-95.274826,"city":"Tyler","state":"TX","address":"1212 E NE LOOP 323","name":""},
  {"lat":37.496681,"lon":-76.634094,"city":"Saluda","state":"VA","address":"12228 GEORGE WASHINGTON MEMORIAL HW","name":""},
  {"lat":31.569527,"lon":-91.437157,"city":"Vidalia","state":"LA","address":"1112 CARTER STREET","name":""},
  {"lat":34.368542,"lon":-89.518562,"city":"Oxford","state":"MS","address":"321 N LAMAR","name":""},
  {"lat":30.712091,"lon":-97.762138,"city":"Georgetown","state":"TX","address":"6601 RANCH ROAD 2338","name":""},
  {"lat":34.852501,"lon":-92.089722,"city":"Jacksonville","state":"AR","address":"1605 SOUTH J P WRIGHT LOOP RD","name":""},
  {"lat":34.405849,"lon":-83.80368,"city":"Gainesville","state":"GA","address":"4110 CLEVELAND HWY","name":""},
  {"lat":34.979912,"lon":-89.863739,"city":"Olive Branch","state":"MS","address":"8191 NEW CRAFT RD","name":""},
  {"lat":34.324986,"lon":-78.707985,"city":"Whiteville","state":"NC","address":"416 S JK POWELL BLVD","name":""},
  {"lat":33.849998,"lon":-117.905998,"city":"Anaheim","state":"CA","address":"1200 N EAST STREET","name":""},
  {"lat":30.200338,"lon":-95.73542,"city":"Magnolia","state":"TX","address":"831 MAGNOLIA BLVD","name":""},
  {"lat":32.506031,"lon":-95.642609,"city":"Van","state":"TX","address":"133 FM 314","name":""},
  {"lat":35.867142,"lon":-86.457222,"city":"Murfreesboro","state":"TN","address":"3127 MEDICAL CENTER PARKWAY SUITE B","name":""},
  {"lat":32.48719,"lon":-83.732918,"city":"Perry","state":"GA","address":"504 PERRY PKWY","name":""},
  {"lat":28.757782,"lon":-81.293419,"city":"Sanford","state":"FL","address":"490 W. LAKE MARY BLVD","name":""},
  {"lat":30.013021,"lon":-95.725113,"city":"Cypress","state":"TX","address":"16503 MUESCHKE ROAD","name":""},
  {"lat":29.586119,"lon":-96.331238,"city":"Eagle Lake","state":"TX","address":"500 EAST MAIN STREET","name":""},
  {"lat":30.235035,"lon":-93.771767,"city":"Orange","state":"TX","address":"2016 PINE PARK BLVD","name":""},
  {"lat":30.090723,"lon":-97.259323,"city":"Bastrop","state":"TX","address":"865 E HIGHWAY 71","name":""},
  {"lat":32.882568,"lon":-85.406082,"city":"Lafayette","state":"AL","address":"301A 9TH AVENUE SW","name":""},
  {"lat":33.493191,"lon":-84.912926,"city":"Whitesburg","state":"GA","address":"651 MAIN STREET","name":""},
  {"lat":33.522469,"lon":-85.346252,"city":"Ranburne","state":"AL","address":"21030 MAIN STREET","name":""},
  {"lat":33.106762,"lon":-85.075119,"city":"Lagrange","state":"GA","address":"3278 MOOTY BRIDGE","name":""},
  {"lat":34.46804,"lon":-82.657776,"city":"Anderson","state":"SC","address":"3207 SOUTH MURRAY AVENUE","name":""},
  {"lat":32.720001,"lon":-97.440002,"city":"Fort Worth","state":"TX","address":"3204 ALTA MERE DRIVE","name":""},
  {"lat":34.002213,"lon":-84.142815,"city":"Duluth","state":"GA","address":"3086 BUFORD HIGHWAY","name":""},
  {"lat":37.619736,"lon":-77.315186,"city":"Mechanicsville","state":"VA","address":"6250 MECHANICSVILLE TURNPIKE","name":""},
  {"lat":35.052311,"lon":-81.988853,"city":"Boiling Springs","state":"SC","address":"4080 HIGHWAY 9","name":""},
  {"lat":32.200001,"lon":-95.309998,"city":"Tyler","state":"TX","address":"18776 US HIGHWAY 69 S","name":""},
  {"lat":41.755699,"lon":-88.306999,"city":"Aurora","state":"IL","address":"444 E. NEW YORK ST","name":""},
  {"lat":30.082443,"lon":-94.129021,"city":"Beaumont","state":"TX","address":"190 NORTH 11TH ST","name":""},
  {"lat":33.022667,"lon":-96.516129,"city":"Wylie","state":"TX","address":"1948 N HIGHWAY 78","name":""},
  {"lat":33.916061,"lon":-81.512741,"city":"Leesville","state":"SC","address":"402 E. COLUMBIA AVE","name":""},
  {"lat":33.974388,"lon":-81.126732,"city":"West Columbia","state":"SC","address":"209 WATTLING RD","name":""},
  {"lat":33.94817,"lon":-81.078011,"city":"Cayce","state":"SC","address":"2285 CHARLESTON HWY","name":""},
  {"lat":34.065369,"lon":-81.116707,"city":"Columbia","state":"SC","address":"4335 BROAD RIVER ROAD","name":""},
  {"lat":33.949902,"lon":-81.10025,"city":"West Columbia","state":"SC","address":"2300 AIRPORT BLVD","name":""},
  {"lat":35.934689,"lon":-87.293457,"city":"Lyles","state":"TN","address":"5755 HIGHWAY 100","name":""},
  {"lat":36.230381,"lon":-86.427559,"city":"Lebanon","state":"TN","address":"3325 HWY 109","name":""},
  {"lat":36.252476,"lon":-87.034019,"city":"Ashland City","state":"TN","address":"1605 HWY 12 S","name":""},
  {"lat":38.910999,"lon":-76.985001,"city":"Washington","state":"DC","address":"1801 WEST VIRGINIA AVE NE","name":""},
  {"lat":38.891037,"lon":-76.952599,"city":"Washington","state":"DC","address":"3710 MINNESOTA AVE NE","name":""},
  {"lat":39.077,"lon":-77.606003,"city":"Leesburg","state":"VA","address":"19509 JAMES MONROE HWY","name":""},
  {"lat":38.951,"lon":-77.026001,"city":"Washington","state":"DC","address":"5001 GEORGIA AVE NW","name":""},
  {"lat":32.917027,"lon":-96.696213,"city":"Garland","state":"TX","address":"4201 W WALNUT STREET","name":""},
  {"lat":35.2934,"lon":-81.654999,"city":"Shelby","state":"NC","address":"3971 W. DIXON BLVD","name":""},
  {"lat":35.24049,"lon":-81.66526,"city":"Boiling Springs","state":"NC","address":"403 S. MAIN STREET","name":""},
  {"lat":34.73386,"lon":-87.892166,"city":"Cherokee","state":"AL","address":"12960 HIGHWAY 72","name":""},
  {"lat":35.925209,"lon":-86.538986,"city":"Smyrna","state":"TN","address":"2205 ALMAVILLE RD","name":""},
  {"lat":36.277313,"lon":-78.405937,"city":"Henderson","state":"NC","address":"3963 RALEIGH ROAD","name":""},
  {"lat":32.405548,"lon":-95.594398,"city":"Ben Wheeler","state":"TX","address":"7165 HWY 64","name":""},
  {"lat":43.032589,"lon":-76.149101,"city":"Syracuse","state":"NY","address":"1410 SOUTH SALINA ST","name":""},
  {"lat":34.327381,"lon":-89.040565,"city":"Ecru","state":"MS","address":"5575 HIGHWAY 15N","name":""},
  {"lat":41.961712,"lon":-87.965797,"city":"Wood Dale","state":"IL","address":"389 E. IRVING PARK RD","name":""},
  {"lat":30.060957,"lon":-95.546021,"city":"Spring","state":"TX","address":"19915 STUEBNER AIRLINE ROAD","name":""},
  {"lat":32.612652,"lon":-90.041496,"city":"Canton","state":"MS","address":"554 W PEACE ST","name":""},
  {"lat":36.01643,"lon":-86.619102,"city":"Antioch","state":"TN","address":"900 FIRESTONE PKWY","name":""},
  {"lat":30.776478,"lon":-95.039436,"city":"Livingston","state":"TX","address":"8716 US HWY 190 W","name":""},
  {"lat":35.945984,"lon":-87.145966,"city":"Fairview","state":"TN","address":"2655 FAIRVIEW BLVD","name":""},
  {"lat":29.931585,"lon":-97.886971,"city":"San Marcos","state":"TX","address":"3016 N IH 35","name":""},
  {"lat":32.346474,"lon":-95.310692,"city":"Tyler","state":"TX","address":"900 WEST FRONT STREET","name":""},
  {"lat":29.831202,"lon":-95.672226,"city":"Houston","state":"TX","address":"17830 CLAY ROAD","name":""},
  {"lat":29.932703,"lon":-95.482155,"city":"Houston","state":"TX","address":"10402 ANTOINE DRIVE","name":""},
  {"lat":30.855268,"lon":-94.855026,"city":"Livingston","state":"TX","address":"11879 US HWY 59N","name":""},
  {"lat":30.029852,"lon":-97.676514,"city":"Buda","state":"TX","address":"17500 CAMINO REAL","name":""},
  {"lat":36.389492,"lon":-84.100189,"city":"La Follette","state":"TN","address":"1404 E. CENTRAL AVE","name":""},
  {"lat":33.725559,"lon":-84.582893,"city":"Atlanta","state":"GA","address":"5955 Fulton Industrial Blvd.","name":""},
  {"lat":34.22443,"lon":-88.74649,"city":"Tupelo","state":"MS","address":"2908 CLIFF GOOKIN","name":""},
  {"lat":34.343407,"lon":-89.512863,"city":"Oxford","state":"MS","address":"1700 BELK AVENUE","name":""},
  {"lat":39.53756,"lon":-82.406998,"city":"Logan","state":"OH","address":"220 SOUTH MULBERRY STREET","name":""},
  {"lat":30.124977,"lon":-95.593254,"city":"Tomball","state":"TX","address":"25011 FM 2978","name":""},
  {"lat":41.279079,"lon":-72.532104,"city":"Clinton","state":"CT","address":"56 WEST MAIN STREET","name":""},
  {"lat":35.645451,"lon":-81.268799,"city":"Newton","state":"NC","address":"2442 W.N.C HIGHWAY 10","name":""},
  {"lat":34.315468,"lon":-88.737442,"city":"Tupelo","state":"MS","address":"2989 W BARNES CROSSING","name":""},
  {"lat":33.482471,"lon":-84.202118,"city":"McDonough","state":"GA","address":"3452 JODECO ROAD","name":""},
  {"lat":42.247673,"lon":-89.072678,"city":"Rockford","state":"IL","address":"1909 11TH ST","name":""},
  {"lat":37.393578,"lon":-77.726944,"city":"Moseley","state":"VA","address":"16910 HULL STREET RD","name":""},
  {"lat":37.114391,"lon":-76.518967,"city":"Newport News","state":"VA","address":"13300 WARWICK BOULEVARD","name":""},
  {"lat":47.302444,"lon":-115.094025,"city":"St. Regis","state":"MT","address":"549 MT HWY 135","name":""},
  {"lat":42.427299,"lon":-82.98436,"city":"Detroit","state":"MI","address":"13613 E MCNICHOLS RD","name":""},
  {"lat":39.634148,"lon":-111.439941,"city":"Fairview","state":"UT","address":"36 WEST 400 NORTH ST","name":""},
  {"lat":34.784973,"lon":-87.000839,"city":"Athens","state":"AL","address":"1846 BROWNSFERRY RD","name":""},
  {"lat":37.289021,"lon":-87.119034,"city":"Central City","state":"KY","address":"200 EAST EVERLY BROTHERS BLVD","name":""},
  {"lat":47.953999,"lon":-116.870003,"city":"Spirit Lake","state":"ID","address":"31450 N 5TH AVE","name":""},
  {"lat":36.081467,"lon":-80.258286,"city":"Winston Salem","state":"NC","address":"714 PETER'S CREEK PARKWAY","name":""},
  {"lat":37.312809,"lon":-76.732811,"city":"Williamsburg","state":"VA","address":"5443 RICHMOND ROAD","name":""},
  {"lat":34.577087,"lon":-92.590096,"city":"Benton","state":"AR","address":"1507 HOT SPRINGS HWY","name":""},
  {"lat":30.339357,"lon":-97.375534,"city":"Elgin","state":"TX","address":"300 US-290","name":""},
  {"lat":39.989979,"lon":-75.024323,"city":"Palmyra","state":"NJ","address":"1575 NJ-73","name":""},
  {"lat":40.697227,"lon":-111.543236,"city":"Park City","state":"UT","address":"4575 N SILVER SPRINGS DR","name":""},
  {"lat":42.41412,"lon":-83.277794,"city":"Detroit","state":"MI","address":"16951 TELEGRAPH RD.","name":""},
  {"lat":45.682301,"lon":-108.703796,"city":"Laurel","state":"MT","address":"11360 S FRONTAGE RD","name":""},
  {"lat":27.13402,"lon":-82.455727,"city":"Nokomis","state":"FL","address":"761 TAMIAMI TRAIL N","name":""},
  {"lat":27.989302,"lon":-82.505836,"city":"Tampa","state":"FL","address":"4800 N DALE MABRY HWY","name":""},
  {"lat":31.97617,"lon":-83.746834,"city":"Cordele","state":"GA","address":"1335 HWY 257 N","name":""},
  {"lat":32.086937,"lon":-83.767067,"city":"Vienna","state":"GA","address":"1501 EAST UNION ST.","name":""},
  {"lat":32.623016,"lon":-93.262276,"city":"Minden","state":"LA","address":"917 HOMER ROAD","name":""},
  {"lat":29.788403,"lon":-95.39872,"city":"Houston","state":"TX","address":"930 YALE STREET","name":""},
  {"lat":32.718987,"lon":-96.622375,"city":"Balch Springs","state":"TX","address":"11900 ELAM RD","name":""},
  {"lat":30.320652,"lon":-90.9702,"city":"Prairieville","state":"LA","address":"38184 HIGHWAY 42","name":""},
  {"lat":31.053909,"lon":-97.506226,"city":"Belton","state":"TX","address":"3463 US HWY 190","name":""},
  {"lat":33.561649,"lon":-86.728271,"city":"Birmingham","state":"AL","address":"7701 1ST AVE N","name":""},
  {"lat":39.22871,"lon":-77.289612,"city":"Clarksburg","state":"MD","address":"22702 GOSNELL FARM DRIVE","name":""},
  {"lat":40.055538,"lon":-75.15799,"city":"Philadelphia","state":"PA","address":"2211-717 STENTON AVE","name":""},
  {"lat":30.321032,"lon":-95.320015,"city":"Conroe","state":"TX","address":"4869 CROCKETT MARTIN ROAD","name":""},
  {"lat":30.370342,"lon":-95.329964,"city":"Conroe","state":"TX","address":"16931 FM 1484","name":""},
  {"lat":30.35622,"lon":-95.35643,"city":"Conroe","state":"TX","address":"13950 WILLIS WAUKEGAN ROAD","name":""},
  {"lat":29.55872,"lon":-95.269341,"city":"Pearland","state":"TX","address":"3057 E BROADWAY ST","name":""},
  {"lat":39.93882,"lon":-74.972504,"city":"Maple Shade","state":"NJ","address":"2815 ROUTE 73 SOUTH","name":""},
  {"lat":38.067707,"lon":-77.33168,"city":"Bowling Green","state":"VA","address":"18131 AP HILL BLVD","name":""},
  {"lat":29.950069,"lon":-89.99324,"city":"Arabi","state":"LA","address":"8001 W ST BERNARD HWY B","name":""},
  {"lat":30.680222,"lon":-96.368835,"city":"Bryan","state":"TX","address":"801 NORTH TEXAS AVE","name":""},
  {"lat":33.267921,"lon":-86.621567,"city":"Columbiana","state":"AL","address":"5845 CHELSEA ROAD","name":""},
  {"lat":37.361908,"lon":-81.104958,"city":"Princeton","state":"WV","address":"306 S. WALKER ST.","name":""},
  {"lat":37.705105,"lon":-81.098236,"city":"Shady Spring","state":"WV","address":"108 HINTON RD.","name":""},
  {"lat":34.699505,"lon":-89.967606,"city":"Coldwater","state":"MS","address":"730 HWY 306","name":""},
  {"lat":30.525885,"lon":-91.160614,"city":"Baton Rouge","state":"LA","address":"8420 VETERANS MEMORIAL BLVD","name":""},
  {"lat":29.940689,"lon":-91.023331,"city":"Napoleonville","state":"LA","address":"102 WASHINGTON ST","name":""},
  {"lat":34.027107,"lon":-117.628922,"city":"Ontario","state":"CA","address":"1195 E WALNUT STREET","name":""},
  {"lat":27.924202,"lon":-97.175407,"city":"Aransas Pass","state":"TX","address":"2504 W. WHEELER AVE","name":""},
  {"lat":34.653065,"lon":-120.457329,"city":"Lompoc","state":"CA","address":"940 NORTH H STREET","name":""},
  {"lat":32.533398,"lon":-92.668182,"city":"Ruston","state":"LA","address":"2378 W ALABAMA AVE","name":""},
  {"lat":36.308094,"lon":-80.332909,"city":"King","state":"NC","address":"6148 NC HWY 66","name":""},
  {"lat":30.769234,"lon":-86.567169,"city":"Crestview","state":"FL","address":"698 N FERNDON BLVD.","name":""},
  {"lat":36.099098,"lon":-84.583527,"city":"Wartburg","state":"TN","address":"1189 MAIN STREET","name":""},
  {"lat":33.607059,"lon":-85.057358,"city":"Carrollton","state":"GA","address":"801 NORTHSIDE DRIVE","name":""},
  {"lat":36.066391,"lon":-86.027351,"city":"Alexandria","state":"TN","address":"210 BRUSH CREEK","name":""},
  {"lat":32.269218,"lon":-86.356621,"city":"Hope Hull","state":"AL","address":"7624 MOBILE HWY","name":""},
  {"lat":36.891579,"lon":-79.865059,"city":"Rocky Mount","state":"VA","address":"6900 VIRGIL GOODE HIGHWAY","name":""},
  {"lat":40.072842,"lon":-75.07621,"city":"Philadelphia","state":"PA","address":"7980 VEREE ROAD","name":""},
  {"lat":35.755634,"lon":-79.166069,"city":"Pittsboro","state":"NC","address":"43 LIFESTYLE PL.","name":""},
  {"lat":40.1166,"lon":-75.348343,"city":"Norristown","state":"PA","address":"223-227 WEST MAIN STREET","name":""},
  {"lat":40.01421,"lon":-75.177673,"city":"Philadelphia","state":"PA","address":"3281 FOX STREET","name":""},
  {"lat":39.083431,"lon":-74.811928,"city":"Stone Harbor","state":"NJ","address":"518 STONE HARBOR BLVD FUEL","name":""},
  {"lat":37.282536,"lon":-79.924957,"city":"Roanoke","state":"VA","address":"815 ORANGE AVENUE","name":""},
  {"lat":36.238079,"lon":-86.289848,"city":"Lebanon","state":"TN","address":"1930 HUNTERS POINT PIKE","name":""},
  {"lat":34.307915,"lon":-89.966248,"city":"Batesville","state":"MS","address":"581 MS - 6","name":""},
  {"lat":30.646645,"lon":-96.284462,"city":"College Station","state":"TX","address":"3500 HARVEY RD","name":""},
  {"lat":41.499092,"lon":-74.071831,"city":"Newburgh","state":"NY","address":"1215 ROUTE 300","name":""},
  {"lat":37.633614,"lon":-77.509224,"city":"Henrico","state":"VA","address":"8808 STAPLES MILL ROAD","name":""},
  {"lat":39.939201,"lon":-75.1978,"city":"Philadelphia","state":"PA","address":"3300 GRAYS FERRY AVE","name":""},
  {"lat":40.3265,"lon":-75.8778,"city":"Reading","state":"PA","address":"2855 PERKIOMEN AVE","name":""},
  {"lat":40.585201,"lon":-75.459602,"city":"Allentown","state":"PA","address":"1518 S 4TH ST","name":""},
  {"lat":39.9184,"lon":-75.209702,"city":"Philadelphia","state":"PA","address":"6101 PASSYUNK AVENUE","name":""},
  {"lat":40.244801,"lon":-75.243103,"city":"Montgomeryville","state":"PA","address":"747 BETHLEHEM PIKE","name":""},
  {"lat":39.998001,"lon":-75.232803,"city":"Philadelphia","state":"PA","address":"5110 CITY LINE AVE","name":""},
  {"lat":39.957001,"lon":-75.215103,"city":"Philadelphia","state":"PA","address":"4640 CHESTNUT STREET","name":""},
  {"lat":39.942699,"lon":-75.165604,"city":"Philadelphia","state":"PA","address":"615 S BROAD ST","name":""},
  {"lat":40.215801,"lon":-75.010902,"city":"Richboro","state":"PA","address":"1008 2ND STREET PIKE","name":""},
  {"lat":40.331902,"lon":-76.500801,"city":"Annville","state":"PA","address":"750 E MAIN ST","name":""},
  {"lat":40.2122,"lon":-76.881302,"city":"New Cumberland","state":"PA","address":"710 LIMEKILN RD","name":""},
  {"lat":40.344299,"lon":-76.930199,"city":"Marysville","state":"PA","address":"104 N STATE RD","name":""},
  {"lat":40.0956,"lon":-75.360298,"city":"King of Prussia","state":"PA","address":"164 E DEKALB PIKE","name":""},
  {"lat":40.096699,"lon":-75.1577,"city":"Glenside","state":"PA","address":"258 S EASTON RD","name":""},
  {"lat":42.984402,"lon":-77.363197,"city":"Farmington","state":"NY","address":"6180 COLLETT ROAD","name":""},
  {"lat":42.9683,"lon":-78.870598,"city":"Tonawanda","state":"NY","address":"3085 DELAWARE AVE.","name":""},
  {"lat":42.967201,"lon":-78.6586,"city":"Clarence","state":"NY","address":"8925 MAIN ST.","name":""},
  {"lat":35.484798,"lon":-80.994797,"city":"Denver","state":"NC","address":"1523 N HIGHWAY 16","name":""},
  {"lat":42.765202,"lon":-73.754402,"city":"Latham","state":"NY","address":"951 NEW LOUDON RD","name":""},
  {"lat":43.0644,"lon":-77.410301,"city":"Fairport","state":"NY","address":"7409 PITTSFORD PALMYRA RD","name":""},
  {"lat":43.251301,"lon":-77.646301,"city":"Greece","state":"NY","address":"4350 DEWEY AVE","name":""},
  {"lat":43.098598,"lon":-73.75,"city":"Saratoga Springs","state":"NY","address":"3006 ROUTE 50","name":""},
  {"lat":42.628899,"lon":-73.809502,"city":"Elsmere","state":"NY","address":"146 DELAWARE AVENUE","name":""},
  {"lat":36.721901,"lon":-76.639099,"city":"Suffolk","state":"VA","address":"1555 HOLLAND RD.","name":""},
  {"lat":36.8041,"lon":-76.384598,"city":"Portsmouth","state":"VA","address":"3601 AIRLINE BLVD.","name":""},
  {"lat":37.384499,"lon":-76.534798,"city":"Gloucester","state":"VA","address":"6692 GEORGE WASHINGTON MEMORIAL HWY","name":""},
  {"lat":37.577801,"lon":-77.395103,"city":"Richmond","state":"VA","address":"3801 MECHANICSVILLE TPKE","name":""},
  {"lat":40.237801,"lon":-76.953796,"city":"Camp Hill","state":"PA","address":"4175 CARLISLE PIKE","name":""},
  {"lat":33.327702,"lon":-79.316597,"city":"Georgetown","state":"SC","address":"3400 SOUTH FRASER ST.","name":""},
  {"lat":38.884399,"lon":-77.099197,"city":"Arlington","state":"VA","address":"3299 WILSON BLVD","name":""},
  {"lat":32.975929,"lon":-80.063103,"city":"North Charleston","state":"SC","address":"8976 UNIVERSITY BLVD","name":""},
  {"lat":32.9216,"lon":-80.118401,"city":"North Charleston","state":"SC","address":"8620 DORCHESTER RD","name":""},
  {"lat":32.9711,"lon":-80.169403,"city":"Summerville","state":"SC","address":"1401 OLD TROLLEY RD","name":""},
  {"lat":32.866798,"lon":-80.053001,"city":"North Charleston","state":"SC","address":"5777 DORCHESTER RD","name":""},
  {"lat":33.015701,"lon":-80.087997,"city":"Green Pond","state":"SC","address":"670 COLLEGE PARK RD","name":""},
  {"lat":32.744099,"lon":-80.0382,"city":"Johns Island","state":"SC","address":"2790 MAYBANK HWY","name":""},
  {"lat":43.1912,"lon":-77.5028,"city":"Webster","state":"NY","address":"1910 EMPIRE BLVD","name":""},
  {"lat":37.111832,"lon":-80.590157,"city":"Radford","state":"VA","address":"2307 W MAIN ST","name":""},
  {"lat":37.23468,"lon":-80.437218,"city":"Blacksburg","state":"VA","address":"809 GLADE RD","name":""},
  {"lat":37.191971,"lon":-80.366379,"city":"Christiansburg","state":"VA","address":"900 LUSTERS GATE RD","name":""},
  {"lat":37.118481,"lon":-80.420753,"city":"Christiansburg","state":"VA","address":"1250 W MAIN ST","name":""},
  {"lat":35.061691,"lon":-80.965004,"city":"Fort Mill","state":"SC","address":"940 GOLD HILL RD","name":""},
  {"lat":30.152128,"lon":-95.635773,"city":"Magnolia","state":"TX","address":"26335 HARDIN STORE RD","name":""},
  {"lat":38.1931,"lon":-79.018898,"city":"Verona","state":"VA","address":"101 LEE HIGHWAY","name":""},
  {"lat":41.222176,"lon":-73.715225,"city":"Bedford","state":"NY","address":"776 BEDFORD ROAD","name":""},
  {"lat":42.6278,"lon":-82.936401,"city":"Clinton Township","state":"MI","address":"18650 HALL ROAD","name":""},
  {"lat":41.6656,"lon":-86.208702,"city":"South Bend","state":"IN","address":"2702 MISHAWAKA AVENUE","name":""},
  {"lat":41.666,"lon":-86.226196,"city":"South Bend","state":"IN","address":"1449 MISHAWAKA AVENUE","name":""},
  {"lat":41.656502,"lon":-86.003403,"city":"Elkhart","state":"IN","address":"2755 S NAPPANEE ST","name":""},
  {"lat":41.537701,"lon":-87.461403,"city":"Highland","state":"IN","address":"9651 KENNEDY AVENUE","name":""},
  {"lat":41.551498,"lon":-87.433601,"city":"Highland","state":"IN","address":"3920 RIDGE ROAD","name":""},
  {"lat":41.6525,"lon":-88.125999,"city":"Romeoville","state":"IL","address":"1300 WEST NORMANTOWN ROAD","name":""},
  {"lat":41.707401,"lon":-88.087303,"city":"Bolingbrook","state":"IL","address":"499 WEST BOUGHTON ROAD","name":""},
  {"lat":27.9513,"lon":-82.400803,"city":"Tampa","state":"FL","address":"5149 ADAMO DRIVE","name":""},
  {"lat":28.032301,"lon":-82.418503,"city":"Tampa","state":"FL","address":"3701 E BUSCH BLVD","name":""},
  {"lat":27.8531,"lon":-82.305,"city":"Riverview","state":"FL","address":"11615 BOYETTE RD","name":""},
  {"lat":27.344601,"lon":-80.3265,"city":"Ankona","state":"FL","address":"6601 S. US HIGHWAY 1","name":""},
  {"lat":26.006701,"lon":-80.4095,"city":"Pembroke Pines","state":"FL","address":"19600 PINES BLVD","name":""},
  {"lat":28.0928,"lon":-82.772499,"city":"Palm Harbor","state":"FL","address":"2734 PALM HARBOR BLVD","name":""},
  {"lat":29.2624,"lon":-81.077103,"city":"Ormond Beach","state":"FL","address":"700 S NOVA RD","name":""},
  {"lat":28.514299,"lon":-81.458504,"city":"Orlando","state":"FL","address":"2655 S KIRKMAN RD","name":""},
  {"lat":28.5303,"lon":-81.5411,"city":"Ocoee","state":"FL","address":"2710 MAGUIRE RD","name":""},
  {"lat":26.169201,"lon":-80.146103,"city":"Oakland Park","state":"FL","address":"3300 N ANDREWS AVE","name":""},
  {"lat":26.725,"lon":-81.906898,"city":"North Fort Myers","state":"FL","address":"17951 N TAMIAMI TRL","name":""},
  {"lat":25.967899,"lon":-80.205704,"city":"Miami Gardens","state":"FL","address":"20901 NW 2ND AVE","name":""},
  {"lat":25.94206,"lon":-80.322929,"city":"Miami","state":"FL","address":"7550 NW 186TH ST","name":""},
  {"lat":26.609699,"lon":-81.653702,"city":"Lehigh Acres","state":"FL","address":"1351 HOMESTEAD RD N","name":""},
  {"lat":27.879499,"lon":-82.729599,"city":"Largo","state":"FL","address":"11800 66TH ST","name":""},
  {"lat":27.9168,"lon":-82.7257,"city":"Clearwater","state":"FL","address":"2698 ROOSEVELT BLVD","name":""},
  {"lat":26.590099,"lon":-80.147003,"city":"Lake Worth","state":"FL","address":"5980 S JOG RD","name":""},
  {"lat":27.946199,"lon":-82.731102,"city":"Clearwater","state":"FL","address":"2577 HARN BLVD","name":""},
  {"lat":27.982401,"lon":-82.708603,"city":"Clearwater","state":"FL","address":"1625 N MCMULLEN BOOTH RD","name":""},
  {"lat":27.257299,"lon":-80.279404,"city":"Jensen Beach","state":"FL","address":"4287 NW FEDERAL HWY","name":""},
  {"lat":26.018,"lon":-80.2043,"city":"Hollywood","state":"FL","address":"5801 JOHNSON ST","name":""},
  {"lat":26.332001,"lon":-81.753998,"city":"Bonita Springs","state":"FL","address":"12030 BONITA BEACH RD SE","name":""},
  {"lat":25.925699,"lon":-80.2938,"city":"Hialeah","state":"FL","address":"5705 NW 167TH ST","name":""},
  {"lat":26.547501,"lon":-81.801903,"city":"Fort Myers","state":"FL","address":"9281 DANIELS PKWY","name":""},
  {"lat":26.122499,"lon":-80.150299,"city":"Fort Lauderdale","state":"FL","address":"621 W BROWARD BLVD","name":""},
  {"lat":26.4594,"lon":-80.1222,"city":"Delray Beach","state":"FL","address":"14624 S MILITARY TRL","name":""},
  {"lat":32.92421,"lon":-96.881195,"city":"Farmers Branch","state":"TX","address":"2904 VALLEY VIEW LN","name":""},
  {"lat":26.2749,"lon":-80.157204,"city":"Deerfield Beach","state":"FL","address":"2515 W SAMPLE RD","name":""},
  {"lat":26.281099,"lon":-80.2024,"city":"Coral Springs","state":"FL","address":"4150 N STATE ROAD 7","name":""},
  {"lat":35.037094,"lon":-89.930565,"city":"Memphis","state":"TN","address":"3986 RAINES ROAD","name":""},
  {"lat":32.562481,"lon":-95.875046,"city":"Canton","state":"TX","address":"1089 DALLAS ST","name":""},
  {"lat":33.543201,"lon":-92.828072,"city":"Camden","state":"AR","address":"179 SOUTH STREET","name":""},
  {"lat":34.977772,"lon":-85.409981,"city":"Wildwood","state":"GA","address":"405 GA-299","name":""},
  {"lat":34.482899,"lon":-87.714996,"city":"Russellville","state":"AL","address":"27534 HWY 24 EAST","name":""},
  {"lat":30.35128,"lon":-97.434418,"city":"Elgin","state":"TX","address":"17615 E. US 290","name":""},
  {"lat":37.00127,"lon":-79.890572,"city":"Rocky Mount","state":"VA","address":"255 N. MAIN STREET","name":""},
  {"lat":41.501591,"lon":-75.713921,"city":"Clarks Summit","state":"PA","address":"816 NORTH STATE STREET","name":""},
  {"lat":40.610661,"lon":-111.853996,"city":"Midvale","state":"UT","address":"7746 UNION PARK","name":""},
  {"lat":40.725182,"lon":-111.876427,"city":"Salt Lake City","state":"UT","address":"502 EAST 2100 SOUTH","name":""},
  {"lat":40.558491,"lon":-111.893372,"city":"Sandy","state":"UT","address":"95 WEST 10600 SOUTH","name":""},
  {"lat":40.696831,"lon":-112.063629,"city":"Magna","state":"UT","address":"7210 WEST 3500 SOUTH","name":""},
  {"lat":40.558472,"lon":-111.87159,"city":"Sandy","state":"UT","address":"10615 SOUTH 700 EAST","name":""},
  {"lat":36.222481,"lon":-80.286293,"city":"Rural Hall","state":"NC","address":"6940 BROAD STREET","name":""},
  {"lat":29.9105,"lon":-85.373001,"city":"Port St. Joe","state":"FL","address":"8220 W HIGHWAY 98","name":""},
  {"lat":32.345421,"lon":-86.10363,"city":"Pike Road","state":"AL","address":"40 HOUSE STREET","name":""},
  {"lat":33.942299,"lon":-83.50132,"city":"Bogart","state":"GA","address":"4883 ATLANTA HWY","name":""},
  {"lat":33.763241,"lon":-84.417747,"city":"Atlanta","state":"GA","address":"308 JOSEPH E. LOWERY BLVD. NW","name":""},
  {"lat":32.57272,"lon":-85.500023,"city":"Auburn","state":"AL","address":"1684 S. COLLEGE STREET","name":""},
  {"lat":39.751991,"lon":-86.126846,"city":"Indianapolis","state":"IN","address":"1937 PROSPECT ST","name":""},
  {"lat":33.98571,"lon":-89.866791,"city":"Tillatoba","state":"MS","address":"25357 HWY 330","name":""},
  {"lat":35.78735,"lon":-86.368752,"city":"Murfreesboro","state":"TN","address":"1509 JOE B. JACKSON PKWY","name":""},
  {"lat":29.233236,"lon":-99.752396,"city":"Uvalde","state":"TX","address":"3129 E. MAIN STREET","name":""},
  {"lat":36.56823,"lon":-85.164612,"city":"Byrdstown","state":"TN","address":"1160 LIVINGSTON HWY","name":""},
  {"lat":37.41357,"lon":-79.211662,"city":"Lynchburg","state":"VA","address":"3216 OLD FOREST ROAD","name":""},
  {"lat":29.93667,"lon":-85.401558,"city":"Mexico Beach","state":"FL","address":"714 US HWY 98","name":""},
  {"lat":30.668409,"lon":-97.912819,"city":"Liberty Hill","state":"TX","address":"13801 W HWY 29","name":""},
  {"lat":30.166109,"lon":-96.428108,"city":"Brenham","state":"TX","address":"2145 HWY 290 W","name":""},
  {"lat":33.936859,"lon":-80.32016,"city":"Sumter","state":"SC","address":"550 S PIKE E","name":""},
  {"lat":31.91313,"lon":-85.148811,"city":"Eufaula","state":"AL","address":"1116 N EUFAULA AVE","name":""},
  {"lat":29.772499,"lon":-98.268341,"city":"New Braunfels","state":"TX","address":"TX 46 & VIA PRINCIPALE","name":""},
  {"lat":36.15506,"lon":-80.146721,"city":"Walkertown","state":"NC","address":"4990 REIDSVILLE ROAD","name":""},
  {"lat":30.34901,"lon":-97.557938,"city":"Manor","state":"TX","address":"10555 HWY 290","name":""},
  {"lat":30.28557,"lon":-97.70623,"city":"Austin","state":"TX","address":"2204 AIRPORT BLVD","name":""},
  {"lat":38.961788,"lon":-77.544067,"city":"Brambleton","state":"VA","address":"42175 SHAPIRO DRIVE","name":""},
  {"lat":40.034351,"lon":-75.115303,"city":"Philadelphia","state":"PA","address":"5570 RISING SUN AVENUE","name":""},
  {"lat":37.80328,"lon":-79.410408,"city":"Lexington","state":"VA","address":"1157 N LEE HIGHWAY","name":""},
  {"lat":33.57552,"lon":-79.025917,"city":"Murrells Inlet","state":"SC","address":"3411 US HWY 17 BUSINESS","name":""},
  {"lat":29.99234,"lon":-97.625679,"city":"Lockhart","state":"TX","address":"4490 FM 1185","name":""},
  {"lat":35.268761,"lon":-91.200417,"city":"McCrory","state":"AR","address":"100 HWY 64 WEST","name":""},
  {"lat":34.765709,"lon":-84.769211,"city":"Chatsworth","state":"GA","address":"102 E FORT ST","name":""},
  {"lat":35.053699,"lon":-89.991867,"city":"Memphis","state":"TN","address":"3483 AIRWAYS BLVD","name":""},
  {"lat":29.49782,"lon":-94.994072,"city":"Bacliff","state":"TX","address":"4627 HWY 146","name":""},
  {"lat":40.74548,"lon":-74.223389,"city":"East Orange","state":"NJ","address":"855 S. ORANGE AVE","name":""},
  {"lat":32.838741,"lon":-97.291023,"city":"Fort Worth","state":"TX","address":"5251 N. BEACH ST","name":""},
  {"lat":33.233158,"lon":-97.117233,"city":"Denton","state":"TX","address":"1205 E UNIVERSITY DR","name":""},
  {"lat":32.283939,"lon":-90.108139,"city":"Pearl","state":"MS","address":"3405 OLD BRANDON RD.","name":""},
  {"lat":39.574299,"lon":-104.80687,"city":"Centennial","state":"CO","address":"15550 E. BRONCOS PARKWAY","name":""},
  {"lat":47.450211,"lon":-117.132172,"city":"Rockford","state":"WA","address":"216 SOUTH 1ST STREET","name":""},
  {"lat":29.407619,"lon":-94.948608,"city":"Texas City","state":"TX","address":"3415 25TH AVENUE N","name":""},
  {"lat":32.7444,"lon":-83.702003,"city":"Macon","state":"GA","address":"4017 HARTLEY BRIDGE","name":""},
  {"lat":35.2164,"lon":-80.884132,"city":"Charlotte","state":"NC","address":"1601 REMOUNT RD","name":""},
  {"lat":30.35413,"lon":-97.704239,"city":"Austin","state":"TX","address":"8545 N LAMAR BLVD","name":""},
  {"lat":30.092287,"lon":-90.503914,"city":"La Place","state":"LA","address":"642 BELLE TERRE BLVD.","name":""},
  {"lat":30.21022,"lon":-90.954361,"city":"Gonzales","state":"LA","address":"38507 HWY 30","name":""},
  {"lat":30.416349,"lon":-91.087646,"city":"Baton Rouge","state":"LA","address":"8967 JEFFERSON HWY","name":""},
  {"lat":32.311852,"lon":-86.222221,"city":"Montgomery","state":"AL","address":"4501 TROY HWY","name":""},
  {"lat":32.327591,"lon":-86.24749,"city":"Montgomery","state":"AL","address":"2909 E SOUTH BLVD","name":""},
  {"lat":33.697182,"lon":-84.262932,"city":"Decatur","state":"GA","address":"3801 FLAT SHOALS PKWY","name":""},
  {"lat":34.58374,"lon":-87.070793,"city":"Trinity","state":"AL","address":"3536 GORDON TERRY PARKWAY","name":""},
  {"lat":32.44656,"lon":-91.493492,"city":"Delhi","state":"LA","address":"930 BROADWAY STREET","name":""},
  {"lat":36.063801,"lon":-79.961731,"city":"High Point","state":"NC","address":"601 GALLIMORE DAIRY RD","name":""},
  {"lat":35.08802,"lon":-80.507736,"city":"Monroe","state":"NC","address":"4710 UNIONVILLE RD","name":""},
  {"lat":31.289391,"lon":-94.638634,"city":"Lufkin","state":"TX","address":"6462 US 69","name":""},
  {"lat":35.060478,"lon":-80.990402,"city":"Fort Mill","state":"SC","address":"2891 WEST HWY 160","name":""},
  {"lat":35.883301,"lon":-80.510002,"city":"Mocksville","state":"NC","address":"1678 HWY 64 EAST","name":""},
  {"lat":31.5865,"lon":-95.846001,"city":"Oakwood","state":"TX","address":"506 BROAD ST","name":""},
  {"lat":40.512402,"lon":-75.603996,"city":"Alburtis","state":"PA","address":"107 NORTH MAIN STREET","name":""},
  {"lat":37.9161,"lon":-76.859352,"city":"Tappahannock","state":"VA","address":"1151 TAPPAHANNOCK BLVD","name":""},
  {"lat":41.42968,"lon":-73.679787,"city":"Carmel","state":"NY","address":"89 GLENEIDA AVE","name":""},
  {"lat":35.897999,"lon":-90.341103,"city":"Monette","state":"AR","address":"120 INDUSTRIAL DRIVE","name":""},
  {"lat":29.4855,"lon":-94.940002,"city":"San Leon","state":"TX","address":"2290 FM 517 E","name":""},
  {"lat":30.871559,"lon":-96.599533,"city":"Hearne","state":"TX","address":"917 W BROWN ST","name":""},
  {"lat":29.82169,"lon":-94.98436,"city":"Baytown","state":"TX","address":"8500 GARTH RD","name":""},
  {"lat":30.50132,"lon":-94.987061,"city":"Shepherd","state":"TX","address":"5355 US HIGHWAY 59 SOUTH","name":""},
  {"lat":30.2174,"lon":-95.258537,"city":"Conroe","state":"TX","address":"20175 HIGHWAY 242","name":""},
  {"lat":31.899229,"lon":-97.09137,"city":"Abbott","state":"TX","address":"1197 IH 35 S","name":""},
  {"lat":31.34001,"lon":-94.734962,"city":"Lufkin","state":"TX","address":"612 W FRANK AVE","name":""},
  {"lat":42.32016,"lon":-111.297417,"city":"Montpelier","state":"ID","address":"218 N 4TH","name":""},
  {"lat":40.744511,"lon":-73.950684,"city":"Long Island City","state":"NY","address":"47-11 11TH STREET","name":""},
  {"lat":30.225679,"lon":-97.704277,"city":"Austin","state":"TX","address":"6220 E RIVERSIDE DR.","name":""},
  {"lat":38.97258,"lon":-76.770828,"city":"Bowie","state":"MD","address":"6021 HIGHBRIDGE ROAD","name":""},
  {"lat":29.66382,"lon":-95.236969,"city":"South Houston","state":"TX","address":"1220 HOUSTON BOULEVARD","name":""},
  {"lat":38.91407,"lon":-77.016068,"city":"Washington","state":"DC","address":"321 FLORIDA AVE N.W.","name":""},
  {"lat":32.896099,"lon":-93.863777,"city":"Hosston","state":"LA","address":"6411 HWY 2","name":""},
  {"lat":41.412708,"lon":-75.665459,"city":"Scranton","state":"PA","address":"388 FRANKLIN AVE","name":""},
  {"lat":40.431969,"lon":-80.768562,"city":"Richmond","state":"OH","address":"215 E MAIN STREET","name":""},
  {"lat":38.900921,"lon":-76.985283,"city":"Washington","state":"DC","address":"1396 FLORIDA AVE. NE","name":""},
  {"lat":38.911301,"lon":-77.01075,"city":"Washington","state":"DC","address":"22 FLORIDA AVE. N.W.","name":""},
  {"lat":37.114601,"lon":-79.281601,"city":"Altavista","state":"VA","address":"1023 MAIN STREET","name":""},
  {"lat":38.533699,"lon":-77.808098,"city":"Remington","state":"VA","address":"101 JAMES MADISON STREET","name":""},
  {"lat":32.7393,"lon":-97.044731,"city":"Grand Prairie","state":"TX","address":"2584 W JEFFERSON ST","name":""},
  {"lat":31.043526,"lon":-83.398865,"city":"Cecil","state":"GA","address":"1770 OLD COFFEE ROAD","name":""},
  {"lat":32.343681,"lon":-86.220818,"city":"Montgomery","state":"AL","address":"5101 VAUGHN ROAD","name":""},
  {"lat":32.382271,"lon":-86.268356,"city":"Montgomery","state":"AL","address":"2906 ATLANTA HWY","name":""},
  {"lat":34.296398,"lon":-88.969002,"city":"Pontotoc","state":"MS","address":"3600 HWY 9","name":""},
  {"lat":40.201885,"lon":-77.28096,"city":"West Pennsboro","state":"PA","address":"50 E MAIN STREET","name":""},
  {"lat":41.903419,"lon":-87.647346,"city":"Chicago","state":"IL","address":"735 W DIVISION LLC","name":""},
  {"lat":30.3011,"lon":-93.233002,"city":"Moss Bluff","state":"LA","address":"1900 SAM HOUSTON JONES PKWY","name":""},
  {"lat":30.3559,"lon":-81.653641,"city":"Jacksonville","state":"FL","address":"2907 N. MAIN STREET","name":""},
  {"lat":30.370251,"lon":-81.724442,"city":"Jacksonville","state":"FL","address":"5946 NEW KINGS ROAD","name":""},
  {"lat":30.518061,"lon":-81.622322,"city":"Jacksonville","state":"FL","address":"15411 N. MAIN STREET","name":""},
  {"lat":36.089905,"lon":-81.928131,"city":"Newland","state":"NC","address":"420 CRANBERRY STREET","name":""},
  {"lat":32.881451,"lon":-97.074577,"city":"Euless","state":"TX","address":"3050 HWY 360","name":""},
  {"lat":32.721458,"lon":-96.169113,"city":"Terrell","state":"TX","address":"7340 EAST US HIGHWAY 80","name":""},
  {"lat":33.14138,"lon":-96.984894,"city":"Little Elm","state":"TX","address":"3797 W. ELDORADO PARKWY","name":""},
  {"lat":28.0546,"lon":-97.069557,"city":"Rockport","state":"TX","address":"3229 SH 35 BYPASS","name":""},
  {"lat":30.53129,"lon":-94.97493,"city":"Shepherd","state":"TX","address":"3101 HWY 59","name":""},
  {"lat":36.732075,"lon":-84.155243,"city":"Williamsburg","state":"KY","address":"856 HWY 25","name":""},
  {"lat":37.233608,"lon":-77.263268,"city":"Prince George","state":"VA","address":"5803 PRINCE GEORGE DRIVE","name":""},
  {"lat":40.624229,"lon":-111.808029,"city":"Cottonwood Heights","state":"UT","address":"2995 E FORT UNION BLVD","name":""},
  {"lat":30.344084,"lon":-93.200729,"city":"Lake Charles","state":"LA","address":"2577 HWY 171","name":""},
  {"lat":35.280701,"lon":-81.188492,"city":"Gastonia","state":"NC","address":"1617 N CHESTER STREET","name":""},
  {"lat":34.689209,"lon":-91.309448,"city":"Clarendon","state":"AR","address":"337 SOUTH 5TH STREET","name":""},
  {"lat":30.62067,"lon":-84.415466,"city":"Havana","state":"FL","address":"208 SOUTH MAIN STREET","name":""},
  {"lat":33.004959,"lon":-96.6819,"city":"Plano","state":"TX","address":"520 JUPITER RD","name":""},
  {"lat":32.757408,"lon":-97.702431,"city":"Hudson Oaks","state":"TX","address":"3105 FORT WORTH HWY","name":""},
  {"lat":32.884682,"lon":-96.682648,"city":"Garland","state":"TX","address":"2646 S JUPITER RD","name":""},
  {"lat":32.648701,"lon":-97.33419,"city":"Fort Worth","state":"TX","address":"951 ALTAMESA BLVD","name":""},
  {"lat":32.89502,"lon":-97.273262,"city":"Fort Worth","state":"TX","address":"5151 N TARRANT PKWY","name":""},
  {"lat":37.0378,"lon":-76.314003,"city":"Hampton","state":"VA","address":"1600 E PEMBROKE AVE","name":""},
  {"lat":32.693821,"lon":-95.876183,"city":"Edgewood","state":"TX","address":"714 E PINE STREET","name":""},
  {"lat":30.213505,"lon":-97.139969,"city":"Paige","state":"TX","address":"2537 E SH 21","name":""},
  {"lat":29.438499,"lon":-95.476089,"city":"Rosharon","state":"TX","address":"10165 FM 521","name":""},
  {"lat":40.029091,"lon":-75.037483,"city":"Philadelphia","state":"PA","address":"7150 TORRESDALE AVE","name":""},
  {"lat":34.984982,"lon":-91.963364,"city":"Austin","state":"AR","address":"3811 AR-38","name":""},
  {"lat":41.759102,"lon":-87.577026,"city":"Chicago","state":"IL","address":"1932 E 75TH ST","name":""},
  {"lat":42.027164,"lon":-87.974098,"city":"Elk Grove Village","state":"IL","address":"874 E HIGGINS RD","name":""},
  {"lat":32.522629,"lon":-92.312134,"city":"Calhoun","state":"LA","address":"1300 HWY 80 E","name":""},
  {"lat":40.0312,"lon":-75.084,"city":"Philadelphia","state":"PA","address":"1300 E. CHELTENHAM AVE","name":""},
  {"lat":42.411098,"lon":-83.431999,"city":"Livonia","state":"MI","address":"39350 SIX MILE ROAD","name":""},
  {"lat":42.468102,"lon":-83.423897,"city":"Farmington Hills","state":"MI","address":"38171 W 10 MILE ROAD","name":""},
  {"lat":42.64727,"lon":-84.071617,"city":"Fowlerville","state":"MI","address":"941 S GRAND AVE","name":""},
  {"lat":42.396198,"lon":-83.438057,"city":"Plymouth","state":"MI","address":"39950 FIVE MILE ROAD","name":""},
  {"lat":34.491348,"lon":-82.676872,"city":"Anderson","state":"SC","address":"691 HWY 28 BYPASS","name":""},
  {"lat":35.081051,"lon":-81.623207,"city":"Gaffney","state":"SC","address":"1914 CHEROKEE AVE","name":""},
  {"lat":35.314041,"lon":-81.521187,"city":"Shelby","state":"NC","address":"1210 FALLSTON ROAD","name":""},
  {"lat":36.1502,"lon":-81.218147,"city":"Wilkesboro","state":"NC","address":"3360 HWY 421","name":""},
  {"lat":35.930729,"lon":-81.527267,"city":"Lenoir","state":"NC","address":"1010 BLOWING ROCK BLVD","name":""},
  {"lat":34.657639,"lon":-78.999702,"city":"Lumberton","state":"NC","address":"4611 FAYETTEVILLE ROAD","name":""},
  {"lat":34.92746,"lon":-79.759216,"city":"Rockingham","state":"NC","address":"824 EAST BROAD STREET","name":""},
  {"lat":42.024181,"lon":-87.88118,"city":"Des Plaines","state":"IL","address":"1733 E OAKTON ST","name":""},
  {"lat":37.03067,"lon":-76.420326,"city":"Virginia Beach","state":"VA","address":"3327 W MERCURY BLVD","name":""},
  {"lat":41.019001,"lon":-76.794121,"city":"Milton","state":"PA","address":"1460 NORTH RIDGE ROAD","name":""},
  {"lat":33.808079,"lon":-84.096153,"city":"Stone Mountain","state":"GA","address":"5150 ANNISTOWN RD.","name":""},
  {"lat":32.6744,"lon":-85.333,"city":"Opelika","state":"AL","address":"2200 WEST POINT PKWY","name":""},
  {"lat":33.57914,"lon":-84.412308,"city":"Riverdale","state":"GA","address":"6455 HWY 85","name":""},
  {"lat":33.764278,"lon":-84.3722,"city":"Atlanta","state":"GA","address":"356 BOULEVARD NE","name":""},
  {"lat":35.92852,"lon":-78.890663,"city":"Durham","state":"NC","address":"1403 ODYSSEY DR","name":""},
  {"lat":35.971016,"lon":-78.555351,"city":"Wake Forest","state":"NC","address":"CRENSHAW CORNERS DR HWY 98","name":""},
  {"lat":42.386948,"lon":-83.139259,"city":"Detroit","state":"MI","address":"13500 LIVERNOIS AVE","name":""},
  {"lat":33.462059,"lon":-84.207809,"city":"McDonough","state":"GA","address":"1599 JONESBORO RD","name":""},
  {"lat":29.458359,"lon":-98.567657,"city":"San Antonio","state":"TX","address":"2409 NW 36TH STREET","name":""},
  {"lat":29.937889,"lon":-93.981049,"city":"Port Arthur","state":"TX","address":"2920 JIMMY JOHNSON BLVD","name":""},
  {"lat":30.05134,"lon":-93.81588,"city":"Orange","state":"TX","address":"20871 HWY 62 SOUTH","name":""},
  {"lat":34.759731,"lon":-92.2631,"city":"North Little Rock","state":"AR","address":"623 N. CYPRESS","name":""},
  {"lat":34.634621,"lon":-82.596863,"city":"Anderson","state":"SC","address":"4610 HWY 81 N","name":""},
  {"lat":36.182011,"lon":-86.749451,"city":"Nashville","state":"TN","address":"510 GALLATIN AVE","name":""},
  {"lat":36.904018,"lon":-76.126389,"city":"Virginia Beach","state":"VA","address":"4473 SHORE DRIVE","name":""},
  {"lat":34.97179,"lon":-89.795502,"city":"Olive Branch","state":"MS","address":"7641 HACKS CROSS ROAD","name":""},
  {"lat":34.287621,"lon":-89.176613,"city":"Pontotoc","state":"MS","address":"10727 MS HWY 6 W","name":""},
  {"lat":30.55695,"lon":-97.559464,"city":"Hutto","state":"TX","address":"1103 ED SCHMIDT BLVD","name":""},
  {"lat":34.272072,"lon":-85.18187,"city":"Rome","state":"GA","address":"1501 MARTHA BERRY BLVD","name":""},
  {"lat":34.014801,"lon":-86.0009,"city":"Gadsden","state":"AL","address":"300 W MEIGHAN BLVD","name":""},
  {"lat":33.292999,"lon":-86.811203,"city":"Pelham","state":"AL","address":"3071 PELHAM PARKWAY","name":""},
  {"lat":34.87011,"lon":-85.5177,"city":"Trenton","state":"GA","address":"5091 HIGHWAY 136","name":""},
  {"lat":37.439499,"lon":-79.120453,"city":"Madison Heights","state":"VA","address":"4851 AMHERST HWY","name":""},
  {"lat":30.247999,"lon":-85.556,"city":"Panama City","state":"FL","address":"5500 NORTH STAR AVENUE","name":""},
  {"lat":30.177999,"lon":-85.761002,"city":"Panama City Beach","state":"FL","address":"804 THOMAS DRIVE","name":""},
  {"lat":30.25,"lon":-85.933998,"city":"Panama City Beach","state":"FL","address":"20407 PANAMA CITY BEACH PARKWAY","name":""},
  {"lat":28.08778,"lon":-82.456818,"city":"Tampa","state":"FL","address":"301 E BEARSS AVE","name":""},
  {"lat":29.62701,"lon":-95.388802,"city":"Houston","state":"TX","address":"HWY 288 & W OREM DR","name":""},
  {"lat":33.793922,"lon":-96.555382,"city":"Denison","state":"TX","address":"SE CORNER OF HWY 75 AND TX-91","name":""},
  {"lat":37.199951,"lon":-80.069328,"city":"Roanoke","state":"VA","address":"6958 BENT MOUNTAIN ROAD","name":""},
  {"lat":33.968418,"lon":-84.20787,"city":"Norcross","state":"GA","address":"3415 MEDLOCK BRIDGE RD","name":""},
  {"lat":40.917,"lon":-75.421997,"city":"Brodheadsville","state":"PA","address":"1437 US-209","name":""},
  {"lat":42.998199,"lon":-78.5028,"city":"Akron","state":"NY","address":"12996 MAIN STREET","name":""},
  {"lat":40.508999,"lon":-74.931,"city":"Flemington","state":"NJ","address":"601 ROUTE 12","name":""},
  {"lat":40.833,"lon":-74.827003,"city":"Hackettstown","state":"NJ","address":"104 ROUTE 57","name":""},
  {"lat":42.377201,"lon":-87.855103,"city":"Waukegan","state":"IL","address":"1215 N. LEWIS","name":""},
  {"lat":37.665272,"lon":-79.508301,"city":"Natural Bridge","state":"VA","address":"4811 LEE HIGHWAY","name":""},
  {"lat":34.67165,"lon":-92.417961,"city":"Little Rock","state":"AR","address":"8822 STAGECOACH RD","name":""},
  {"lat":34.44492,"lon":-93.089981,"city":"Hot Springs","state":"AR","address":"4751 CENTRAL AVE","name":""},
  {"lat":35.091164,"lon":-92.40387,"city":"Conway","state":"AR","address":"1640 E OAK ST","name":""},
  {"lat":40.787441,"lon":-73.810707,"city":"Whitestone","state":"NY","address":"150-65 CROSS ISLAND PARKWAY","name":""},
  {"lat":30.632919,"lon":-87.06942,"city":"Milton","state":"FL","address":"5967 BERRYHILL ROAD","name":""},
  {"lat":42.405762,"lon":-83.139923,"city":"Detroit","state":"MI","address":"15464 LIVERNOIS AVE","name":""},
  {"lat":37.346653,"lon":-79.233688,"city":"Lynchburg","state":"VA","address":"20061 TIMBERLAKE ROAD","name":""},
  {"lat":29.915392,"lon":-81.363281,"city":"St. Augustine","state":"FL","address":"967 SR 16","name":""},
  {"lat":36.487438,"lon":-86.309402,"city":"Bethpage","state":"TN","address":"3502 US-31E","name":""},
  {"lat":29.9466,"lon":-95.562927,"city":"Houston","state":"TX","address":"9275 FM 1960 W","name":""},
  {"lat":45.729801,"lon":-111.18438,"city":"Bozeman","state":"MT","address":"77 E VALLEY CENTER RD SUITE 1","name":""},
  {"lat":31.08449,"lon":-97.363762,"city":"Temple","state":"TX","address":"1706 S 31ST ST","name":""},
  {"lat":29.863684,"lon":-97.66851,"city":"Lockhart","state":"TX","address":"1706 S HIGHWAY 183","name":""},
  {"lat":31.097298,"lon":-97.720886,"city":"Killeen","state":"TX","address":"1801 W S YOUNG DR","name":""},
  {"lat":29.785603,"lon":-95.203484,"city":"Houston","state":"TX","address":"703 NORMANDY STREET","name":""},
  {"lat":32.441963,"lon":-97.755379,"city":"Granbury","state":"TX","address":"1901 E US HIGHWAY 377","name":""},
  {"lat":29.678305,"lon":-95.123337,"city":"Deer Park","state":"TX","address":"3614 CENTER STREET","name":""},
  {"lat":31.525677,"lon":-97.148727,"city":"Beverly Hills","state":"TX","address":"1101 S VALLEY MILLS DR","name":""},
  {"lat":31.514505,"lon":-97.161987,"city":"Beverly Hills","state":"TX","address":"4722 MEMORIAL DR","name":""},
  {"lat":28.397034,"lon":-97.746437,"city":"Beeville","state":"TX","address":"601 S WASHINGTON ST","name":""},
  {"lat":36.446899,"lon":-79.066689,"city":"Roxboro","state":"NC","address":"5950 SEMORA ROAD","name":""},
  {"lat":37.339619,"lon":-80.795158,"city":"Narrows","state":"VA","address":"2841 VIRGINIA AVENUE","name":""},
  {"lat":41.05584,"lon":-73.547173,"city":"Stamford","state":"CT","address":"59 WEST BROAD STREET","name":""},
  {"lat":41.150249,"lon":-73.83075,"city":"Briarcliff Manor","state":"NY","address":"1168 PLEASANTVILLE ROAD","name":""},
  {"lat":29.489981,"lon":-98.691101,"city":"San Antonio","state":"TX","address":"10155 CULEBRA RD","name":""},
  {"lat":30.2124,"lon":-93.375999,"city":"Sulphur","state":"LA","address":"2729 RUTH STREET","name":""},
  {"lat":33.585659,"lon":-79.053352,"city":"Murrells Inlet","state":"SC","address":"11920 SC 707","name":""},
  {"lat":30.278271,"lon":-97.772392,"city":"Austin","state":"TX","address":"2402 LAKE AUSTIN BLVD","name":""},
  {"lat":30.14106,"lon":-97.79483,"city":"Austin","state":"TX","address":"11031 S IH 35 FRONTAGE RD","name":""},
  {"lat":36.0126,"lon":-86.703102,"city":"Antioch","state":"TN","address":"6412 NOLENSVILLE PIKE","name":""},
  {"lat":37.187759,"lon":-75.968399,"city":"Townsend","state":"VA","address":"28412 LANKFORD HIGHWAY","name":""},
  {"lat":38.877769,"lon":-77.121872,"city":"Arlington","state":"VA","address":"5000 WILSON BOULEVARD","name":""},
  {"lat":41.044735,"lon":-73.745575,"city":"West Harrison","state":"NY","address":"143 LAKE ST","name":""},
  {"lat":29.68889,"lon":-97.256348,"city":"Waelder","state":"TX","address":"3271 EAST HWY 90","name":""},
  {"lat":33.203709,"lon":-96.803123,"city":"Frisco","state":"TX","address":"15185 PRESTON RD.","name":""},
  {"lat":40.91338,"lon":-73.896446,"city":"Yonkers","state":"NY","address":"578 SOUTH BROADWAY","name":""},
  {"lat":25.935011,"lon":-97.488007,"city":"Brownsville","state":"TX","address":"2100 E PRICE RD.","name":""},
  {"lat":26.239019,"lon":-98.224251,"city":"McAllen","state":"TX","address":"3921 N 10TH ST.","name":""},
  {"lat":32.523846,"lon":-92.112885,"city":"Monroe","state":"LA","address":"1501 N 18TH ST","name":""},
  {"lat":28.172445,"lon":-80.671906,"city":"Melbourne","state":"FL","address":"4001 N WICKHAM RD","name":""},
  {"lat":31.38501,"lon":-81.433327,"city":"Darien","state":"GA","address":"5185 US HWY 17","name":""},
  {"lat":28.416046,"lon":-81.442146,"city":"Orlando","state":"FL","address":"5051 GATEWAY AVE","name":""},
  {"lat":28.467468,"lon":-82.511147,"city":"Spring Hill","state":"FL","address":"13075 SPRING HILL DR","name":""},
  {"lat":29.117262,"lon":-81.022804,"city":"Port Orange","state":"FL","address":"1591 DUNLAWTON AVE","name":""},
  {"lat":30.405663,"lon":-87.27459,"city":"Pensacola","state":"FL","address":"1112 N NAVY BLVD","name":""},