{"key":"fairfield","displayName":"Fairfield Inn","category":"hotels","useLocationName":false,"locations":[
  {"lat":61.17489,"lon":-149.883065,"city":"Anchorage","state":"AK","address":"5060 A Street","name":""},
  {"lat":34.294313,"lon":-86.252364,"city":"Albertville","state":"AL","address":"328 George Wallace Drive","name":""},
  {"lat":34.787794,"lon":-86.941318,"city":"Athens","state":"AL","address":"21282 Athens-Limestone Lane","name":""},
  {"lat":31.107233,"lon":-87.475103,"city":"Atmore","state":"AL","address":"112 Lakeview Circle","name":""},
  {"lat":33.366765,"lon":-87.004725,"city":"Bessemer","state":"AL","address":"4980 Academy Court","name":""},
  {"lat":33.437647,"lon":-86.733581,"city":"Birmingham","state":"AL","address":"3930 Colonnade Parkway","name":""},
  {"lat":33.514536,"lon":-86.806325,"city":"Birmingham","state":"AL","address":"1918 1st Avenue North","name":""},
  {"lat":34.2111,"lon":-86.874,"city":"Cullman","state":"AL","address":"1855 North Crest Dr. NW","name":""},
  {"lat":34.60399,"lon":-86.985276,"city":"Decatur","state":"AL","address":"103 2nd Ave SE","name":""},
  {"lat":31.22423,"lon":-85.4323,"city":"Dothan","state":"AL","address":"3038 Ross Clark Circle","name":""},
  {"lat":31.2938,"lon":-85.8468,"city":"Enterprise","state":"AL","address":"100 Brabham Drive","name":""},
  {"lat":30.365935,"lon":-87.681305,"city":"Foley","state":"AL","address":"194 Aryan Court","name":""},
  {"lat":33.609793,"lon":-86.802369,"city":"Fultondale","state":"AL","address":"1795 Morris Avenue","name":""},
  {"lat":33.998519,"lon":-86.088573,"city":"Gadsden","state":"AL","address":"116 Walker Street","name":""},
  {"lat":34.742496,"lon":-86.678039,"city":"Huntsville","state":"AL","address":"1385 Enterprise Way","name":""},
  {"lat":34.6955,"lon":-86.672094,"city":"Huntsville","state":"AL","address":"1700 Rideout Road SW","name":""},
  {"lat":34.681736,"lon":-86.735867,"city":"Madison","state":"AL","address":"8475 Madison Blvd","name":""},
  {"lat":30.671131,"lon":-88.127768,"city":"Mobile","state":"AL","address":"950-A West I-65 Service Road South","name":""},
  {"lat":32.270978,"lon":-86.356874,"city":"Montgomery","state":"AL","address":"7560 Mobile Highway","name":""},
  {"lat":32.362836,"lon":-86.138938,"city":"Montgomery","state":"AL","address":"8970 EastChase Parkway","name":""},
  {"lat":32.615851,"lon":-85.407131,"city":"Opelika","state":"AL","address":"2257 Interstate Drive","name":""},
  {"lat":30.270287,"lon":-87.593332,"city":"Orange Beach","state":"AL","address":"3111 Loop Rd","name":""},
  {"lat":33.612873,"lon":-85.788146,"city":"Oxford","state":"AL","address":"143 Colonial Drive","name":""},
  {"lat":33.332201,"lon":-86.789663,"city":"Pelham","state":"AL","address":"230 Cahaba Valley Road","name":""},
  {"lat":30.799911,"lon":-88.108972,"city":"Saraland","state":"AL","address":"2950 Township Boulevard","name":""},
  {"lat":30.662507,"lon":-87.90931,"city":"Spanish Fort","state":"AL","address":"12000 Cypress Way","name":""},
  {"lat":33.170215,"lon":-87.548547,"city":"Tuscaloosa","state":"AL","address":"4101 Courtney Drive","name":""},
  {"lat":34.107019,"lon":-93.096685,"city":"Arkadelphia","state":"AR","address":"258 Red Hill Road","name":""},
  {"lat":34.580354,"lon":-92.582271,"city":"Benton","state":"AR","address":"17320 Interstate 30 North","name":""},
  {"lat":35.108764,"lon":-92.435853,"city":"Conway","state":"AR","address":"2260 Sanders Road","name":""},
  {"lat":33.229183,"lon":-92.666664,"city":"El Dorado","state":"AR","address":"1800 North West Avenue","name":""},
  {"lat":36.118958,"lon":-94.146761,"city":"Fayetteville","state":"AR","address":"755 Van Asche Drive","name":""},
  {"lat":35.037305,"lon":-90.797297,"city":"Forrest City","state":"AR","address":"375 Eldridge Road","name":""},
  {"lat":35.347019,"lon":-94.348867,"city":"Fort Smith","state":"AR","address":"7601 Phoenix Avenue","name":""},
  {"lat":35.807308,"lon":-90.660017,"city":"Jonesboro","state":"AR","address":"3408 Access Road","name":""},
  {"lat":34.74505,"lon":-92.2778,"city":"Little Rock","state":"AR","address":"625 West Capitol Avenue","name":""},
  {"lat":34.720303,"lon":-92.227811,"city":"Little Rock","state":"AR","address":"4201 East Roosevelt Road","name":""},
  {"lat":35.208933,"lon":-90.207958,"city":"Marion","state":"AR","address":"101 Hannah Lane","name":""},
  {"lat":34.781183,"lon":-92.218556,"city":"North Little Rock","state":"AR","address":"4120 Health Care Drive","name":""},
  {"lat":36.340995,"lon":-94.180341,"city":"Rogers","state":"AR","address":"4611 W Rozell Street","name":""},
  {"lat":35.302447,"lon":-93.136623,"city":"Russellville","state":"AR","address":"120 East Harrell Drive","name":""},
  {"lat":36.176518,"lon":-94.177605,"city":"Springdale","state":"AR","address":"1043 Rieff Street","name":""},
  {"lat":33.465904,"lon":-112.506103,"city":"Buckeye","state":"AZ","address":"1550 N Verrado Way","name":""},
  {"lat":32.88011,"lon":-111.67767,"city":"Casa Grande","state":"AZ","address":"742 North Mission Parkway","name":""},
  {"lat":33.287728,"lon":-111.891331,"city":"Chandler","state":"AZ","address":"1100 South Price Road","name":""},
  {"lat":35.214872,"lon":-111.579214,"city":"Flagstaff","state":"AZ","address":"1000 North Country Club Drive","name":""},
  {"lat":32.389058,"lon":-110.964141,"city":"Oro Valley","state":"AZ","address":"10150 North Oracle","name":""},
  {"lat":33.308557,"lon":-111.973782,"city":"Phoenix","state":"AZ","address":"15221 S 50th St","name":""},
  {"lat":33.475932,"lon":-112.073774,"city":"Phoenix","state":"AZ","address":"2520 N. Central Avenue","name":""},
  {"lat":33.48517,"lon":-111.92436,"city":"Scottsdale","state":"AZ","address":"3275 North Drinkwater Blvd","name":""},
  {"lat":34.233381,"lon":-110.025286,"city":"Show Low","state":"AZ","address":"1401 East Woolford Road","name":""},
  {"lat":31.532567,"lon":-110.257995,"city":"Sierra Vista","state":"AZ","address":"3855 El Mercado Loop","name":""},
  {"lat":33.60633,"lon":-112.41174,"city":"Surprise","state":"AZ","address":"13430 N 163rd Dr","name":""},
  {"lat":33.404128,"lon":-111.961578,"city":"Tempe","state":"AZ","address":"2222 South Priest Drive","name":""},
  {"lat":33.428723,"lon":-111.903658,"city":"Tempe","state":"AZ","address":"1929 East Rio Salado Parkway","name":""},
  {"lat":33.464842,"lon":-112.250619,"city":"Tolleson","state":"AZ","address":"9033 West McDowell Road","name":""},
  {"lat":32.695313,"lon":-114.603102,"city":"Yuma","state":"AZ","address":"1801 S. Sunridge Dr.","name":""},
  {"lat":38.175737,"lon":-122.254007,"city":"American Canyon","state":"CA","address":"3800 Broadway Hwy 29","name":""},
  {"lat":33.811427,"lon":-117.915361,"city":"Anaheim","state":"CA","address":"1460 South Harbor Boulevard","name":""},
  {"lat":33.853809,"lon":-117.788153,"city":"Anaheim Hills","state":"CA","address":"201 North Via Cortez","name":""},
  {"lat":35.5014,"lon":-120.686905,"city":"Atascadero","state":"CA","address":"3600 El Camino Real","name":""},
  {"lat":35.384236,"lon":-119.046694,"city":"Bakersfield","state":"CA","address":"3540 Rosedale Highway","name":""},
  {"lat":35.438497,"lon":-119.075456,"city":"Bakersfield","state":"CA","address":"8700 Spectrum Park Way","name":""},
  {"lat":34.847659,"lon":-117.081535,"city":"Barstow","state":"CA","address":"2551 Mercantile Way","name":""},
  {"lat":33.85902,"lon":-117.996736,"city":"Buena Park","state":"CA","address":"7828 Orangethorpe Avenue","name":""},
  {"lat":34.22282,"lon":-119.103223,"city":"Camarillo","state":"CA","address":"4444 Central Avenue","name":""},
  {"lat":36.96969,"lon":-121.964871,"city":"Capitola","state":"CA","address":"1255 41st Avenue","name":""},
  {"lat":33.119291,"lon":-117.289717,"city":"Carlsbad","state":"CA","address":"1929 Palomar Oaks Way","name":""},
  {"lat":33.98718,"lon":-117.70592,"city":"Chino","state":"CA","address":"14705 Ramona Ave","name":""},
  {"lat":36.831307,"lon":-119.700076,"city":"Clovis","state":"CA","address":"50 N. Clovis Ave.","name":""},
  {"lat":32.766879,"lon":-115.534255,"city":"El Centro","state":"CA","address":"503 E. Danenberg Drive","name":""},
  {"lat":33.922818,"lon":-118.396809,"city":"El Segundo","state":"CA","address":"525 North Pacific Coast Highway","name":""},
  {"lat":38.454542,"lon":-121.407459,"city":"Elk Grove","state":"CA","address":"8058 Orchard Loop Lane","name":""},
  {"lat":38.219883,"lon":-122.128235,"city":"Fairfield","state":"CA","address":"315 Pittman Road","name":""},
  {"lat":38.646033,"lon":-121.111742,"city":"Folsom","state":"CA","address":"1755 Cavitt Drive","name":""},
  {"lat":36.808422,"lon":-119.824222,"city":"Fresno","state":"CA","address":"1710 West Shaw Avenue","name":""},
  {"lat":36.763428,"lon":-119.718608,"city":"Fresno","state":"CA","address":"1535 North Peach Avenue","name":""},
  {"lat":36.839497,"lon":-119.783294,"city":"Fresno","state":"CA","address":"330 East Fir Avenue","name":""},
  {"lat":36.31837,"lon":-119.67994,"city":"Hanford","state":"CA","address":"2040 Glendale Avenue","name":""},
  {"lat":37.635104,"lon":-122.113387,"city":"Hayward","state":"CA","address":"25921 Industrial Boulevard","name":""},
  {"lat":36.862797,"lon":-121.404317,"city":"Hollister","state":"CA","address":"390 Gateway Drive","name":""},
  {"lat":33.739925,"lon":-116.219156,"city":"Indio","state":"CA","address":"42655 Marmara Street","name":""},
  {"lat":36.520958,"lon":-119.566162,"city":"Kingsburg","state":"CA","address":"216 Ventura Court","name":""},
  {"lat":34.68051,"lon":-118.16689,"city":"Lancaster","state":"CA","address":"43919 20th Street West","name":""},
  {"lat":37.801658,"lon":-121.300298,"city":"Lathrop","state":"CA","address":"17401 S Manthey Road","name":""},
  {"lat":37.715036,"lon":-121.69878,"city":"Livermore","state":"CA","address":"220 North Greenville Road","name":""},
  {"lat":38.099411,"lon":-121.269167,"city":"Lodi","state":"CA","address":"262 Rocky Lane","name":""},
  {"lat":33.808534,"lon":-118.071453,"city":"Los Alamitos","state":"CA","address":"10650 Los Alamitos Blvd","name":""},
  {"lat":33.683321,"lon":-117.179638,"city":"Menifee","state":"CA","address":"30140 Town Center Drive","name":""},
  {"lat":37.601001,"lon":-122.390201,"city":"Millbrae","state":"CA","address":"250 El Camino Real","name":""},
  {"lat":33.57914,"lon":-117.6705,"city":"Mission Viejo","state":"CA","address":"26328 Oso Parkway","name":""},
  {"lat":34.283336,"lon":-118.860553,"city":"Moorpark","state":"CA","address":"14350 White Sage Road","name":""},
  {"lat":33.932604,"lon":-117.276404,"city":"Moreno Valley","state":"CA","address":"22100 Eucalyptus Avenue","name":""},
  {"lat":33.931882,"lon":-117.557132,"city":"Norco","state":"CA","address":"3441 Hamner Avenue","name":""},
  {"lat":37.340175,"lon":-119.644358,"city":"Oakhurst","state":"CA","address":"40780 Highway 41","name":""},
  {"lat":37.608808,"lon":-122.496397,"city":"Pacifica","state":"CA","address":"500 Old County Road","name":""},
  {"lat":33.784428,"lon":-116.356286,"city":"Palm Desert","state":"CA","address":"74-764 Technology Drive","name":""},
  {"lat":34.60889,"lon":-118.151028,"city":"Palmdale","state":"CA","address":"1052 West Avenue O-8","name":""},
  {"lat":33.840186,"lon":-117.252974,"city":"Perris","state":"CA","address":"19310 Harvill Avenue","name":""},
  {"lat":38.590039,"lon":-121.285677,"city":"Rancho Cordova","state":"CA","address":"10745 Gold Center Drive","name":""},
  {"lat":34.079517,"lon":-117.556197,"city":"Rancho Cucamonga","state":"CA","address":"9550 Pittsburgh Avenue","name":""},
  {"lat":40.62549,"lon":-122.369546,"city":"Redding","state":"CA","address":"5164 Caterpillar Road","name":""},
  {"lat":38.351023,"lon":-122.719045,"city":"Rohnert Park","state":"CA","address":"405 Martin Ave","name":""},
  {"lat":34.038045,"lon":-118.079968,"city":"Rosemead","state":"CA","address":"705 San Gabriel Boulevard","name":""},
  {"lat":38.762307,"lon":-121.254129,"city":"Roseville","state":"CA","address":"1910 Taylor Road","name":""},
  {"lat":38.596755,"lon":-121.447165,"city":"Sacramento","state":"CA","address":"1780 Tribute Road","name":""},
  {"lat":38.615479,"lon":-121.538516,"city":"Sacramento","state":"CA","address":"2730 El Centro Road","name":""},
  {"lat":34.065703,"lon":-117.267733,"city":"San Bernardino","state":"CA","address":"1041 E. Harriman Place","name":""},
  {"lat":37.514305,"lon":-122.254485,"city":"San Carlos","state":"CA","address":"555 Skyway Road","name":""},
  {"lat":32.801319,"lon":-117.214263,"city":"San Diego","state":"CA","address":"4345 Mission Bay Drive","name":""},
  {"lat":32.748882,"lon":-117.192604,"city":"San Diego","state":"CA","address":"3900 Old Town Avenue","name":""},
  {"lat":37.370646,"lon":-121.917865,"city":"San Jose","state":"CA","address":"1755 North First Street","name":""},
  {"lat":37.421408,"lon":-121.978289,"city":"San Jose","state":"CA","address":"656 America Center Court","name":""},
  {"lat":33.1401,"lon":-117.165111,"city":"San Marcos","state":"CA","address":"227 West San Marcos Boulevard","name":""},
  {"lat":34.378473,"lon":-118.569625,"city":"Santa Clarita","state":"CA","address":"25340 The Old Road","name":""},
  {"lat":36.960021,"lon":-122.058969,"city":"Santa Cruz","state":"CA","address":"2956 Mission Street","name":""},
  {"lat":34.975862,"lon":-120.434472,"city":"Santa Maria","state":"CA","address":"2061 North Roemer Court","name":""},
  {"lat":38.388808,"lon":-122.814847,"city":"Sebastopol","state":"CA","address":"1101 Gravenstein Highway South","name":""},
  {"lat":37.650047,"lon":-122.403862,"city":"South San Francisco","state":"CA","address":"127 W. Harris Avenue","name":""},
  {"lat":35.13995,"lon":-118.468538,"city":"Tehachapi","state":"CA","address":"422 W. Tehachapi Blvd.","name":""},
  {"lat":33.520543,"lon":-117.164792,"city":"Temecula","state":"CA","address":"27416 Jefferson Ave","name":""},
  {"lat":37.756036,"lon":-121.461273,"city":"Tracy","state":"CA","address":"2410 Naglee Road","name":""},
  {"lat":36.224041,"lon":-119.330891,"city":"Tulare","state":"CA","address":"1225 Hillman Street","name":""},
  {"lat":37.523881,"lon":-120.882204,"city":"Turlock","state":"CA","address":"3301 Countryside Drive","name":""},
  {"lat":33.724857,"lon":-117.834443,"city":"Tustin","state":"CA","address":"15011 Newport Avenue","name":""},
  {"lat":34.137712,"lon":-116.097711,"city":"Twentynine Palms","state":"CA","address":"6333 Encelia Avenue","name":""},
  {"lat":39.134399,"lon":-123.198759,"city":"Ukiah","state":"CA","address":"1140 Airport Park Boulevard","name":""},
  {"lat":38.3703,"lon":-121.95229,"city":"Vacaville","state":"CA","address":"370 Orange Drive","name":""},
  {"lat":34.4736,"lon":-117.3403,"city":"Victorville","state":"CA","address":"14876 Monarch Blvd","name":""},
  {"lat":36.32859,"lon":-119.348687,"city":"Visalia","state":"CA","address":"140 South Akers Street","name":""},
  {"lat":34.072218,"lon":-117.878451,"city":"West Covina","state":"CA","address":"3211 East Garvey Avenue North","name":""},
  {"lat":38.531854,"lon":-121.95576,"city":"Winters","state":"CA","address":"702 Matsumoto Lane","name":""},
  {"lat":38.674753,"lon":-121.724369,"city":"Woodland","state":"CA","address":"2100 Freeway Drive","name":""},
  {"lat":37.483062,"lon":-105.907769,"city":"Alamosa","state":"CO","address":"721 Mariposa Street","name":""},
  {"lat":39.598862,"lon":-104.707014,"city":"Aurora","state":"CO","address":"24192 East Prospect Avenue","name":""},
  {"lat":39.671719,"lon":-104.82751,"city":"Aurora","state":"CO","address":"13851 East Harvard Avenue","name":""},
  {"lat":39.986378,"lon":-105.227867,"city":"Boulder","state":"CO","address":"5397 South Boulder Road","name":""},
  {"lat":39.971092,"lon":-104.830136,"city":"Brighton","state":"CO","address":"948 Platte River Boulevard","name":""},
  {"lat":39.925619,"lon":-105.133536,"city":"Broomfield","state":"CO","address":"455 Zang Street","name":""},
  {"lat":39.292625,"lon":-102.277975,"city":"Burlington","state":"CO","address":"526 South Lincoln Street","name":""},
  {"lat":39.053886,"lon":-104.844062,"city":"Colorado Springs","state":"CO","address":"15275 Struthers Road","name":""},
  {"lat":38.792401,"lon":-104.798844,"city":"Colorado Springs","state":"CO","address":"2725 Geyser Drive","name":""},
  {"lat":38.934312,"lon":-104.81514,"city":"Colorado Springs","state":"CO","address":"7085 Commerce Center Drive","name":""},
  {"lat":38.890856,"lon":-104.714317,"city":"Colorado Springs","state":"CO","address":"4107 Tutt Boulevard","name":""},
  {"lat":39.62605,"lon":-104.900942,"city":"Denver","state":"CO","address":"5071 South Syracuse Street","name":""},
  {"lat":39.820942,"lon":-104.772069,"city":"Denver","state":"CO","address":"6851 Tower Road","name":""},
  {"lat":39.756947,"lon":-105.014883,"city":"Denver","state":"CO","address":"2747 Wyandot Street","name":""},
  {"lat":39.77383,"lon":-104.79963,"city":"Denver","state":"CO","address":"16191 E 40th Ave","name":""},
  {"lat":37.270011,"lon":-107.889097,"city":"Durango","state":"CO","address":"21719 West US Highway 160","name":""},
  {"lat":40.521819,"lon":-105.014308,"city":"Fort Collins","state":"CO","address":"3520 Timberwood Drive","name":""},
  {"lat":40.262308,"lon":-103.779061,"city":"Fort Morgan","state":"CO","address":"1290 Cottonwood Parkway","name":""},
  {"lat":39.067323,"lon":-108.568835,"city":"Grand Junction","state":"CO","address":"225 Main Street","name":""},
  {"lat":40.390925,"lon":-104.718056,"city":"Greeley","state":"CO","address":"2401 West 29th Street","name":""},
  {"lat":39.565007,"lon":-104.907646,"city":"Highlands Ranch","state":"CO","address":"7056 East County Line","name":""},
  {"lat":39.648736,"lon":-105.082439,"city":"Lakewood","state":"CO","address":"3605 South Wadsworth Boulevard","name":""},
  {"lat":39.714372,"lon":-105.132052,"city":"Lakewood","state":"CO","address":"140 South Union Boulevard","name":""},
  {"lat":39.614561,"lon":-105.147607,"city":"Littleton","state":"CO","address":"5679 South Alkire Street","name":""},
  {"lat":40.146685,"lon":-105.133036,"city":"Longmont","state":"CO","address":"1089 South Hover Street","name":""},
  {"lat":40.409622,"lon":-104.998797,"city":"Loveland","state":"CO","address":"1710 Foxtrail Drive","name":""},
  {"lat":38.488915,"lon":-107.893434,"city":"Montrose","state":"CO","address":"25 Tributary Street","name":""},
  {"lat":39.915292,"lon":-104.99439,"city":"Westminster","state":"CO","address":"12080 Melody Drive","name":""},
  {"lat":41.767908,"lon":-72.620505,"city":"East Hartford","state":"CT","address":"363 Roberts Street","name":""},
  {"lat":42.020089,"lon":-72.585086,"city":"Enfield","state":"CT","address":"1 Bright Meadow Boulevard","name":""},
  {"lat":41.803828,"lon":-72.547804,"city":"Manchester","state":"CT","address":"121 Pavilions Drive","name":""},
  {"lat":41.672222,"lon":-72.837222,"city":"Plainville","state":"CT","address":"400 New Britain Avenue","name":""},
  {"lat":41.486003,"lon":-72.099453,"city":"Uncasville","state":"CT","address":"2255 Norwich New London Turnpike","name":""},
  {"lat":41.480832,"lon":-72.773084,"city":"Wallingford","state":"CT","address":"100 Miles Drive","name":""},
  {"lat":41.920819,"lon":-72.669361,"city":"Windsor Locks","state":"CT","address":"2 Loten Drive","name":""},
  {"lat":38.917229,"lon":-76.972537,"city":"Washington","state":"DC","address":"2305 New York Avenue NE","name":""},
  {"lat":38.899809,"lon":-77.018962,"city":"Washington","state":"DC","address":"500 H Street NW","name":""},
  {"lat":39.178556,"lon":-75.52677,"city":"Dover","state":"DE","address":"655 North Dupont Highway","name":""},
  {"lat":39.444643,"lon":-75.740586,"city":"Middletown","state":"DE","address":"411 Merrimac Avenue","name":""},
  {"lat":39.701417,"lon":-75.571978,"city":"New Castle","state":"DE","address":"2117 North DuPont Highway","name":""},
  {"lat":38.72777,"lon":-75.128337,"city":"Rehoboth Beach","state":"DE","address":"19113 Coastal Highway","name":""},
  {"lat":26.380684,"lon":-80.110544,"city":"Boca Raton","state":"FL","address":"3400 Airport Road","name":""},
  {"lat":26.329769,"lon":-81.760162,"city":"Bonita Springs","state":"FL","address":"28090 La Plaza Bonita Loop","name":""},
  {"lat":27.390464,"lon":-82.447063,"city":"Bradenton","state":"FL","address":"6105 Exchange Way","name":""},
  {"lat":28.533031,"lon":-82.496203,"city":"Brooksville","state":"FL","address":"14082 Cortez Boulevard","name":""},
  {"lat":26.667074,"lon":-81.938338,"city":"Cape Coral","state":"FL","address":"1701 Old Pondella Road","name":""},
  {"lat":27.960955,"lon":-82.710264,"city":"Clearwater","state":"FL","address":"3070 Gulf to Bay Boulevard","name":""},
  {"lat":27.894528,"lon":-82.678538,"city":"Clearwater","state":"FL","address":"3211 Executive Drive","name":""},
  {"lat":27.987739,"lon":-82.825507,"city":"Clearwater Beach","state":"FL","address":"650 Bay Esplanade","name":""},
  {"lat":28.550203,"lon":-81.723429,"city":"Clermont","state":"FL","address":"1750 Hunt Trace Boulevard","name":""},
  {"lat":30.729814,"lon":-86.56915,"city":"Crestview","state":"FL","address":"110 Crosson Street","name":""},
  {"lat":26.062873,"lon":-80.164892,"city":"Dania Beach","state":"FL","address":"2081 Griffin Road","name":""},
  {"lat":29.194293,"lon":-81.070541,"city":"Daytona Beach","state":"FL","address":"1820 Checkered Flag Boulevard","name":""},
  {"lat":26.321742,"lon":-80.112392,"city":"Deerfield Beach","state":"FL","address":"301 Hillsboro Technology Drive","name":""},
  {"lat":26.461131,"lon":-80.082467,"city":"Delray Beach","state":"FL","address":"910 West Atlantic Avenue","name":""},
  {"lat":30.387646,"lon":-86.446283,"city":"Destin","state":"FL","address":"19001 Emerald Coast Parkway","name":""},
  {"lat":25.811316,"lon":-80.328122,"city":"Doral","state":"FL","address":"8051 NW 36th Street","name":""},
  {"lat":25.440772,"lon":-80.475539,"city":"Florida City","state":"FL","address":"60 SW 352nd Street","name":""},
  {"lat":26.121703,"lon":-80.136981,"city":"Fort Lauderdale","state":"FL","address":"30 South Federal Highway","name":""},
  {"lat":26.542101,"lon":-81.872556,"city":"Fort Myers","state":"FL","address":"7090 Cypress Terrace","name":""},
  {"lat":27.410907,"lon":-80.390883,"city":"Fort Pierce","state":"FL","address":"6502 Metal Drive","name":""},
  {"lat":30.422742,"lon":-86.649695,"city":"Fort Walton Beach","state":"FL","address":"522 Mary Esther Cut Off NW","name":""},
  {"lat":30.396868,"lon":-86.612641,"city":"Fort Walton Beach","state":"FL","address":"540 Santa Rosa Boulevard","name":""},
  {"lat":29.618336,"lon":-82.378078,"city":"Gainesville","state":"FL","address":"3877 SW 37th Boulevard","name":""},
  {"lat":28.202951,"lon":-82.739675,"city":"Holiday","state":"FL","address":"3060 US Highway 19","name":""},
  {"lat":30.2478,"lon":-81.601861,"city":"Jacksonville","state":"FL","address":"4888 Lenoir Avenue","name":""},
  {"lat":30.304584,"lon":-81.844792,"city":"Jacksonville","state":"FL","address":"561 Chaffee Point Blvd","name":""},
  {"lat":30.481994,"lon":-81.651683,"city":"Jacksonville","state":"FL","address":"1300 Airport Road","name":""},
  {"lat":30.303538,"lon":-81.392523,"city":"Jacksonville Beach","state":"FL","address":"1616 North First Street","name":""},
  {"lat":26.934359,"lon":-80.138248,"city":"Jupiter","state":"FL","address":"6748 W. Indiantown Road","name":""},
  {"lat":24.56916,"lon":-81.752386,"city":"Key West","state":"FL","address":"3852 North Roosevelt Boulevard","name":""},
  {"lat":24.562323,"lon":-81.777254,"city":"Key West","state":"FL","address":"2400 North Roosevelt Boulevard","name":""},
  {"lat":28.333536,"lon":-81.526553,"city":"Kissimmee","state":"FL","address":"6073 West Irlo Bronson Memorial Highway","name":""},
  {"lat":30.173576,"lon":-82.689528,"city":"Lake City","state":"FL","address":"538 SW Corporate Drive","name":""},
  {"lat":24.731716,"lon":-81.019032,"city":"Marathon","state":"FL","address":"13201 Overseas Highway","name":""},
  {"lat":30.725194,"lon":-85.18339,"city":"Marianna","state":"FL","address":"4966 Whitetail Drive","name":""},
  {"lat":28.243114,"lon":-80.730436,"city":"Melbourne","state":"FL","address":"2400 Town Center Avenue","name":""},
  {"lat":28.078778,"lon":-80.698692,"city":"Melbourne","state":"FL","address":"4355 West New Haven Avenue","name":""},
  {"lat":28.125513,"lon":-80.577822,"city":"Melbourne","state":"FL","address":"2450 North Highway A1A","name":""},
  {"lat":25.782453,"lon":-80.26309,"city":"Miami","state":"FL","address":"4101 NW 11th Street","name":""},
  {"lat":26.164286,"lon":-81.685101,"city":"Naples","state":"FL","address":"3808 White Lake Boulevard","name":""},
  {"lat":29.147866,"lon":-82.186894,"city":"Ocala","state":"FL","address":"4101 S.W. 38th Court","name":""},
  {"lat":28.553152,"lon":-81.541837,"city":"Ocoee","state":"FL","address":"10971 West Colonial Drive","name":""},
  {"lat":30.187047,"lon":-81.705681,"city":"Orange Park","state":"FL","address":"450 Eldridge Avenue","name":""},
  {"lat":28.598651,"lon":-81.222652,"city":"Orlando","state":"FL","address":"3420 Lake Lynda Drive","name":""},
  {"lat":28.408531,"lon":-81.454216,"city":"Orlando","state":"FL","address":"10815 International Drive","name":""},
  {"lat":28.445528,"lon":-81.467186,"city":"Orlando","state":"FL","address":"8214 Universal Blvd","name":""},
  {"lat":28.388283,"lon":-81.5063,"city":"Orlando","state":"FL","address":"12191 South Apopka Vineland Road","name":""},
  {"lat":28.377058,"lon":-81.502377,"city":"Orlando","state":"FL","address":"8615 Vineland Avenue","name":""},
  {"lat":28.4938,"lon":-81.4201,"city":"Orlando","state":"FL","address":"3551 Millennia Blvd.","name":""},
  {"lat":28.482,"lon":-81.456625,"city":"Orlando","state":"FL","address":"5614 Vineland Road","name":""},
  {"lat":28.460889,"lon":-81.306545,"city":"Orlando","state":"FL","address":"7100 Augusta National Drive","name":""},
  {"lat":26.619675,"lon":-80.038718,"city":"Palm Beach","state":"FL","address":"2870 South Ocean Boulevard","name":""},
  {"lat":29.550022,"lon":-81.214322,"city":"Palm Coast","state":"FL","address":"400 Old Kings Rd","name":""},
  {"lat":30.187186,"lon":-85.769231,"city":"Panama City Beach","state":"FL","address":"7718 Front Beach Road","name":""},
  {"lat":25.994519,"lon":-80.336909,"city":"Pembroke Pines","state":"FL","address":"1650 SW 145th Avenue","name":""},
  {"lat":30.517394,"lon":-87.310725,"city":"Pensacola","state":"FL","address":"150 Loblolly Lane","name":""},
  {"lat":30.33315,"lon":-87.13515,"city":"Pensacola Beach","state":"FL","address":"16 Via De Luna Drive","name":""},
  {"lat":28.032288,"lon":-82.057831,"city":"Plant City","state":"FL","address":"4307 Sterling Commerce Dr.","name":""},
  {"lat":27.79046,"lon":-82.32985,"city":"Riverview","state":"FL","address":"10743 Big Bend Road","name":""},
  {"lat":30.448102,"lon":-86.579081,"city":"Shalimar","state":"FL","address":"1280 Eglin Parkway N.","name":""},
  {"lat":27.821622,"lon":-82.668386,"city":"St. Petersburg","state":"FL","address":"2575 54th Avenue North","name":""},
  {"lat":29.92066,"lon":-81.409936,"city":"St. Augustine","state":"FL","address":"305 Outlet Mall Blvd","name":""},
  {"lat":30.487156,"lon":-84.315699,"city":"Tallahassee","state":"FL","address":"3219 North Monroe Street","name":""},
  {"lat":30.426477,"lon":-84.228741,"city":"Tallahassee","state":"FL","address":"2997 Apalachee Parkway","name":""},
  {"lat":26.206216,"lon":-80.267086,"city":"Tamarac","state":"FL","address":"6800 NW 88th Avenue","name":""},
  {"lat":27.979235,"lon":-82.383536,"city":"Tampa","state":"FL","address":"6720 Lakeview Center Drive","name":""},
  {"lat":27.941193,"lon":-82.334683,"city":"Tampa","state":"FL","address":"10150 Palm River Road","name":""},
  {"lat":27.961494,"lon":-82.512991,"city":"Tampa","state":"FL","address":"2215 North Lois Avenue","name":""},
  {"lat":28.064906,"lon":-82.35446,"city":"Temple Terrace","state":"FL","address":"12260 Morris Bridge Road","name":""},
  {"lat":28.55108,"lon":-80.853478,"city":"Titusville","state":"FL","address":"4735 Helen Hauser Blvd","name":""},
  {"lat":27.1083,"lon":-82.382928,"city":"Venice","state":"FL","address":"2935 Executive Drive","name":""},
  {"lat":27.638114,"lon":-80.515467,"city":"Vero Beach","state":"FL","address":"9065 Americana Way","name":""},
  {"lat":26.649292,"lon":-80.214703,"city":"Wellington","state":"FL","address":"10616 Forest Hill Boulevard","name":""},
  {"lat":28.194672,"lon":-82.338381,"city":"Wesley Chapel","state":"FL","address":"2650 Lajuana Boulevard","name":""},
  {"lat":26.710745,"lon":-80.148951,"city":"West Palm Beach","state":"FL","address":"2045 Vista Parkway","name":""},
  {"lat":28.381837,"lon":-81.617756,"city":"Winter Garden","state":"FL","address":"631 Flagler Avenue","name":""},
  {"lat":34.076431,"lon":-84.652275,"city":"Acworth","state":"GA","address":"3508 Baker Road","name":""},
  {"lat":31.621224,"lon":-84.22889,"city":"Albany","state":"GA","address":"3011 Kensington Court","name":""},
  {"lat":34.074093,"lon":-84.263976,"city":"Alpharetta","state":"GA","address":"3225 Webb Bridge Road","name":""},
  {"lat":34.057559,"lon":-84.286217,"city":"Alpharetta","state":"GA","address":"11385 Haynes Bridge Road","name":""},
  {"lat":33.95171,"lon":-83.408772,"city":"Athens","state":"GA","address":"175 Old Epps Bridge Rd","name":""},
  {"lat":33.918842,"lon":-84.348506,"city":"Atlanta","state":"GA","address":"1145 Hammond Drive Northeast","name":""},
  {"lat":33.862285,"lon":-84.482733,"city":"Atlanta","state":"GA","address":"2450 Paces Ferry Road SE","name":""},
  {"lat":33.840346,"lon":-84.369734,"city":"Atlanta","state":"GA","address":"3092 Piedmont Road Northeast","name":""},
  {"lat":33.514156,"lon":-82.046444,"city":"Augusta","state":"GA","address":"3023 1/2 Washington Road","name":""},
  {"lat":33.450144,"lon":-82.079656,"city":"Augusta","state":"GA","address":"2175 Gordon Highway","name":""},
  {"lat":31.236512,"lon":-81.499581,"city":"Brunswick","state":"GA","address":"107 Gateway Center Circle","name":""},
  {"lat":34.058738,"lon":-83.997089,"city":"Buford","state":"GA","address":"1355 Mall of Georgia Boulevard","name":""},
  {"lat":34.469234,"lon":-84.914416,"city":"Calhoun","state":"GA","address":"1002 Highway 53 East","name":""},
  {"lat":34.252922,"lon":-84.479877,"city":"Canton","state":"GA","address":"120 Reinhardt College Parkway","name":""},
  {"lat":34.175138,"lon":-84.763636,"city":"Cartersville","state":"GA","address":"20 Canyon Parkway","name":""},
  {"lat":33.624782,"lon":-84.454975,"city":"College Park","state":"GA","address":"2020 Sullivan Road","name":""},
  {"lat":32.509908,"lon":-84.951572,"city":"Columbus","state":"GA","address":"4510 Armour Road","name":""},
  {"lat":34.255714,"lon":-83.466524,"city":"Commerce","state":"GA","address":"137 Frontage Road","name":""},
  {"lat":31.959309,"lon":-83.748139,"city":"Cordele","state":"GA","address":"2001 16th Avenue East","name":""},
  {"lat":34.535792,"lon":-83.538608,"city":"Cornelia","state":"GA","address":"160 Market Corners Drive","name":""},
  {"lat":34.151382,"lon":-84.179814,"city":"Cumming","state":"GA","address":"3150 Ronald Reagan Boulevard","name":""},
  {"lat":34.76603,"lon":-85.00404,"city":"Dalton","state":"GA","address":"786 College Drive","name":""},
  {"lat":31.476961,"lon":-82.851953,"city":"Douglas","state":"GA","address":"1815 South Peterson Avenue","name":""},
  {"lat":32.48635,"lon":-82.939972,"city":"Dublin","state":"GA","address":"620 Pinehill Road","name":""},
  {"lat":33.950129,"lon":-84.127181,"city":"Duluth","state":"GA","address":"3570 Breckinridge Blvd.","name":""},
  {"lat":33.663052,"lon":-84.429795,"city":"East Point","state":"GA","address":"1255 Walker Avenue","name":""},
  {"lat":33.544697,"lon":-84.574689,"city":"Fairburn","state":"GA","address":"7775 Ella Lane","name":""},
  {"lat":34.284342,"lon":-83.846772,"city":"Gainesville","state":"GA","address":"1755 Browns Bridge Road","name":""},
  {"lat":33.48191,"lon":-82.200146,"city":"Grovetown","state":"GA","address":"893 Husk Box Way","name":""},
  {"lat":34.697322,"lon":-83.720692,"city":"Helen","state":"GA","address":"8035 South Main Street","name":""},
  {"lat":31.857578,"lon":-81.571083,"city":"Hinesville","state":"GA","address":"1494 East Oglethorpe Hwy","name":""},
  {"lat":34.034853,"lon":-84.574852,"city":"Kennesaw","state":"GA","address":"3425 Busbee Drive","name":""},
  {"lat":30.791693,"lon":-81.655508,"city":"Kingsland","state":"GA","address":"1319 East King Avenue","name":""},
  {"lat":33.767708,"lon":-84.601617,"city":"Lithia Springs","state":"GA","address":"895 Bob Arnold Boulevard","name":""},
  {"lat":33.701268,"lon":-84.097824,"city":"Lithonia","state":"GA","address":"7850 Stonecrest Square","name":""},
  {"lat":33.355119,"lon":-84.123436,"city":"Locust Grove","state":"GA","address":"690 Market Place Boulevard","name":""},
  {"lat":33.920993,"lon":-84.482157,"city":"Marietta","state":"GA","address":"2490 Delk Road","name":""},
  {"lat":33.463088,"lon":-84.215454,"city":"McDonough","state":"GA","address":"30 Mill Road","name":""},
  {"lat":33.128713,"lon":-83.26549,"city":"Milledgeville","state":"GA","address":"2631-A North Columbia Street","name":""},
  {"lat":33.407956,"lon":-84.600156,"city":"Peachtree City","state":"GA","address":"295 Highway 74 North","name":""},
  {"lat":32.441511,"lon":-83.754726,"city":"Perry","state":"GA","address":"100, General Courtney Hodges Blvd.","name":""},
  {"lat":32.0813,"lon":-81.283,"city":"Pooler","state":"GA","address":"100 Half Moon Way","name":""},
  {"lat":32.190729,"lon":-81.193091,"city":"Port Wentworth","state":"GA","address":"305 Raley Road","name":""},
  {"lat":31.924158,"lon":-81.336325,"city":"Richmond Hill","state":"GA","address":"4620 US Highway 17","name":""},
  {"lat":34.305483,"lon":-85.163461,"city":"Rome","state":"GA","address":"90 Match Point Way NE","name":""},
  {"lat":32.079492,"lon":-81.098556,"city":"Savannah","state":"GA","address":"135 Martin Luther King Jr Boulevard","name":""},
  {"lat":32.140374,"lon":-81.236747,"city":"Savannah","state":"GA","address":"10 Stephen S. Green Drive","name":""},
  {"lat":32.004125,"lon":-81.278897,"city":"Savannah","state":"GA","address":"17027 Abercorn St. (Exit 94)","name":""},
  {"lat":32.022224,"lon":-81.110899,"city":"Savannah","state":"GA","address":"5801 Abercorn Street","name":""},
  {"lat":33.544599,"lon":-84.278682,"city":"Stockbridge","state":"GA","address":"825 Highway 138 West","name":""},
  {"lat":34.027398,"lon":-84.048299,"city":"Suwanee","state":"GA","address":"105 Celebration Drive","name":""},
  {"lat":31.450234,"lon":-83.530686,"city":"Tifton","state":"GA","address":"806 W. 7th St.","name":""},
  {"lat":30.818589,"lon":-83.315754,"city":"Valdosta","state":"GA","address":"2010 West Hill Avenue","name":""},
  {"lat":32.615849,"lon":-83.690122,"city":"Warner Robins","state":"GA","address":"221 Margie Dr.","name":""},
  {"lat":31.200279,"lon":-82.326262,"city":"Waycross","state":"GA","address":"2207 Memorial Drive","name":""},
  {"lat":34.089167,"lon":-84.531167,"city":"Woodstock","state":"GA","address":"455 Parkway 575","name":""},
  {"lat":41.653247,"lon":-93.514933,"city":"Altoona","state":"IA","address":"460 Bass Pro Drive Northwest","name":""},
  {"lat":42.008288,"lon":-93.578187,"city":"Ames","state":"IA","address":"2137 Isaac Newton Dr. SE 16th St.","name":""},
  {"lat":40.822265,"lon":-91.141464,"city":"Burlington","state":"IA","address":"1213 N Roosevelt Avenue","name":""},
  {"lat":42.03086,"lon":-91.65369,"city":"Cedar Rapids","state":"IA","address":"1220 Park Place Northeast","name":""},
  {"lat":41.944565,"lon":-91.677034,"city":"Cedar Rapids","state":"IA","address":"605 32nd Avenue SW","name":""},
  {"lat":43.148445,"lon":-93.353379,"city":"Clear Lake","state":"IA","address":"1401 Bayou Road","name":""},
  {"lat":41.686663,"lon":-91.611365,"city":"Coralville","state":"IA","address":"650 Coral Ridge Avenue","name":""},
  {"lat":41.230594,"lon":-95.84812,"city":"Council Bluffs","state":"IA","address":"520 30th Avenue","name":""},
  {"lat":41.564675,"lon":-90.524168,"city":"Davenport","state":"IA","address":"4401 Elmore Avenue","name":""},
  {"lat":43.291433,"lon":-91.810544,"city":"Decorah","state":"IA","address":"2041 Iowa State Highway 9","name":""},
  {"lat":41.593667,"lon":-93.620783,"city":"Des Moines","state":"IA","address":"207 Crocker Street","name":""},
  {"lat":41.521567,"lon":-93.645022,"city":"Des Moines","state":"IA","address":"6880 Fleur Drive","name":""},
  {"lat":41.48453,"lon":-93.672886,"city":"Norwalk","state":"IA","address":"2100 Hughes Drive","name":""},
  {"lat":41.295597,"lon":-92.67248,"city":"Oskaloosa","state":"IA","address":"2325 Coal Mine Loop","name":""},
  {"lat":43.04775,"lon":-96.17219,"city":"Sioux Center","state":"IA","address":"290 St Andrews Way","name":""},
  {"lat":41.649892,"lon":-93.738164,"city":"Urbandale","state":"IA","address":"8661 Plum Dr","name":""},
  {"lat":42.463742,"lon":-92.31826,"city":"Waterloo","state":"IA","address":"2134 La Porte Road","name":""},
  {"lat":41.590367,"lon":-93.806904,"city":"West Des Moines","state":"IA","address":"7225 Vista Drive","name":""},
  {"lat":43.611652,"lon":-116.279537,"city":"Boise","state":"ID","address":"7881 W Emerald Street","name":""},
  {"lat":43.573738,"lon":-116.218555,"city":"Boise","state":"ID","address":"3300 S Shoshone Street","name":""},
  {"lat":42.564104,"lon":-113.792838,"city":"Burley","state":"ID","address":"230 W. 7th Street North","name":""},
  {"lat":43.525852,"lon":-114.32079,"city":"Hailey","state":"ID","address":"711 North Main Street","name":""},
  {"lat":43.496175,"lon":-112.052272,"city":"Idaho Falls","state":"ID","address":"1293 West Broadway","name":""},
  {"lat":46.733177,"lon":-117.014201,"city":"Moscow","state":"ID","address":"1000 West Pullman Road","name":""},
  {"lat":43.607186,"lon":-116.592313,"city":"Nampa","state":"ID","address":"16150 N Merchant Way","name":""},
  {"lat":42.880456,"lon":-112.421153,"city":"Pocatello","state":"ID","address":"205 Via Venitio","name":""},
  {"lat":42.593921,"lon":-114.479068,"city":"Twin Falls","state":"ID","address":"1788 Washington Street North","name":""},
  {"lat":41.772409,"lon":-87.742079,"city":"Bedford Park","state":"IL","address":"6630 South Cicero Avenue","name":""},
  {"lat":40.488569,"lon":-89.036775,"city":"Bloomington","state":"IL","address":"1014 Wylie Drive","name":""},
  {"lat":41.6897,"lon":-88.07308,"city":"Bolingbrook","state":"IL","address":"165 Fernwood Drive","name":""},
  {"lat":41.171939,"lon":-87.849228,"city":"Bourbonnais","state":"IL","address":"1550 State Route 50","name":""},
  {"lat":40.135809,"lon":-88.251005,"city":"Champaign","state":"IL","address":"1807 Moreland Boulevard","name":""},
  {"lat":41.890882,"lon":-87.630159,"city":"Chicago","state":"IL","address":"60 West Illinois Street","name":""},
  {"lat":41.89332,"lon":-87.622263,"city":"Chicago","state":"IL","address":"216 East Ontario Street","name":""},
  {"lat":38.682121,"lon":-90.014995,"city":"Collinsville","state":"IL","address":"4 Gateway Drive","name":""},
  {"lat":42.011052,"lon":-87.887239,"city":"Des Plaines","state":"IL","address":"2350 Mannheim Road","name":""},
  {"lat":41.82398,"lon":-89.47692,"city":"Dixon","state":"IL","address":"1755 Fulfs Lane","name":""},
  {"lat":40.671488,"lon":-89.576988,"city":"East Peoria","state":"IL","address":"200 Eastlight Court","name":""},
  {"lat":39.136109,"lon":-88.559027,"city":"Effingham","state":"IL","address":"1111 North Henrietta Street","name":""},
  {"lat":39.915899,"lon":-88.956247,"city":"Forsyth","state":"IL","address":"1417 Hickory Point Drive","name":""},
  {"lat":40.973793,"lon":-90.38418,"city":"Galesburg","state":"IL","address":"901 W Carl Sandburg Drive","name":""},
  {"lat":41.494812,"lon":-88.16604,"city":"Joliet","state":"IL","address":"1501 Riverboat Center Drive","name":""},
  {"lat":41.583199,"lon":-88.162918,"city":"Joliet","state":"IL","address":"3239 Norman Avenue","name":""},
  {"lat":41.904146,"lon":-88.034247,"city":"Lombard","state":"IL","address":"645 West North Ave","name":""},
  {"lat":37.746244,"lon":-88.965096,"city":"Marion","state":"IL","address":"1400 Champions Drive","name":""},
  {"lat":41.504428,"lon":-87.738848,"city":"Matteson","state":"IL","address":"500 Holiday Plaza Drive","name":""},
  {"lat":39.480416,"lon":-88.333698,"city":"Mattoon","state":"IL","address":"409 Swords Drive","name":""},
  {"lat":38.315445,"lon":-88.956158,"city":"Mount Vernon","state":"IL","address":"217 Potomac Blvd.","name":""},
  {"lat":41.803319,"lon":-88.128538,"city":"Naperville","state":"IL","address":"1820 Abriter Court","name":""},
  {"lat":41.801587,"lon":-88.208157,"city":"Naperville","state":"IL","address":"1847 West Diehl Road","name":""},
  {"lat":38.575321,"lon":-89.932213,"city":"O'Fallon","state":"IL","address":"1180 Central Park Drive","name":""},
  {"lat":41.373056,"lon":-88.834722,"city":"Ottawa","state":"IL","address":"3000 Fairfield Lane","name":""},
  {"lat":41.363236,"lon":-89.129604,"city":"Peru","state":"IL","address":"4385 Venture Drive","name":""},
  {"lat":38.751841,"lon":-90.072444,"city":"Pontoon Beach","state":"IL","address":"5224 Commerce Parkway","name":""},
  {"lat":39.935064,"lon":-91.346574,"city":"Quincy","state":"IL","address":"4415 Broadway","name":""},
  {"lat":42.270159,"lon":-88.96771,"city":"Rockford","state":"IL","address":"7651 Walton Street","name":""},
  {"lat":42.041742,"lon":-88.050783,"city":"Schaumburg","state":"IL","address":"700 National Parkway","name":""},
  {"lat":39.74604,"lon":-89.67192,"city":"Springfield","state":"IL","address":"3951 MacArthur Boulevard","name":""},
  {"lat":41.897716,"lon":-88.338866,"city":"St. Charles","state":"IL","address":"2096 Bricher Road","name":""},
  {"lat":41.555752,"lon":-87.79588,"city":"Tinley Park","state":"IL","address":"18511 North Creek Drive","name":""},
  {"lat":40.050614,"lon":-85.650943,"city":"Anderson","state":"IN","address":"2400 East 64th Street","name":""},
  {"lat":39.76467,"lon":-86.359916,"city":"Avon","state":"IN","address":"119 Angelina Way","name":""},
  {"lat":39.166459,"lon":-86.570231,"city":"Bloomington","state":"IN","address":"120 Fairfield Drive","name":""},
  {"lat":39.977561,"lon":-86.151392,"city":"Carmel","state":"IN","address":"1335 West Main Street","name":""},
  {"lat":39.197987,"lon":-85.956575,"city":"Columbus","state":"IN","address":"2820 Merchants Mile","name":""},
  {"lat":41.738068,"lon":-85.976944,"city":"Elkhart","state":"IN","address":"3501 Plaza Court","name":""},
  {"lat":37.975204,"lon":-87.457245,"city":"Evansville","state":"IN","address":"7879 Eagle Crest Boulevard","name":""},
  {"lat":37.976971,"lon":-87.63975,"city":"Evansville","state":"IN","address":"5400 Weston Road","name":""},
  {"lat":41.008653,"lon":-87.276961,"city":"Fair Oaks","state":"IN","address":"708 North 600 East","name":""},
  {"lat":41.133856,"lon":-85.162135,"city":"Fort Wayne","state":"IN","address":"6021 Lima Road","name":""},
  {"lat":41.040001,"lon":-85.242542,"city":"Fort Wayne","state":"IN","address":"7737 West Jefferson Boulevard","name":""},
  {"lat":39.485375,"lon":-86.017508,"city":"Franklin","state":"IN","address":"350 Paris Drive","name":""},
  {"lat":41.56376,"lon":-85.802147,"city":"Goshen","state":"IN","address":"2110 Keystone Drive","name":""},
  {"lat":39.818547,"lon":-85.765469,"city":"Greenfield","state":"IN","address":"2253 William Way","name":""},
  {"lat":41.573444,"lon":-87.465211,"city":"Hammond","state":"IN","address":"7720 Corinne Drive","name":""},
  {"lat":39.767284,"lon":-86.167235,"city":"Indianapolis","state":"IN","address":"501 W Washington Street","name":""},
  {"lat":39.941108,"lon":-86.023638,"city":"Indianapolis","state":"IN","address":"10495 Crosspoint Boulevard","name":""},
  {"lat":39.910588,"lon":-86.264668,"city":"Indianapolis","state":"IN","address":"5905 W 86th Street","name":""},
  {"lat":39.728099,"lon":-86.249211,"city":"Indianapolis","state":"IN","address":"5220 West Southern Avenue","name":""},
  {"lat":39.796384,"lon":-86.043001,"city":"Indianapolis","state":"IN","address":"7110 East 21st Street","name":""},
  {"lat":38.387778,"lon":-86.928482,"city":"Jasper","state":"IN","address":"333 River Centre Landing","name":""},
  {"lat":38.270695,"lon":-85.74971,"city":"Jeffersonville","state":"IN","address":"619 North Shore Drive","name":""},
  {"lat":38.348667,"lon":-85.703149,"city":"Jeffersonville","state":"IN","address":"3000 Gottbrath Parkway","name":""},
  {"lat":40.434825,"lon":-86.123594,"city":"Kokomo","state":"IN","address":"5148 Cartwright Dr","name":""},
  {"lat":40.419053,"lon":-86.829886,"city":"Lafayette","state":"IN","address":"4000 South Street","name":""},
  {"lat":40.045357,"lon":-86.486694,"city":"Lebanon","state":"IN","address":"410 Gateway Avenue","name":""},
  {"lat":38.733246,"lon":-85.372422,"city":"Madison","state":"IN","address":"108 St. Michaels Avenue","name":""},
  {"lat":41.469957,"lon":-87.327153,"city":"Merrillville","state":"IN","address":"8275 Georgia Street","name":""},
  {"lat":41.719629,"lon":-86.181237,"city":"Mishawaka","state":"IN","address":"425 W University Drive","name":""},
  {"lat":40.219945,"lon":-85.431207,"city":"Muncie","state":"IN","address":"4011 W Bethel","name":""},
  {"lat":38.306489,"lon":-85.847419,"city":"New Albany","state":"IN","address":"108 Daisy Summit","name":""},
  {"lat":40.049282,"lon":-85.991897,"city":"Noblesville","state":"IN","address":"17960 Foundation Drive","name":""},
  {"lat":39.67247,"lon":-86.37388,"city":"Plainfield","state":"IN","address":"6018 Gateway Drive","name":""},
  {"lat":38.960495,"lon":-85.844515,"city":"Seymour","state":"IN","address":"327 North Sandy Creek Drive","name":""},
  {"lat":41.692536,"lon":-86.233997,"city":"South Bend","state":"IN","address":"1220 East Angela Boulevard","name":""},
  {"lat":39.433756,"lon":-87.411279,"city":"Terre Haute","state":"IN","address":"475 E Margaret Avenue","name":""},
  {"lat":41.459866,"lon":-87.034608,"city":"Valparaiso","state":"IN","address":"2101 E Morthland Drive","name":""},
  {"lat":41.274715,"lon":-85.855038,"city":"Warsaw","state":"IN","address":"54 Petro Drive","name":""},
  {"lat":39.951547,"lon":-86.354889,"city":"Whitestown","state":"IN","address":"6035 Perry Worth Road","name":""},
  {"lat":38.42108,"lon":-96.21931,"city":"Emporia","state":"KS","address":"3010 Eaglecrest Dr.","name":""},
  {"lat":38.065139,"lon":-97.903918,"city":"Hutchinson","state":"KS","address":"1111 North Lorraine Street","name":""},
  {"lat":39.128224,"lon":-94.80694,"city":"Kansas City","state":"KS","address":"1925 North 98th Street","name":""},
  {"lat":39.327811,"lon":-94.916131,"city":"Leavenworth","state":"KS","address":"1101 North 4th Street","name":""},
  {"lat":37.03175,"lon":-100.914358,"city":"Liberal","state":"KS","address":"501 Hotel Drive","name":""},
  {"lat":39.176703,"lon":-96.560983,"city":"Manhattan","state":"KS","address":"300 Colorado Street","name":""},
  {"lat":38.370814,"lon":-97.624078,"city":"McPherson","state":"KS","address":"2270 East Kansas Avenue","name":""},
  {"lat":38.903858,"lon":-94.676281,"city":"Overland Park","state":"KS","address":"12440 Blue Valley Parkway","name":""},
  {"lat":38.797578,"lon":-97.621463,"city":"Salina","state":"KS","address":"2455 Virginia Drive","name":""},
  {"lat":39.000161,"lon":-94.777978,"city":"Shawnee","state":"KS","address":"16550 Midland Drive","name":""},
  {"lat":37.680747,"lon":-97.338139,"city":"Wichita","state":"KS","address":"525 South Main Street","name":""},
  {"lat":37.680306,"lon":-97.228111,"city":"Wichita","state":"KS","address":"417 South Webb Road","name":""},
  {"lat":38.400828,"lon":-82.711553,"city":"Ashland","state":"KY","address":"10945 Route 60","name":""},
  {"lat":37.829434,"lon":-85.47618,"city":"Bardstown","state":"KY","address":"1070 Morton Avenue","name":""},
  {"lat":36.944833,"lon":-86.431592,"city":"Bowling Green","state":"KY","address":"1832 Cave Mill Road","name":""},
  {"lat":36.916101,"lon":-84.122156,"city":"Corbin","state":"KY","address":"157 Arena Drive","name":""},
  {"lat":37.710069,"lon":-85.833751,"city":"Elizabethtown","state":"KY","address":"1031 Executive Drive","name":""},
  {"lat":39.007897,"lon":-84.653783,"city":"Florence","state":"KY","address":"5910 Merchants Street","name":""},
  {"lat":38.176506,"lon":-84.812392,"city":"Frankfort","state":"KY","address":"40 Chenault Road","name":""},
  {"lat":38.222131,"lon":-84.538791,"city":"Georgetown","state":"KY","address":"200 Tiger Way","name":""},
  {"lat":38.046022,"lon":-84.42355,"city":"Lexington","state":"KY","address":"2211 Elkhorn Road","name":""},
  {"lat":38.102098,"lon":-84.481379,"city":"Lexington","state":"KY","address":"2100 Hackney Place","name":""},
  {"lat":38.016754,"lon":-84.554081,"city":"Lexington","state":"KY","address":"3050 Lakecrest Circle","name":""},
  {"lat":37.151703,"lon":-84.117003,"city":"London","state":"KY","address":"201 Shiloh Dr.","name":""},
  {"lat":38.253284,"lon":-85.75198,"city":"Louisville","state":"KY","address":"100 E Jefferson","name":""},
  {"lat":38.22069,"lon":-85.54256,"city":"Louisville","state":"KY","address":"1220 Kentucky Mills Drive","name":""},
  {"lat":38.297733,"lon":-85.56231,"city":"Louisville","state":"KY","address":"10110 Champions Farm Drive","name":""},
  {"lat":38.191883,"lon":-85.745444,"city":"Louisville","state":"KY","address":"653 Phillips Lane","name":""},
  {"lat":39.10169,"lon":-84.489717,"city":"Newport","state":"KY","address":"420 Riverboat Row","name":""},
  {"lat":37.726704,"lon":-87.122157,"city":"Owensboro","state":"KY","address":"800 Salem Drive","name":""},
  {"lat":37.085235,"lon":-88.682474,"city":"Paducah","state":"KY","address":"3950 Coleman Crossing Circle","name":""},
  {"lat":38.1895,"lon":-85.2735,"city":"Shelbyville","state":"KY","address":"222 Gordon Lane","name":""},
  {"lat":38.065595,"lon":-85.697212,"city":"Shepherdsville","state":"KY","address":"282 Brenton Way","name":""},
  {"lat":31.266706,"lon":-92.459761,"city":"Alexandria","state":"LA","address":"2830 S. Macarthur Drive","name":""},
  {"lat":29.469033,"lon":-90.319528,"city":"Cut Off","state":"LA","address":"239 Highway 3162","name":""},
  {"lat":29.568086,"lon":-90.683301,"city":"Houma","state":"LA","address":"100 Picone Road","name":""},
  {"lat":30.10055,"lon":-90.504642,"city":"LaPlace","state":"LA","address":"944 Belle Terre Boulevard","name":""},
  {"lat":30.192493,"lon":-92.015817,"city":"Lafayette","state":"LA","address":"1606 W Pinhook Road","name":""},
  {"lat":30.000567,"lon":-90.160067,"city":"Metairie","state":"LA","address":"2710 Severn Avenue","name":""},
  {"lat":31.728597,"lon":-93.151264,"city":"Natchitoches","state":"LA","address":"150 Hayes Avenue","name":""},
  {"lat":29.951219,"lon":-90.072681,"city":"New Orleans","state":"LA","address":"346 Baronne Street","name":""},
  {"lat":32.538881,"lon":-92.616443,"city":"Ruston","state":"LA","address":"1707 Roberta Avenue","name":""},
  {"lat":30.214042,"lon":-93.376186,"city":"Sulphur","state":"LA","address":"2615 Ruth Street","name":""},
  {"lat":32.509214,"lon":-92.183606,"city":"West Monroe","state":"LA","address":"606 Mane Street","name":""},
  {"lat":42.844295,"lon":-70.909385,"city":"Amesbury","state":"MA","address":"35 Clarks Road","name":""},
  {"lat":42.183095,"lon":-71.860912,"city":"Auburn","state":"MA","address":"718 Southbridge Street","name":""},
  {"lat":42.372688,"lon":-71.079466,"city":"Cambridge","state":"MA","address":"215 Monsignor O'Brien Highway","name":""},
  {"lat":42.398289,"lon":-71.038898,"city":"Chelsea","state":"MA","address":"200 Maple Street","name":""},
  {"lat":42.29801,"lon":-71.479575,"city":"Framingham","state":"MA","address":"1659 Worcester Road","name":""},
  {"lat":42.20759,"lon":-73.346473,"city":"Great Barrington","state":"MA","address":"249 Stockbridge Road, Route 7","name":""},
  {"lat":42.77433,"lon":-71.11634,"city":"Haverhill","state":"MA","address":"401 Lowell Avenue","name":""},
  {"lat":42.175874,"lon":-72.641177,"city":"Holyoke","state":"MA","address":"229 Whiting Farms Road","name":""},
  {"lat":41.66974,"lon":-70.298352,"city":"Hyannis","state":"MA","address":"867 Iyannough Road","name":""},
  {"lat":41.997566,"lon":-71.208835,"city":"Mansfield","state":"MA","address":"50 Reservoir Street","name":""},
  {"lat":42.338061,"lon":-71.588333,"city":"Marlborough","state":"MA","address":"105 Apex Drive","name":""},
  {"lat":42.402612,"lon":-71.081721,"city":"Medford","state":"MA","address":"85 Station Landing","name":""},
  {"lat":41.902473,"lon":-70.968555,"city":"Middleborough","state":"MA","address":"4 Chalet Road","name":""},
  {"lat":42.1617,"lon":-71.5066,"city":"Milford","state":"MA","address":"1 Fortune Boulevard","name":""},
  {"lat":41.632851,"lon":-70.921372,"city":"New Bedford","state":"MA","address":"185 MacArthur Drive","name":""},
  {"lat":42.312303,"lon":-72.62655,"city":"Northampton","state":"MA","address":"115A Conz Street","name":""},
  {"lat":41.949639,"lon":-70.717617,"city":"Plymouth","state":"MA","address":"16 Plaza Way","name":""},
  {"lat":41.72989,"lon":-71.1669,"city":"Somerset","state":"MA","address":"602 Grand Army of the Republic Highway","name":""},
  {"lat":42.360439,"lon":-71.450928,"city":"Sudbury","state":"MA","address":"738 Boston Post Road","name":""},
  {"lat":42.642753,"lon":-71.23987,"city":"Tewksbury","state":"MA","address":"1695 Andover Street","name":""},
  {"lat":42.141522,"lon":-71.217472,"city":"Walpole","state":"MA","address":"630 Providence Highway","name":""},
  {"lat":42.388858,"lon":-71.263631,"city":"Waltham","state":"MA","address":"250 Second Avenue","name":""},
  {"lat":42.706345,"lon":-73.188887,"city":"Williamstown","state":"MA","address":"430 Main Street","name":""},
  {"lat":42.503342,"lon":-71.135362,"city":"Woburn","state":"MA","address":"285 Mishawum Road","name":""},
  {"lat":39.526348,"lon":-76.183458,"city":"Aberdeen","state":"MD","address":"907 Barnett Lane","name":""},
  {"lat":38.979745,"lon":-76.505745,"city":"Annapolis","state":"MD","address":"200 Taylor Avenue","name":""},
  {"lat":39.377796,"lon":-76.458806,"city":"Baltimore","state":"MD","address":"8477 Cordon Way","name":""},
  {"lat":38.780338,"lon":-76.889674,"city":"Clinton","state":"MD","address":"7979 MALCOLM RD","name":""},
  {"lat":39.647691,"lon":-78.761186,"city":"Cumberland","state":"MD","address":"21 North Wineow Street","name":""},
  {"lat":38.794571,"lon":-76.058227,"city":"Easton","state":"MD","address":"8945 Sunflower Drive","name":""},
  {"lat":39.377693,"lon":-77.412947,"city":"Frederick","state":"MD","address":"5220 Westview Drive","name":""},
  {"lat":39.184222,"lon":-77.261037,"city":"Germantown","state":"MD","address":"20025 Century Blvd","name":""},
  {"lat":39.604254,"lon":-77.687232,"city":"Hagerstown","state":"MD","address":"89 All Star Court","name":""},
  {"lat":39.155606,"lon":-76.715745,"city":"Hanover","state":"MD","address":"7539 Teague Road","name":""},
  {"lat":39.078551,"lon":-76.86677,"city":"Laurel","state":"MD","address":"13700 Baltimore Avenue","name":""},
  {"lat":38.27444,"lon":-76.463825,"city":"Lexington Park","state":"MD","address":"22119 Three Notch Road","name":""},
  {"lat":39.200135,"lon":-76.679439,"city":"Linthicum Heights","state":"MD","address":"1020 Andover Road","name":""},
  {"lat":38.354725,"lon":-75.076519,"city":"Ocean City","state":"MD","address":"2501 Philadelphia Avenue","name":""},
  {"lat":44.348577,"lon":-69.799005,"city":"Augusta","state":"ME","address":"14 Anthony Avenue","name":""},
  {"lat":44.790147,"lon":-68.810939,"city":"Bangor","state":"ME","address":"300 Odlin Road","name":""},
  {"lat":43.912412,"lon":-70.003892,"city":"Brunswick","state":"ME","address":"36 Old Portland Road","name":""},
  {"lat":43.626423,"lon":-70.346823,"city":"Scarborough","state":"ME","address":"2 Cummings Road","name":""},
  {"lat":42.240416,"lon":-83.734305,"city":"Ann Arbor","state":"MI","address":"3285 Boardwalk Drive","name":""},
  {"lat":42.261041,"lon":-85.202751,"city":"Battle Creek","state":"MI","address":"4665 Beckley Road","name":""},
  {"lat":42.324171,"lon":-83.446664,"city":"Canton","state":"MI","address":"5760 North Haggerty Road","name":""},
  {"lat":42.636561,"lon":-82.854536,"city":"Chesterfield","state":"MI","address":"45800 Market Place Boulevard","name":""},
  {"lat":42.498991,"lon":-83.354331,"city":"Farmington Hills","state":"MI","address":"27777 Stansbury Boulevard","name":""},
  {"lat":42.80275,"lon":-83.732219,"city":"Fenton","state":"MI","address":"3125 West Silver Lake Road","name":""},
  {"lat":43.331055,"lon":-83.738324,"city":"Frankenmuth","state":"MI","address":"430 South Main Street","name":""},
  {"lat":45.028569,"lon":-84.685263,"city":"Gaylord","state":"MI","address":"826 Carpenter Street","name":""},
  {"lat":42.900358,"lon":-83.631611,"city":"Grand Blanc","state":"MI","address":"9044 Holly Road","name":""},
  {"lat":42.914413,"lon":-85.569921,"city":"Grand Rapids","state":"MI","address":"3930 Stahl Drive SE","name":""},
  {"lat":42.820368,"lon":-86.090027,"city":"Holland","state":"MI","address":"2854 West Shore Drive","name":""},
  {"lat":42.277481,"lon":-84.429464,"city":"Jackson","state":"MI","address":"2395 Shirley Drive","name":""},
  {"lat":42.236049,"lon":-85.675578,"city":"Kalamazoo","state":"MI","address":"6420 Cracker Barrel Drive","name":""},
  {"lat":42.258631,"lon":-85.529322,"city":"Kalamazoo","state":"MI","address":"3303 Retail Place Drive","name":""},
  {"lat":42.765631,"lon":-84.512736,"city":"Lansing","state":"MI","address":"3320 Preyde Boulevard","name":""},
  {"lat":42.742415,"lon":-84.65611,"city":"Lansing","state":"MI","address":"810 Delta Commerce Drive","name":""},
  {"lat":42.411827,"lon":-83.429121,"city":"Livonia","state":"MI","address":"17350 Fox Drive","name":""},
  {"lat":46.534345,"lon":-87.395985,"city":"Marquette","state":"MI","address":"808 S. Lakeshore","name":""},
  {"lat":43.612,"lon":-84.23976,"city":"Midland","state":"MI","address":"506 East Buttles Street","name":""},
  {"lat":43.573339,"lon":-84.770721,"city":"Mount Pleasant","state":"MI","address":"2525 South University Park Drive","name":""},
  {"lat":43.147037,"lon":-86.207861,"city":"Muskegon","state":"MI","address":"1520 East Mount Garfield Road","name":""},
  {"lat":41.777856,"lon":-86.732959,"city":"New Buffalo","state":"MI","address":"11400 Holiday Drive","name":""},
  {"lat":42.99012,"lon":-82.450799,"city":"Port Huron","state":"MI","address":"1635 Yeager Street","name":""},
  {"lat":42.624068,"lon":-83.130755,"city":"Rochester Hills","state":"MI","address":"3900 South Rochester Road","name":""},
  {"lat":42.24708,"lon":-83.34789,"city":"Romulus","state":"MI","address":"7800 Merriman Road","name":""},
  {"lat":43.482172,"lon":-83.967836,"city":"Saginaw","state":"MI","address":"5200 Cardinal Square Boulevard","name":""},
  {"lat":42.580629,"lon":-83.032335,"city":"Sterling Heights","state":"MI","address":"7739 17 Mile Road","name":""},
  {"lat":42.037643,"lon":-86.515618,"city":"Stevensville","state":"MI","address":"4408 Red Arrow Highway","name":""},
  {"lat":42.198257,"lon":-83.237328,"city":"Taylor","state":"MI","address":"20779 Eureka Road","name":""},
  {"lat":44.739263,"lon":-85.64205,"city":"Traverse City","state":"MI","address":"3654 N US-31 South","name":""},
  {"lat":42.53542,"lon":-83.12092,"city":"Troy","state":"MI","address":"225 Stephenson Highway","name":""},
  {"lat":43.018212,"lon":-85.683121,"city":"Walker","state":"MI","address":"620 Center Drive NW","name":""},
  {"lat":42.856687,"lon":-85.721027,"city":"Wyoming","state":"MI","address":"5970 Metro Way S.W.","name":""},
  {"lat":42.225508,"lon":-83.6195,"city":"Ypsilanti","state":"MI","address":"326 James L Hart Parkway","name":""},
  {"lat":45.846808,"lon":-95.382381,"city":"Alexandria","state":"MN","address":"4929 Sanibel Drive","name":""},
  {"lat":45.16385,"lon":-93.23107,"city":"Blaine","state":"MN","address":"10643 Baltimore Street NE","name":""},
  {"lat":44.858756,"lon":-93.236768,"city":"Bloomington","state":"MN","address":"2401 American Boulevard East","name":""},
  {"lat":45.067436,"lon":-93.305333,"city":"Brooklyn Center","state":"MN","address":"6250 Earle Brown Drive","name":""},
  {"lat":44.743231,"lon":-93.280611,"city":"Burnsville","state":"MN","address":"14350 Nicollet Court","name":""},
  {"lat":46.806553,"lon":-95.846428,"city":"Detroit Lakes","state":"MN","address":"102 West Lake Drive","name":""},
  {"lat":46.807549,"lon":-92.157576,"city":"Duluth","state":"MN","address":"1510 Maple Grove Road","name":""},
  {"lat":46.773761,"lon":-92.091678,"city":"Duluth","state":"MN","address":"1000 Minnesota Avenue","name":""},
  {"lat":44.814709,"lon":-93.212212,"city":"Eagan","state":"MN","address":"3949 Cedar Grove Pkwy","name":""},
  {"lat":47.939316,"lon":-97.011659,"city":"East Grand Forks","state":"MN","address":"514 Gateway Drive NE","name":""},
  {"lat":44.862885,"lon":-93.419605,"city":"Eden Prairie","state":"MN","address":"11325 Viking Drive","name":""},
  {"lat":44.168743,"lon":-93.95126,"city":"Mankato","state":"MN","address":"141 Apache Place","name":""},
  {"lat":44.863572,"lon":-93.163664,"city":"Mendota Heights","state":"MN","address":"1330 Northland Drive","name":""},
  {"lat":44.976696,"lon":-93.279239,"city":"Minneapolis","state":"MN","address":"1028 Hawthorne Avenue","name":""},
  {"lat":44.459031,"lon":-93.160719,"city":"Northfield","state":"MN","address":"114 2nd Street West","name":""},
  {"lat":44.028682,"lon":-92.487518,"city":"Rochester","state":"MN","address":"470 17th Avenue NW","name":""},
  {"lat":45.032677,"lon":-93.189496,"city":"Roseville","state":"MN","address":"3045 Centre Pointe Dr. N","name":""},
  {"lat":44.78435,"lon":-93.460978,"city":"Shakopee","state":"MN","address":"4600 12th Avenue East","name":""},
  {"lat":45.050432,"lon":-93.052006,"city":"Vadnais Heights","state":"MN","address":"1125 East County Road E","name":""},
  {"lat":44.030733,"lon":-91.620556,"city":"Winona","state":"MN","address":"925 Bruski Drive","name":""},
  {"lat":38.815133,"lon":-94.510408,"city":"Belton","state":"MO","address":"151 North Mullen Road","name":""},
  {"lat":36.636721,"lon":-93.281164,"city":"Branson","state":"MO","address":"220 Highway 165 South","name":""},
  {"lat":37.290428,"lon":-89.572871,"city":"Cape Girardeau","state":"MO","address":"433 Cape West Crossings","name":""},
  {"lat":38.652812,"lon":-90.55105,"city":"Chesterfield","state":"MO","address":"1065 Chesterfield Parkway East","name":""},
  {"lat":39.773961,"lon":-93.545664,"city":"Chillicothe","state":"MO","address":"220 West Business 36 Highway","name":""},
  {"lat":38.96295,"lon":-92.284743,"city":"Columbia","state":"MO","address":"1115 Woodland Springs Ct.","name":""},
  {"lat":39.220184,"lon":-94.575713,"city":"Gladstone","state":"MO","address":"6901 North Oak Trafficway","name":""},
  {"lat":38.588926,"lon":-92.254771,"city":"Jefferson City","state":"MO","address":"3621 West Truman Boulevard","name":""},
  {"lat":37.053612,"lon":-94.478414,"city":"Joplin","state":"MO","address":"3301 South Range Line Road","name":""},
  {"lat":39.239126,"lon":-94.460382,"city":"Kansas City","state":"MO","address":"8101 N Church Road","name":""},
  {"lat":39.308043,"lon":-94.68442,"city":"Kansas City","state":"MO","address":"11820 NW Plaza Circle","name":""},
  {"lat":39.072773,"lon":-94.585259,"city":"Kansas City","state":"MO","address":"3001 Main Street","name":""},
  {"lat":38.935497,"lon":-94.361194,"city":"Lee's Summit","state":"MO","address":"1301 NE Windsor Drive","name":""},
  {"lat":36.789936,"lon":-90.447253,"city":"Poplar Bluff","state":"MO","address":"3109 Oak Grove Road","name":""},
  {"lat":37.941287,"lon":-91.801302,"city":"Rolla","state":"MO","address":"1670 Old Wire Outer Road","name":""},
  {"lat":36.855599,"lon":-89.587956,"city":"Sikeston","state":"MO","address":"1239 Commerce Drive","name":""},
  {"lat":37.241517,"lon":-93.261844,"city":"Springfield","state":"MO","address":"2455 North Glenstone Avenue","name":""},
  {"lat":39.809317,"lon":-94.804628,"city":"St. Joseph","state":"MO","address":"4779 Tuscany Drive","name":""},
  {"lat":38.629819,"lon":-90.212253,"city":"St. Louis","state":"MO","address":"2144 Market Street","name":""},
  {"lat":38.701411,"lon":-90.439444,"city":"St. Louis","state":"MO","address":"11918 Westline Industrial Drive","name":""},
  {"lat":38.484482,"lon":-90.357676,"city":"St. Louis","state":"MO","address":"4318 Butler Hill Road","name":""},
  {"lat":37.826455,"lon":-92.146389,"city":"St. Robert","state":"MO","address":"131 St Robert Boulevard","name":""},
  {"lat":38.773044,"lon":-93.734119,"city":"Warrensburg","state":"MO","address":"355 East Russell Avenue","name":""},
  {"lat":38.811831,"lon":-90.877056,"city":"Wentzville","state":"MO","address":"130 Crossroads South Drive","name":""},
  {"lat":34.308064,"lon":-89.92165,"city":"Batesville","state":"MS","address":"290 Power Drive","name":""},
  {"lat":32.328427,"lon":-90.324672,"city":"Clinton","state":"MS","address":"105 Hampstead Boulevard","name":""},
  {"lat":33.51621,"lon":-88.426204,"city":"Columbus","state":"MS","address":"2011 6th Street North","name":""},
  {"lat":30.421606,"lon":-89.092045,"city":"Gulfport","state":"MS","address":"15151 Turkey Creek Drive","name":""},
  {"lat":31.324921,"lon":-89.347897,"city":"Hattiesburg","state":"MS","address":"173 Thornhill Drive","name":""},
  {"lat":32.372691,"lon":-88.668481,"city":"Meridian","state":"MS","address":"148 Highway 11 & 80","name":""},
  {"lat":34.963151,"lon":-89.795561,"city":"Olive Branch","state":"MS","address":"7044 Hacks Cross Road","name":""},
  {"lat":32.268173,"lon":-90.135712,"city":"Pearl","state":"MS","address":"407 Riverwind Drive","name":""},
  {"lat":34.95513,"lon":-89.93805,"city":"Southaven","state":"MS","address":"6497 Front Street","name":""},
  {"lat":34.964841,"lon":-89.996389,"city":"Southaven","state":"MS","address":"7149 Sleepy Hollow Drive","name":""},
  {"lat":34.312634,"lon":-88.697723,"city":"Tupelo","state":"MS","address":"3070 Tom Watson Dr.","name":""},
  {"lat":45.754208,"lon":-108.566656,"city":"Billings","state":"MT","address":"2026 Overland Avenue","name":""},
  {"lat":45.985458,"lon":-112.503578,"city":"Butte","state":"MT","address":"2340 Cornell Avenue","name":""},
  {"lat":46.60557,"lon":-112.00925,"city":"Helena","state":"MT","address":"2007 N Oakes Street","name":""},
  {"lat":46.589837,"lon":-112.002542,"city":"Helena","state":"MT","address":"2150 11th Avenue","name":""},
  {"lat":45.665977,"lon":-108.762068,"city":"Laurel","state":"MT","address":"301 South Washington Avenue","name":""},
  {"lat":45.646242,"lon":-110.571716,"city":"Livingston","state":"MT","address":"1629 West Park Street","name":""},
  {"lat":46.92104,"lon":-114.0693,"city":"Missoula","state":"MT","address":"5252 Airway Boulevard","name":""},
  {"lat":35.905406,"lon":-79.957432,"city":"Archdale","state":"NC","address":"10141 N. Main St.","name":""},
  {"lat":35.696314,"lon":-79.793835,"city":"Asheboro","state":"NC","address":"920 Executive Way","name":""},
  {"lat":35.587969,"lon":-82.528325,"city":"Asheville","state":"NC","address":"184 Tunnel Road","name":""},
  {"lat":35.533704,"lon":-82.604861,"city":"Asheville","state":"NC","address":"11 Rocky Ridge Road","name":""},
  {"lat":35.260044,"lon":-81.026841,"city":"Belmont","state":"NC","address":"1 Caldwell Drive","name":""},
  {"lat":36.196813,"lon":-81.654659,"city":"Boone","state":"NC","address":"2060 Blowing Rock Road","name":""},
  {"lat":35.762358,"lon":-78.74915,"city":"Cary","state":"NC","address":"1120 Ledsome Lane","name":""},
  {"lat":35.346325,"lon":-80.845322,"city":"Charlotte","state":"NC","address":"9230 Harris Corners Parkway","name":""},
  {"lat":35.147433,"lon":-80.726654,"city":"Charlotte","state":"NC","address":"8540 East Independence Boulevard","name":""},
  {"lat":35.181417,"lon":-80.914219,"city":"Charlotte","state":"NC","address":"2220 West Tyvola Road","name":""},
  {"lat":35.219028,"lon":-80.836278,"city":"Charlotte","state":"NC","address":"201 South McDowell Street","name":""},
  {"lat":35.136651,"lon":-80.90605,"city":"Charlotte","state":"NC","address":"7920 Arrowridge Blvd","name":""},
  {"lat":35.307481,"lon":-80.756647,"city":"Charlotte","state":"NC","address":"535 Collins-Aikman Drive","name":""},
  {"lat":35.468229,"lon":-83.30085,"city":"Cherokee","state":"NC","address":"Casino District, 568 Painttown Road","name":""},
  {"lat":35.293736,"lon":-78.603836,"city":"Dunn","state":"NC","address":"688 Jackson Road","name":""},
  {"lat":35.880066,"lon":-78.843653,"city":"Durham","state":"NC","address":"5219 Page Road","name":""},
  {"lat":35.901678,"lon":-78.958671,"city":"Durham","state":"NC","address":"7807 Leonardo Drive","name":""},
  {"lat":36.29833,"lon":-76.251668,"city":"Elizabeth City","state":"NC","address":"1640 City Center Blvd","name":""},
  {"lat":36.279629,"lon":-80.825397,"city":"Elkin","state":"NC","address":"628 CC Camp Road /268 Bypass","name":""},
  {"lat":35.118718,"lon":-78.88012,"city":"Fayetteville","state":"NC","address":"4249 Ramsey Street","name":""},
  {"lat":35.295961,"lon":-82.399781,"city":"Flat Rock","state":"NC","address":"836 Upward Road","name":""},
  {"lat":35.438342,"lon":-82.531608,"city":"Fletcher","state":"NC","address":"155 Underwood Road","name":""},
  {"lat":35.269603,"lon":-81.146264,"city":"Gastonia","state":"NC","address":"1860 Remount Road","name":""},
  {"lat":36.058662,"lon":-79.890653,"city":"Greensboro","state":"NC","address":"4308 Big Tree Way","name":""},
  {"lat":36.045125,"lon":-79.846638,"city":"Greensboro","state":"NC","address":"3308 Isler Street","name":""},
  {"lat":36.076455,"lon":-79.960321,"city":"Greensboro","state":"NC","address":"7615 Thorndike Rd","name":""},
  {"lat":35.601642,"lon":-77.397989,"city":"Greenville","state":"NC","address":"908 Moye Boulevard","name":""},
  {"lat":35.711388,"lon":-81.308143,"city":"Hickory","state":"NC","address":"1950 13th Avenue Drive SE","name":""},
  {"lat":34.78146,"lon":-77.398773,"city":"Jacksonville","state":"NC","address":"121 Circuit Lane","name":""},
  {"lat":35.260242,"lon":-77.644178,"city":"Kinston","state":"NC","address":"667 Sheffield Drive","name":""},
  {"lat":34.644782,"lon":-79.014675,"city":"Lumberton","state":"NC","address":"3361 Lackey Street","name":""},
  {"lat":36.067086,"lon":-79.297647,"city":"Mebane","state":"NC","address":"111 Spring Forest Drive","name":""},
  {"lat":35.01065,"lon":-80.568749,"city":"Monroe","state":"NC","address":"1825 Williams Road","name":""},
  {"lat":35.593106,"lon":-80.857398,"city":"Mooresville","state":"NC","address":"120 Consumer Square Drive","name":""},
  {"lat":35.748585,"lon":-81.691278,"city":"Morganton","state":"NC","address":"400 North Green Street","name":""},
  {"lat":35.860227,"lon":-78.820696,"city":"Morrisville","state":"NC","address":"2750 Slater Road","name":""},
  {"lat":35.075961,"lon":-80.876758,"city":"Pineville","state":"NC","address":"12228 Park Road","name":""},
  {"lat":35.834382,"lon":-78.67471,"city":"Raleigh","state":"NC","address":"2201 Summit Park Lane","name":""},
  {"lat":35.871756,"lon":-78.578433,"city":"Raleigh","state":"NC","address":"6408 Capital Boulevard","name":""},
  {"lat":35.896237,"lon":-78.807167,"city":"Raleigh","state":"NC","address":"10040 Sellona St","name":""},
  {"lat":34.940147,"lon":-79.778883,"city":"Rockingham","state":"NC","address":"307 West Greene Street","name":""},
  {"lat":35.9803,"lon":-77.846297,"city":"Rocky Mount","state":"NC","address":"187 Wellspring Drive","name":""},
  {"lat":35.273836,"lon":-81.502942,"city":"Shelby","state":"NC","address":"1715 East Dixon Boulevard","name":""},
  {"lat":35.507317,"lon":-78.31811,"city":"Smithfield","state":"NC","address":"809 Venture Drive","name":""},
  {"lat":33.950529,"lon":-78.042175,"city":"Southport","state":"NC","address":"5181 Southport Supply Road SE","name":""},
  {"lat":35.808837,"lon":-80.87826,"city":"Statesville","state":"NC","address":"1243 Tonewood Street","name":""},
  {"lat":35.976878,"lon":-78.543867,"city":"Wake Forest","state":"NC","address":"12051 Retail Drive","name":""},
  {"lat":35.566911,"lon":-77.074564,"city":"Washington","state":"NC","address":"2090 West 15th Street","name":""},
  {"lat":35.702745,"lon":-82.568818,"city":"Weaverville","state":"NC","address":"25 Fairfield Approach Drive","name":""},
  {"lat":36.4329,"lon":-77.62658,"city":"Weldon","state":"NC","address":"198 Fairground Lane","name":""},
  {"lat":36.057776,"lon":-79.6056,"city":"Whitsett","state":"NC","address":"3020 Hendren Road","name":""},
  {"lat":34.244714,"lon":-77.862524,"city":"Wilmington","state":"NC","address":"307 Eastwood Road","name":""},
  {"lat":35.763526,"lon":-78.007427,"city":"Wilson","state":"NC","address":"4915 Hayes Place West","name":""},
  {"lat":36.09413,"lon":-80.242928,"city":"Winston-Salem","state":"NC","address":"125 South Main Street","name":""},
  {"lat":36.068501,"lon":-80.306964,"city":"Winston-Salem","state":"NC","address":"1680 Westbrook Plaza Drive","name":""},
  {"lat":46.838255,"lon":-100.774499,"city":"Bismarck","state":"ND","address":"1120 E Century Ave","name":""},
  {"lat":46.86675,"lon":-96.84571,"city":"Fargo","state":"ND","address":"3902 9th Avenue S","name":""},
  {"lat":46.882044,"lon":-98.722156,"city":"Jamestown","state":"ND","address":"930 25th Street SW","name":""},
  {"lat":41.45195,"lon":-97.40174,"city":"Columbus","state":"NE","address":"5912 Howard Boulevard","name":""},
  {"lat":40.64135,"lon":-96.937175,"city":"Crete","state":"NE","address":"3015 Betten Drive","name":""},
  {"lat":41.452836,"lon":-96.482608,"city":"Fremont","state":"NE","address":"2410 North Yager Road","name":""},
  {"lat":40.924421,"lon":-98.381013,"city":"Grand Island","state":"NE","address":"805 Allen Dr","name":""},
  {"lat":40.673589,"lon":-99.089789,"city":"Kearney","state":"NE","address":"510 Talmadge Road","name":""},
  {"lat":40.737772,"lon":-96.604239,"city":"Lincoln","state":"NE","address":"8455 Andermatt Drive","name":""},
  {"lat":40.846125,"lon":-96.736106,"city":"Lincoln","state":"NE","address":"1000 West Bond Street","name":""},
  {"lat":40.854633,"lon":-96.6796,"city":"Lincoln","state":"NE","address":"4221 Industrial Avenue","name":""},
  {"lat":42.016669,"lon":-97.424804,"city":"Norfolk","state":"NE","address":"1302 Cyhawk Loop","name":""},
  {"lat":41.113415,"lon":-100.767202,"city":"North Platte","state":"NE","address":"319 W South River Rd","name":""},
  {"lat":41.323126,"lon":-96.072008,"city":"Omaha","state":"NE","address":"7101 North 102nd Circle","name":""},
  {"lat":41.22767,"lon":-96.022219,"city":"Omaha","state":"NE","address":"7002 Grover Street","name":""},
  {"lat":41.269348,"lon":-95.935879,"city":"Omaha","state":"NE","address":"1501 Nicholas Street","name":""},
  {"lat":41.233247,"lon":-96.184836,"city":"Omaha","state":"NE","address":"17240 Wright Street","name":""},
  {"lat":41.138874,"lon":-96.039383,"city":"Papillion","state":"NE","address":"465 Olson Drive","name":""},
  {"lat":41.875245,"lon":-103.650071,"city":"Scottsbluff","state":"NE","address":"902 Winter Creek Drive","name":""},
  {"lat":41.118206,"lon":-102.947239,"city":"Sidney","state":"NE","address":"889 East Jennifer Lane","name":""},
  {"lat":43.195195,"lon":-71.528309,"city":"Concord","state":"NH","address":"4 Gulf Street","name":""},
  {"lat":42.989644,"lon":-70.932245,"city":"Exeter","state":"NH","address":"138 Portsmouth Avenue","name":""},
  {"lat":43.029137,"lon":-71.440521,"city":"Hooksett","state":"NH","address":"8 Bell Ave","name":""},
  {"lat":42.932985,"lon":-72.277761,"city":"Keene","state":"NH","address":"30 Main Street","name":""},
  {"lat":42.961705,"lon":-71.433964,"city":"Manchester","state":"NH","address":"860 South Porter Street","name":""},
  {"lat":44.05808,"lon":-71.11032,"city":"North Conway","state":"NH","address":"165 Skimobile Road","name":""},
  {"lat":43.771954,"lon":-71.72184,"city":"Plymouth","state":"NH","address":"12 Ridgeview Lane","name":""},
  {"lat":43.06876,"lon":-70.779868,"city":"Portsmouth","state":"NH","address":"650 Borthwick Avenue","name":""},
  {"lat":40.593535,"lon":-74.273717,"city":"Avenel","state":"NJ","address":"1295 US Highway 1","name":""},
  {"lat":40.567264,"lon":-74.683083,"city":"Branchburg","state":"NJ","address":"947 US Highway 202 North","name":""},
  {"lat":39.83388,"lon":-75.089231,"city":"Deptford","state":"NJ","address":"1160 Hurffville Rd.","name":""},
  {"lat":40.828346,"lon":-74.08394,"city":"East Rutherford","state":"NJ","address":"850 Paterson Plank Road","name":""},
  {"lat":40.541879,"lon":-74.394243,"city":"Edison","state":"NJ","address":"875 New Durham Road","name":""},
  {"lat":39.446228,"lon":-74.530364,"city":"Galloway","state":"NJ","address":"240 East White Horse Pike","name":""},
  {"lat":41.096989,"lon":-74.16412,"city":"Mahwah","state":"NJ","address":"225 Ramapo Valley Road","name":""},
  {"lat":39.427763,"lon":-75.048083,"city":"Millville","state":"NJ","address":"301 Bluebird Lane","name":""},
  {"lat":40.708841,"lon":-74.171074,"city":"Newark","state":"NJ","address":"618 US Highway 1 & 9 South","name":""},
  {"lat":40.799822,"lon":-74.022153,"city":"North Bergen","state":"NJ","address":"1707 69th Street","name":""},
  {"lat":40.960314,"lon":-74.067192,"city":"Paramus","state":"NJ","address":"601 From Road","name":""},
  {"lat":40.875074,"lon":-74.438272,"city":"Parsippany","state":"NJ","address":"3535 US Highway 46 East at Cherry Hill Road","name":""},
  {"lat":40.910996,"lon":-74.50135,"city":"Rockaway","state":"NJ","address":"14 Green Pond Road","name":""},
  {"lat":40.531254,"lon":-74.529904,"city":"Somerset","state":"NJ","address":"315 Davidson Avenue","name":""},
  {"lat":40.695528,"lon":-74.253611,"city":"Union","state":"NJ","address":"1730 US Highway 22 E","name":""},
  {"lat":32.875989,"lon":-105.95904,"city":"Alamogordo","state":"NM","address":"300 Panorama Boulevard","name":""},
  {"lat":35.1002,"lon":-106.562,"city":"Albuquerque","state":"NM","address":"2160 Louisiana Blvd NE","name":""},
  {"lat":35.059559,"lon":-106.620966,"city":"Albuquerque","state":"NM","address":"2300 Centre Avenue SE","name":""},
  {"lat":35.139789,"lon":-106.601989,"city":"Albuquerque","state":"NM","address":"4875 Pan American West Freeway NE","name":""},
  {"lat":32.395416,"lon":-104.22118,"city":"Carlsbad","state":"NM","address":"2525 South Canal Street","name":""},
  {"lat":34.44192,"lon":-103.196399,"city":"Clovis","state":"NM","address":"4305 North Prince St","name":""},
  {"lat":36.743231,"lon":-108.16835,"city":"Farmington","state":"NM","address":"2850 East Main Street","name":""},
  {"lat":35.530066,"lon":-108.677232,"city":"Gallup","state":"NM","address":"3510 East Historic Highway 66","name":""},
  {"lat":32.740331,"lon":-103.1449,"city":"Hobbs","state":"NM","address":"1350 West Joe Harvey Boulevard","name":""},
  {"lat":32.342696,"lon":-106.764355,"city":"Las Cruces","state":"NM","address":"2101 Summit Court","name":""},
  {"lat":34.81344,"lon":-106.764461,"city":"Los Lunas","state":"NM","address":"2255 Sun Ranch Village Loop SW","name":""},
  {"lat":33.405772,"lon":-104.522747,"city":"Roswell","state":"NM","address":"1201 North Main","name":""},
  {"lat":35.646147,"lon":-106.007175,"city":"Santa Fe","state":"NM","address":"3625 Cerrillos Road","name":""},
  {"lat":35.160036,"lon":-103.703756,"city":"Tucumcari","state":"NM","address":"1901 South Mountain Road","name":""},
  {"lat":36.264111,"lon":-115.251958,"city":"Las Vegas","state":"NV","address":"5701 Sky Pointe Drive","name":""},
  {"lat":36.119516,"lon":-115.155022,"city":"Las Vegas","state":"NV","address":"3850 Paradise Road","name":""},
  {"lat":36.084091,"lon":-115.182148,"city":"Las Vegas","state":"NV","address":"5775 Dean Martin Drive","name":""},
  {"lat":36.056714,"lon":-115.156325,"city":"Las Vegas","state":"NV","address":"355 East Warm Springs Road","name":""},
  {"lat":39.528333,"lon":-119.701401,"city":"Sparks","state":"NV","address":"2085 Brierley Way","name":""},
  {"lat":40.980689,"lon":-117.706219,"city":"Winnemucca","state":"NV","address":"5830 East Winnemucca Boulevard","name":""},
  {"lat":42.649289,"lon":-73.752365,"city":"Albany","state":"NY","address":"74 State Street","name":""},
  {"lat":42.722363,"lon":-73.803437,"city":"Albany","state":"NY","address":"168 Wolf Road","name":""},
  {"lat":42.996306,"lon":-78.8025,"city":"Amherst","state":"NY","address":"3880 Rensch Road","name":""},
  {"lat":40.767982,"lon":-73.905807,"city":"Astoria","state":"NY","address":"45-20 Astoria Blvd","name":""},
  {"lat":43.021679,"lon":-78.195225,"city":"Batavia","state":"NY","address":"4333 Federal Drive","name":""},
  {"lat":42.132985,"lon":-75.905504,"city":"Binghamton","state":"NY","address":"864 Upper Front Street","name":""},
  {"lat":40.680537,"lon":-73.983393,"city":"Brooklyn","state":"NY","address":"181 3rd Avenue","name":""},
  {"lat":44.599922,"lon":-75.145056,"city":"Canton","state":"NY","address":"5955 US Route 11","name":""},
  {"lat":42.931456,"lon":-78.727844,"city":"Cheektowaga","state":"NY","address":"4271 Genesee Street","name":""},
  {"lat":42.153158,"lon":-77.078869,"city":"Corning","state":"NY","address":"3 South Buffalo Street","name":""},
  {"lat":42.586751,"lon":-76.211867,"city":"Cortland","state":"NY","address":"3707 Route 281","name":""},
  {"lat":42.623534,"lon":-73.70083,"city":"East Greenbush","state":"NY","address":"124 Troy Road","name":""},
  {"lat":43.08965,"lon":-76.081511,"city":"East Syracuse","state":"NY","address":"6593 Weighlock Drive","name":""},
  {"lat":40.771536,"lon":-73.84433,"city":"Flushing","state":"NY","address":"28-66 College Point Boulevard","name":""},
  {"lat":40.739928,"lon":-73.791219,"city":"Fresh Meadows","state":"NY","address":"183-31 Horace Harding Expressway","name":""},
  {"lat":42.856303,"lon":-76.999078,"city":"Geneva","state":"NY","address":"383 Hamilton Street","name":""},
  {"lat":41.395425,"lon":-74.338444,"city":"Goshen","state":"NY","address":"20 Hatfield Lane","name":""},
  {"lat":43.059404,"lon":-77.651608,"city":"Henrietta","state":"NY","address":"4695 W. Henrietta Rd.","name":""},
  {"lat":42.159204,"lon":-76.856094,"city":"Horseheads","state":"NY","address":"1600 County Route 64","name":""},
  {"lat":42.422447,"lon":-76.515961,"city":"Ithaca","state":"NY","address":"359 Elmira Road","name":""},
  {"lat":40.70095,"lon":-73.805067,"city":"Jamaica","state":"NY","address":"148-18 Archer Avenue","name":""},
  {"lat":40.666594,"lon":-73.779935,"city":"Jamaica","state":"NY","address":"156-08 Rockaway Blvd.","name":""},
  {"lat":40.75153,"lon":-73.93566,"city":"Long Island City","state":"NY","address":"29-27 40th Road","name":""},
  {"lat":42.967149,"lon":-73.795973,"city":"Malta","state":"NY","address":"101 Saratoga Village Boulevard","name":""},
  {"lat":40.821203,"lon":-72.997718,"city":"Medford","state":"NY","address":"2695 Route 112","name":""},
  {"lat":40.752262,"lon":-73.995117,"city":"New York City","state":"NY","address":"325 West 33rd Street","name":""},
  {"lat":40.746177,"lon":-73.990907,"city":"New York City","state":"NY","address":"116 West 28th Street","name":""},
  {"lat":40.70592,"lon":-74.005,"city":"New York City","state":"NY","address":"161 Front Street","name":""},
  {"lat":40.750585,"lon":-73.983851,"city":"New York City","state":"NY","address":"21 West 37th Street","name":""},
  {"lat":40.754011,"lon":-73.993972,"city":"New York City","state":"NY","address":"338 West 36th Street","name":""},
  {"lat":40.770447,"lon":-73.989686,"city":"New York City","state":"NY","address":"538 West 58th Street","name":""},
  {"lat":40.756309,"lon":-73.991624,"city":"New York City","state":"NY","address":"330 West 40th Street","name":""},
  {"lat":40.713227,"lon":-73.992893,"city":"New York City","state":"NY","address":"95 Henry Street","name":""},
  {"lat":43.083405,"lon":-79.053244,"city":"Niagara Falls","state":"NY","address":"643 Rainbow Boulevard","name":""},
  {"lat":42.081338,"lon":-78.478325,"city":"Olean","state":"NY","address":"3270 West State St","name":""},
  {"lat":44.695692,"lon":-73.504331,"city":"Plattsburgh","state":"NY","address":"579 Route 3","name":""},
  {"lat":43.296319,"lon":-73.676764,"city":"Queensbury","state":"NY","address":"21 Big Boom Road","name":""},
  {"lat":43.128222,"lon":-77.662967,"city":"Rochester","state":"NY","address":"1200 Brooks Avenue","name":""},
  {"lat":43.205191,"lon":-77.674296,"city":"Rochester","state":"NY","address":"400 Paddy Creek Circle","name":""},
  {"lat":43.20913,"lon":-75.41293,"city":"Rome","state":"NY","address":"90 Dart Circle","name":""},
  {"lat":40.586389,"lon":-74.190617,"city":"Staten Island","state":"NY","address":"290 Wild Avenue","name":""},
  {"lat":43.1077,"lon":-75.2223,"city":"Utica","state":"NY","address":"71 North Genesee Street","name":""},
  {"lat":43.117116,"lon":-75.596903,"city":"Verona","state":"NY","address":"5280 Willow Place","name":""},
  {"lat":43.982293,"lon":-75.940703,"city":"Watertown","state":"NY","address":"250 Commerce Park Drive","name":""},
  {"lat":43.211497,"lon":-77.462811,"city":"Webster","state":"NY","address":"915 Hard Road","name":""},
  {"lat":41.14117,"lon":-81.644857,"city":"Akron","state":"OH","address":"208 Springside Drive","name":""},
  {"lat":39.337012,"lon":-82.070135,"city":"Athens","state":"OH","address":"924 East State Street","name":""},
  {"lat":41.784457,"lon":-80.85366,"city":"Austinburg","state":"OH","address":"2782 Sidley Court","name":""},
  {"lat":41.464518,"lon":-82.057312,"city":"Avon","state":"OH","address":"39050 Colorado Avenue","name":""},
  {"lat":39.76481,"lon":-84.05517,"city":"Beavercreek","state":"OH","address":"2677 Fairfield Commons Blvd","name":""},
  {"lat":41.373247,"lon":-83.625617,"city":"Bowling Green","state":"OH","address":"1544 East Wooster Street","name":""},
  {"lat":41.420544,"lon":-81.758728,"city":"Brooklyn","state":"OH","address":"5110 Tiedeman Road","name":""},
  {"lat":39.849505,"lon":-84.194579,"city":"Butler Township","state":"OH","address":"7072 York Center Drive","name":""},
  {"lat":39.996826,"lon":-81.578434,"city":"Cambridge","state":"OH","address":"8700 Dozer Road","name":""},
  {"lat":39.853679,"lon":-82.832264,"city":"Canal Winchester","state":"OH","address":"6349 Winchester Boulevard","name":""},
  {"lat":40.857068,"lon":-81.417269,"city":"Canton","state":"OH","address":"5285 Broadmoor Circle NW","name":""},
  {"lat":40.752623,"lon":-81.402123,"city":"Canton","state":"OH","address":"4025 Greentree Avenue","name":""},
  {"lat":39.350959,"lon":-82.980238,"city":"Chillicothe","state":"OH","address":"300 North Plaza Boulevard","name":""},
  {"lat":39.128008,"lon":-84.516525,"city":"Cincinnati","state":"OH","address":"2500 South Market Street","name":""},
  {"lat":39.1589,"lon":-84.4308,"city":"Cincinnati","state":"OH","address":"4609 Factory Colony Lane","name":""},
  {"lat":39.099255,"lon":-84.27428,"city":"Cincinnati","state":"OH","address":"4521 Eastgate Boulevard","name":""},
  {"lat":40.138802,"lon":-82.966395,"city":"Columbus","state":"OH","address":"9000 Worthington Road","name":""},
  {"lat":40.110739,"lon":-83.087782,"city":"Columbus","state":"OH","address":"7150 Sawmill Road","name":""},
  {"lat":40.022491,"lon":-83.025737,"city":"Columbus","state":"OH","address":"3031 Olentangy River Road","name":""},
  {"lat":40.079756,"lon":-82.857356,"city":"Columbus","state":"OH","address":"4976 East Dublin Granville Road","name":""},
  {"lat":39.979513,"lon":-83.146322,"city":"Columbus","state":"OH","address":"5520 Maxwell Place","name":""},
  {"lat":39.999244,"lon":-82.890383,"city":"Columbus","state":"OH","address":"4300 International Gateway","name":""},
  {"lat":39.629488,"lon":-84.196746,"city":"Dayton","state":"OH","address":"8035 Washington Village Drive","name":""},
  {"lat":39.764764,"lon":-84.187536,"city":"Dayton","state":"OH","address":"305 East Monument Avenue","name":""},
  {"lat":41.054122,"lon":-83.605832,"city":"Findlay","state":"OH","address":"2000 Tiffin Avenue","name":""},
  {"lat":39.875931,"lon":-83.049714,"city":"Grove City","state":"OH","address":"1722 Buckeye Place","name":""},
  {"lat":39.615408,"lon":-83.612321,"city":"Jeffersonville","state":"OH","address":"11349 Allen Road NW","name":""},
  {"lat":40.76154,"lon":-84.146823,"city":"Lima","state":"OH","address":"2179 Elida Road","name":""},
  {"lat":40.781711,"lon":-82.59021,"city":"Mansfield","state":"OH","address":"1065 N Lexington Springmill Road","name":""},
  {"lat":39.404667,"lon":-81.41184,"city":"Marietta","state":"OH","address":"200 Cherry Tree Lane","name":""},
  {"lat":40.242594,"lon":-83.345706,"city":"Marysville","state":"OH","address":"16703 Square Drive","name":""},
  {"lat":41.580341,"lon":-83.681845,"city":"Maumee","state":"OH","address":"521 West Dussel Dr","name":""},
  {"lat":41.138875,"lon":-81.799303,"city":"Medina","state":"OH","address":"3125 Eastpointe Drive","name":""},
  {"lat":39.493404,"lon":-84.335925,"city":"Middletown","state":"OH","address":"6750 Roosevelt Parkway","name":""},
  {"lat":39.834538,"lon":-84.812511,"city":"New Paris","state":"OH","address":"9797 US 40 West","name":""},
  {"lat":39.51807,"lon":-84.738908,"city":"Oxford","state":"OH","address":"5186 Morning Sun Rd","name":""},
  {"lat":41.021266,"lon":-80.629263,"city":"Poland","state":"OH","address":"7397 Tiffany South","name":""},
  {"lat":41.515169,"lon":-82.914083,"city":"Port Clinton","state":"OH","address":"1811 East Perry Street","name":""},
  {"lat":39.935643,"lon":-82.786099,"city":"Reynoldsburg","state":"OH","address":"2826 Taylor Road EXT","name":""},
  {"lat":41.404899,"lon":-82.65805,"city":"Sandusky","state":"OH","address":"5410 Milan Rd","name":""},
  {"lat":39.941737,"lon":-83.840353,"city":"Springfield","state":"OH","address":"1870 West First Street","name":""},
  {"lat":40.069511,"lon":-80.862851,"city":"St. Clairsville","state":"OH","address":"67731 Mall Road","name":""},
  {"lat":41.182002,"lon":-81.481468,"city":"Stow","state":"OH","address":"4170 Steels Pointe","name":""},
  {"lat":41.251126,"lon":-81.365011,"city":"Streetsboro","state":"OH","address":"9783 State Route 14","name":""},
  {"lat":41.720165,"lon":-83.513536,"city":"Toledo","state":"OH","address":"5685 Benore Road","name":""},
  {"lat":40.052718,"lon":-84.237529,"city":"Troy","state":"OH","address":"83 Troy Town Drive","name":""},
  {"lat":41.217265,"lon":-80.740383,"city":"Warren","state":"OH","address":"1860 Niles-Cortland Road SE","name":""},
  {"lat":39.323247,"lon":-84.431728,"city":"West Chester","state":"OH","address":"9241 Floer Drive","name":""},
  {"lat":41.120112,"lon":-80.768134,"city":"Youngstown","state":"OH","address":"801 North Canfield Niles Road","name":""},
  {"lat":36.72801,"lon":-95.935068,"city":"Bartlesville","state":"OK","address":"2107 SE Washington Boulevard","name":""},
  {"lat":36.167308,"lon":-95.757192,"city":"Catoosa","state":"OK","address":"200 Elliott Lane","name":""},
  {"lat":35.019022,"lon":-97.935572,"city":"Chickasha","state":"OK","address":"2812 South 4th Street","name":""},
  {"lat":34.530111,"lon":-97.964131,"city":"Duncan","state":"OK","address":"1450 Apollo Drive","name":""},
  {"lat":35.652013,"lon":-97.428605,"city":"Edmond","state":"OK","address":"301 Meline Drive","name":""},
  {"lat":35.510939,"lon":-97.97019,"city":"El Reno","state":"OK","address":"1501 Domino Drive","name":""},
  {"lat":34.606919,"lon":-98.379477,"city":"Lawton","state":"OK","address":"201 SE 7th Str","name":""},
  {"lat":35.769632,"lon":-95.402566,"city":"Muskogee","state":"OK","address":"1650 North 32nd Street","name":""},
  {"lat":35.215899,"lon":-97.489585,"city":"Norman","state":"OK","address":"301 Norman Center Court","name":""},
  {"lat":35.460847,"lon":-97.513233,"city":"Oklahoma City","state":"OK","address":"10 SW 4th Street","name":""},
  {"lat":35.447919,"lon":-97.601531,"city":"Oklahoma City","state":"OK","address":"4521 SW 15th Street, Meridian and SW 15th St","name":""},
  {"lat":35.547011,"lon":-97.612881,"city":"Oklahoma City","state":"OK","address":"5700 NW Expressway","name":""},
  {"lat":36.744092,"lon":-97.067247,"city":"Ponca City","state":"OK","address":"3405 North 14th Street","name":""},
  {"lat":35.387506,"lon":-96.9109,"city":"Shawnee","state":"OK","address":"14012 Transportation Parkway","name":""},
  {"lat":36.126896,"lon":-97.05291,"city":"Stillwater","state":"OK","address":"418 E Hall of Fame Avenue","name":""},
  {"lat":36.15794,"lon":-95.992935,"city":"Tulsa","state":"OK","address":"111 North Main Street","name":""},
  {"lat":36.116319,"lon":-95.890025,"city":"Tulsa","state":"OK","address":"3214 South 79th East Avenue","name":""},
  {"lat":36.030966,"lon":-95.864875,"city":"Tulsa","state":"OK","address":"9150 S 102nd E Avenue","name":""},
  {"lat":35.531146,"lon":-98.694731,"city":"Weatherford","state":"OK","address":"201 North Nevada","name":""},
  {"lat":35.484139,"lon":-97.761469,"city":"Yukon","state":"OK","address":"1520 Garth Brooks Blvd","name":""},
  {"lat":45.527715,"lon":-122.837988,"city":"Beaverton","state":"OR","address":"15583 NW Gateway Court","name":""},
  {"lat":44.065771,"lon":-121.308231,"city":"Bend","state":"OR","address":"1626 NW Wall Street","name":""},
  {"lat":44.043841,"lon":-123.048002,"city":"Eugene","state":"OR","address":"3003 Franklin Boulevard","name":""},
  {"lat":42.221893,"lon":-121.781568,"city":"Klamath Falls","state":"OR","address":"460 Timbermill Drive","name":""},
  {"lat":45.417797,"lon":-122.740057,"city":"Lake Oswego","state":"OR","address":"6100 South West Meadows Road","name":""},
  {"lat":42.308335,"lon":-122.851501,"city":"Medford","state":"OR","address":"1503 Center Drive","name":""},
  {"lat":45.306772,"lon":-122.940955,"city":"Newberg","state":"OR","address":"900 North Brutscher Street","name":""},
  {"lat":45.567371,"lon":-122.538457,"city":"Portland","state":"OR","address":"11929 NE Airport Way","name":""},
  {"lat":45.60399,"lon":-122.678782,"city":"Portland","state":"OR","address":"1200 North Anchor Way","name":""},
  {"lat":45.611505,"lon":-121.209847,"city":"The Dalles","state":"OR","address":"2014 West 7th Street","name":""},
  {"lat":40.486958,"lon":-78.396947,"city":"Altoona","state":"PA","address":"2915 Pleasant Valley Boulevard","name":""},
  {"lat":40.055563,"lon":-78.510012,"city":"Bedford","state":"PA","address":"4436 Business Route 220","name":""},
  {"lat":40.139508,"lon":-79.835322,"city":"Belle Vernon","state":"PA","address":"189 Finley Road","name":""},
  {"lat":40.061986,"lon":-75.467719,"city":"Berwyn","state":"PA","address":"1005 Westlakes Drive","name":""},
  {"lat":40.655529,"lon":-75.291717,"city":"Bethlehem","state":"PA","address":"2401 Emrick Boulevard","name":""},
  {"lat":41.029836,"lon":-76.429297,"city":"Bloomsburg","state":"PA","address":"1065 Alliance Park Drive","name":""},
  {"lat":40.569261,"lon":-75.616025,"city":"Breinigsville","state":"PA","address":"208 Pennsylvania Route 100","name":""},
  {"lat":39.973947,"lon":-75.342131,"city":"Broomall","state":"PA","address":"100 Lawrence Road","name":""},
  {"lat":40.87833,"lon":-79.897326,"city":"Butler","state":"PA","address":"200 Fairfield Lane","name":""},
  {"lat":40.185063,"lon":-77.230248,"city":"Carlisle","state":"PA","address":"1528 Commerce Avenue","name":""},
  {"lat":41.126455,"lon":-78.713624,"city":"DuBois","state":"PA","address":"2219 Bee Line Highway","name":""},
  {"lat":42.070438,"lon":-80.103895,"city":"Erie","state":"PA","address":"2082 Interchange Road","name":""},
  {"lat":40.057789,"lon":-75.6591,"city":"Exton","state":"PA","address":"5 North Pottstown Pike","name":""},
  {"lat":40.276553,"lon":-76.821398,"city":"Harrisburg","state":"PA","address":"1018 Briarsdale Road","name":""},
  {"lat":40.981475,"lon":-76.029229,"city":"Hazleton","state":"PA","address":"1 Woodbine St","name":""},
  {"lat":40.277608,"lon":-76.66156,"city":"Hershey","state":"PA","address":"651 West Areba Avenue","name":""},
  {"lat":40.489292,"lon":-78.041897,"city":"Huntingdon","state":"PA","address":"9970 Shaner Boulevard","name":""},
  {"lat":40.450583,"lon":-76.513339,"city":"Jonestown","state":"PA","address":"4 Fisher Avenue","name":""},
  {"lat":39.856091,"lon":-75.694101,"city":"Kennett Square","state":"PA","address":"719 East Baltimore Pike","name":""},
  {"lat":40.090779,"lon":-75.393657,"city":"King of Prussia","state":"PA","address":"258 Mall Boulevard","name":""},
  {"lat":40.081749,"lon":-76.343012,"city":"Lancaster","state":"PA","address":"720 Enterprise Way","name":""},
  {"lat":40.026242,"lon":-76.215917,"city":"Lancaster","state":"PA","address":"2270 Lincoln Highway East","name":""},
  {"lat":40.307584,"lon":-76.414132,"city":"Lebanon","state":"PA","address":"100 Springwood Drive","name":""},
  {"lat":40.962826,"lon":-76.897675,"city":"Lewisburg","state":"PA","address":"70 Hardwood Drive","name":""},
  {"lat":41.135952,"lon":-77.454864,"city":"Lock Haven","state":"PA","address":"50 Spring Street","name":""},
  {"lat":40.266586,"lon":-77.041481,"city":"Mechanicsburg","state":"PA","address":"503 Winding Creek Boulevard","name":""},
  {"lat":40.196506,"lon":-76.758831,"city":"Middletown","state":"PA","address":"4 Terminal Drive","name":""},
  {"lat":40.672149,"lon":-80.307446,"city":"Monaca","state":"PA","address":"1438 Brodhead Road","name":""},
  {"lat":41.362356,"lon":-75.681478,"city":"Moosic","state":"PA","address":"16 Radcliffe Drive","name":""},
  {"lat":40.215529,"lon":-76.878512,"city":"New Cumberland","state":"PA","address":"185 Beacon Hill Boulevard","name":""},
  {"lat":40.219282,"lon":-79.612792,"city":"New Stanton","state":"PA","address":"107 Bair Blvd.","name":""},
  {"lat":39.946908,"lon":-75.162492,"city":"Philadelphia","state":"PA","address":"261 South 13th Street","name":""},
  {"lat":39.8867,"lon":-75.247742,"city":"Philadelphia","state":"PA","address":"8800 Bartram Avenue","name":""},
  {"lat":40.436475,"lon":-79.999717,"city":"Pittsburgh","state":"PA","address":"435 Fort Pitt Boulevard","name":""},
  {"lat":40.512587,"lon":-80.133439,"city":"Pittsburgh","state":"PA","address":"5850 Grand Avenue","name":""},
  {"lat":40.456205,"lon":-80.170507,"city":"Pittsburgh","state":"PA","address":"1004 Sutherland Drive","name":""},
  {"lat":40.570008,"lon":-80.019053,"city":"Pittsburgh","state":"PA","address":"901 Providence Boulevard","name":""},
  {"lat":40.25567,"lon":-75.65944,"city":"Pottstown","state":"PA","address":"99 Robinson Street","name":""},
  {"lat":40.353259,"lon":-75.985378,"city":"Reading","state":"PA","address":"21 Meridian Boulevard","name":""},
  {"lat":41.455505,"lon":-75.648658,"city":"Scranton","state":"PA","address":"949 Viewmont Drive","name":""},
  {"lat":40.821839,"lon":-76.850617,"city":"Selinsgrove","state":"PA","address":"6 Susquehanna Valley Mall Drive","name":""},
  {"lat":41.070078,"lon":-80.049691,"city":"Slippery Rock","state":"PA","address":"1000 University Parkway","name":""},
  {"lat":40.018431,"lon":-79.085269,"city":"Somerset","state":"PA","address":"117 Tollgate Road","name":""},
  {"lat":40.810525,"lon":-77.911704,"city":"State College","state":"PA","address":"2215 North Atherton Street","name":""},
  {"lat":41.000083,"lon":-75.265913,"city":"Stroudsburg","state":"PA","address":"294 Frantz Road","name":""},
  {"lat":41.770966,"lon":-76.4137,"city":"Towanda","state":"PA","address":"1248 Golden Mile Road","name":""},
  {"lat":40.221607,"lon":-80.208388,"city":"Washington","state":"PA","address":"451 Racetrack Road","name":""},
  {"lat":41.25052,"lon":-75.839809,"city":"Wilkes-Barre","state":"PA","address":"884 Kidder Street","name":""},
  {"lat":41.234255,"lon":-77.019508,"city":"Williamsport","state":"PA","address":"104 Maynard Street","name":""},
  {"lat":40.160564,"lon":-75.132842,"city":"Willow Grove","state":"PA","address":"2440 Maryland Road","name":""},
  {"lat":41.450106,"lon":-71.473331,"city":"South Kingstown","state":"RI","address":"3 Fairfield Way","name":""},