{"key":"flying_j","displayName":"Flying J","category":"gas_station","useLocationName":false,"locations":[
  {"lat":44.9629,"lon":-92.5604,"city":"Roberts","state":"WI","address":"1191 70th Ave","name":""},
  {"lat":41.4234,"lon":-112.052,"city":"Willard","state":"UT","address":"600 W 750 N","name":""},
  {"lat":43.603,"lon":-96.7676,"city":"Sioux Falls","state":"SD","address":"5201 N Granite Ln","name":""},
  {"lat":36.163,"lon":-95.8318,"city":"Tulsa","state":"OK","address":"121 N 129th E Ave","name":""},
  {"lat":48.2244,"lon":-101.351,"city":"Minot","state":"ND","address":"3800 Highway 2 And 52 W","name":""},
  {"lat":44.4707,"lon":-93.2948,"city":"Northfield","state":"MN","address":"8051 Bagley Ave","name":""},
  {"lat":46.9516,"lon":-122.94,"city":"Olympia","state":"WA","address":"2725 93rd Ave SW","name":""},
  {"lat":36.936,"lon":-80.9929,"city":"Wytheville","state":"VA","address":"3249 Chapman Rd","name":""},
  {"lat":41.231031,"lon":-112.008415,"city":"Ogden","state":"UT","address":"1172 West 21St Street","name":""},
  {"lat":34.8559,"lon":-81.0064,"city":"Rock Hill","state":"SC","address":"2435 Mt Holly Rd","name":""},
  {"lat":32.6564,"lon":-96.7512,"city":"Dallas","state":"TX","address":"7425 Bonnie View Rd","name":""},
  {"lat":36.4866,"lon":-80.7465,"city":"Mount Airy","state":"NC","address":"125 Plaza Ln","name":""},
  {"lat":35.5747,"lon":-78.1459,"city":"Kenly","state":"NC","address":"1800 Princeton Kenly Rd","name":""},
  {"lat":47.8885,"lon":-97.0925,"city":"Grand Forks","state":"ND","address":"4401 32nd Ave S","name":""},
  {"lat":36.0716,"lon":-79.3529,"city":"Haw River","state":"NC","address":"1043 Jimmie Kerr Rd","name":""},
  {"lat":35.1428,"lon":-81.5092,"city":"Blacksburg","state":"SC","address":"1011 N Mountain St","name":""},
  {"lat":46.9293,"lon":-104.009,"city":"Beach","state":"ND","address":"I-94 ND-16","name":""},
  {"lat":39.646,"lon":-83.5387,"city":"Washington Court House","state":"OH","address":"9935 SR 41","name":""},
  {"lat":39.9037,"lon":-84.1926,"city":"Vandalia","state":"OH","address":"175 Northwoods Blvd","name":""},
  {"lat":46.8336,"lon":-96.8447,"city":"Fargo","state":"ND","address":"3150 39th St SW","name":""},
  {"lat":39.9424,"lon":-82.5992,"city":"Millersport","state":"OH","address":"10480 Baltimore Rd SW","name":""},
  {"lat":47.1168,"lon":-104.736,"city":"Glendive","state":"MT","address":"73 MT-16","name":""},
  {"lat":39.4115,"lon":-84.1504,"city":"Lebanon","state":"OH","address":"3140 OH-350","name":""},
  {"lat":41.1837,"lon":-80.572,"city":"Hubbard","state":"OH","address":"2226 N Main St","name":""},
  {"lat":40.2677,"lon":-82.9247,"city":"Sunbury","state":"OH","address":"7735 E OH-37","name":""},
  {"lat":41.5352,"lon":-83.4609,"city":"Perrysburg","state":"OH","address":"26415 Warns Dr","name":""},
  {"lat":41.6334,"lon":-84.7659,"city":"Edon","state":"OH","address":"14896 OH-49","name":""},
  {"lat":47.685,"lon":-104.177,"city":"Sidney","state":"MT","address":"3150 S Central Ave","name":""},
  {"lat":40.8323,"lon":-83.9673,"city":"Beaverdam","state":"OH","address":"420 E Main St","name":""},
  {"lat":41.0597,"lon":-84.9801,"city":"New Haven","state":"IN","address":"3105 S Doyle Rd","name":""},
  {"lat":35.2647,"lon":-99.6418,"city":"Sayre","state":"OK","address":"2400 S 4th St","name":""},
  {"lat":35.596,"lon":-97.4366,"city":"Edmond","state":"OK","address":"4801 NE 122nd St","name":""},
  {"lat":35.4757,"lon":-95.5384,"city":"Checotah","state":"OK","address":"1255 W Gentry Ave","name":""},
  {"lat":42.1378,"lon":-83.2385,"city":"Woodhaven","state":"MI","address":"21055 West Rd","name":""},
  {"lat":43.5395,"lon":-123.289,"city":"Oakland","state":"OR","address":"800 John Long Rd","name":""},
  {"lat":41.7893,"lon":-80.8562,"city":"Austinburg","state":"OH","address":"2349 Center Rd","name":""},
  {"lat":40.554,"lon":-85.5544,"city":"Marion","state":"IN","address":"6255 IN-18","name":""},
  {"lat":45.2921,"lon":-118.034,"city":"La Grande","state":"OR","address":"63276 OR-203","name":""},
  {"lat":35.4588,"lon":-97.6903,"city":"Oklahoma City","state":"OK","address":"701 S Morgan Rd","name":""},
  {"lat":45.234,"lon":-122.81,"city":"Aurora","state":"OR","address":"12334 Ehlen Road NE","name":""},
  {"lat":40.1706,"lon":-79.7317,"city":"Smithton","state":"PA","address":"122 Fitz Henry Rd","name":""},
  {"lat":43.6617,"lon":-116.655,"city":"Caldwell","state":"ID","address":"3512 Franklin Rd","name":""},
  {"lat":42.7875,"lon":-84.6783,"city":"Grand Ledge","state":"MI","address":"7800 W Grand River Ave","name":""},
  {"lat":41.8243,"lon":-75.6824,"city":"New Milford","state":"PA","address":"1623 Oliver Rd","name":""},
  {"lat":40.4634,"lon":-76.3397,"city":"Myerstown","state":"PA","address":"2210 Camp Swatara Rd","name":""},
  {"lat":39.8519,"lon":-85.413,"city":"Spiceland","state":"IN","address":"5300 IN-3","name":""},
  {"lat":40.2347,"lon":-77.1235,"city":"Carlisle","state":"PA","address":"1501 Harrisburg Pike","name":""},
  {"lat":41.1729,"lon":-79.0963,"city":"Brookville","state":"PA","address":"246 Allegheny Blvd","name":""},
  {"lat":40.3525,"lon":-76.727,"city":"Harrisburg","state":"PA","address":"7833 Linglestown Rd","name":""},
  {"lat":41.0284,"lon":-77.5224,"city":"Mill Hall","state":"PA","address":"5609 Nittany Valley Dr","name":""},
  {"lat":34.0651,"lon":-81.0236,"city":"Columbia","state":"SC","address":"5901 Fairfield Rd","name":""},
  {"lat":33.0806,"lon":-80.2109,"city":"Summerville","state":"SC","address":"799 Jedburg Rd","name":""},
  {"lat":33.194,"lon":-80.6023,"city":"St. George","state":"SC","address":"113 Motel Dr","name":""},
  {"lat":34.3475,"lon":-83.3223,"city":"Carnesville","state":"GA","address":"10226 Old Federal Rd","name":""},
  {"lat":44.1035,"lon":-103.15,"city":"Rapid City","state":"SD","address":"4200 N I-90 Service Rd","name":""},
  {"lat":34.9285,"lon":-89.7938,"city":"Olive Branch","state":"MS","address":"4740 Bethel Rd","name":""},
  {"lat":36.0264,"lon":-87.1717,"city":"Fairview","state":"TN","address":"1420 TN-96 N","name":""},
  {"lat":33.2071,"lon":-84.0638,"city":"Jackson","state":"GA","address":"1125 Bucksnort Rd","name":""},
  {"lat":33.5473,"lon":-83.0774,"city":"Greensboro","state":"GA","address":"3600 GA-77","name":""},
  {"lat":35.1549,"lon":-90.1421,"city":"West Memphis","state":"AR","address":"3400 Service Loop Rd","name":""},
  {"lat":34.5765,"lon":-84.9473,"city":"Resaca","state":"GA","address":"288 Resaca Beach Blvd NW","name":""},
  {"lat":33.8904,"lon":-98.4828,"city":"Wichita Falls","state":"TX","address":"2311 Old Jacksboro Hwy","name":""},
  {"lat":35.1937,"lon":-101.723,"city":"Amarillo","state":"TX","address":"9601 E I-40","name":""},
  {"lat":29.4466,"lon":-98.363,"city":"San Antonio","state":"TX","address":"1815 N Foster Rd","name":""},
  {"lat":33.7195,"lon":-85.0254,"city":"Temple","state":"GA","address":"650 Carrollton St","name":""},
  {"lat":29.7144,"lon":-95.1963,"city":"Pasadena","state":"TX","address":"1305 Pasadena Fwy","name":""},
  {"lat":30.1926,"lon":-95.1928,"city":"New Caney","state":"TX","address":"23412 TX-242","name":""},
  {"lat":31.4007,"lon":-103.486,"city":"Pecos","state":"TX","address":"100 E Pinehurst St","name":""},
  {"lat":30.1163,"lon":-93.8202,"city":"Orange","state":"TX","address":"7112 I-10 W","name":""},
  {"lat":29.9992,"lon":-95.4276,"city":"Houston","state":"TX","address":"15919 North Fwy","name":""},
  {"lat":31.8648,"lon":-102.302,"city":"Odessa","state":"TX","address":"5900 E I-20","name":""},
  {"lat":33.5132,"lon":-93.9479,"city":"Texarkana","state":"AR","address":"8300 State Hwy 108","name":""},
  {"lat":31.8532,"lon":-103.068,"city":"Kermit","state":"TX","address":"700 TX-302","name":""},
  {"lat":33.5933,"lon":-101.841,"city":"Lubbock","state":"TX","address":"602 4th St","name":""},
  {"lat":31.9805,"lon":-102.034,"city":"Midland","state":"TX","address":"3302 Garden City Hwy","name":""},
  {"lat":28.3373,"lon":-98.0242,"city":"George West","state":"TX","address":"4066 US-59","name":""},
  {"lat":27.6856,"lon":-99.4648,"city":"Laredo","state":"TX","address":"1011 Beltway Pkwy","name":""},
  {"lat":30.9056,"lon":-102.885,"city":"Fort Stockton","state":"TX","address":"2571 N Front St","name":""},
  {"lat":31.662,"lon":-106.238,"city":"El Paso","state":"TX","address":"1301 Horizon Blvd","name":""},
  {"lat":26.3364,"lon":-98.1436,"city":"Edinburg","state":"TX","address":"1305 E Monte Cristo Rd","name":""},
  {"lat":28.4527,"lon":-99.2382,"city":"Cotulla","state":"TX","address":"921 N I-35","name":""},
  {"lat":29.7713,"lon":-95.1252,"city":"Channelview","state":"TX","address":"102 Sheldon Rd","name":""},
  {"lat":29.7801,"lon":-95.9523,"city":"Brookshire","state":"TX","address":"204 Waller Ave","name":""},
  {"lat":29.7955,"lon":-95.0327,"city":"Baytown","state":"TX","address":"1876 East Fwy","name":""},
  {"lat":33.3434,"lon":-96.5875,"city":"Anna","state":"TX","address":"1700 N US Hwy 75","name":""},
  {"lat":32.4442,"lon":-93.9797,"city":"Greenwood","state":"LA","address":"9510 Greenwood Rd","name":""},
  {"lat":32.4608,"lon":-99.8727,"city":"Abilene","state":"TX","address":"I-20 Exit 277 101 N Fm 707","name":""},
  {"lat":40.686083,"lon":-112.266564,"city":"Tooele","state":"UT","address":"1605 East Saddleback Blvd.","name":""},
  {"lat":40.181932,"lon":-111.612754,"city":"Springville","state":"UT","address":"1460 N 1750 W","name":""},
  {"lat":41.9636,"lon":-112.709,"city":"Snowville","state":"UT","address":"90 S Stone Rd","name":""},
  {"lat":40.726655,"lon":-111.915639,"city":"Salt Lake City","state":"UT","address":"2025 S 900 W","name":""},
  {"lat":38.7888,"lon":-112.082,"city":"Richfield","state":"UT","address":"35 E Flying J Dr","name":""},
  {"lat":40.8362,"lon":-111.934,"city":"North Salt Lake","state":"UT","address":"885 North Pointe Cir","name":""},
  {"lat":39.6852,"lon":-111.836,"city":"Nephi","state":"UT","address":"1597 S Main St","name":""},
  {"lat":36.9453,"lon":-80.9457,"city":"Max Meadows","state":"VA","address":"139 Factory Outlet Dr","name":""},
  {"lat":39.2906,"lon":-78.0866,"city":"Clear Brook","state":"VA","address":"1530 Rest Church Rd","name":""},
  {"lat":37.9329,"lon":-77.473,"city":"Ruther Glen","state":"VA","address":"24279 Rogers Clark Blvd","name":""},
  {"lat":37.9396,"lon":-77.4691,"city":"Ruther Glen","state":"VA","address":"23866 Rogers Clark Blvd","name":""},
  {"lat":38.365,"lon":-82.6966,"city":"Catlettsburg","state":"KY","address":"15236 KY-180","name":""},
  {"lat":44.2956,"lon":-90.8302,"city":"Black River Falls","state":"WI","address":"780 WI-54","name":""},
  {"lat":41.6084,"lon":-109.231,"city":"Rock Springs","state":"WY","address":"650 Stagecoach Blvd","name":""},
  {"lat":47.7117,"lon":-116.997,"city":"Post Falls","state":"ID","address":"3636 W 5th Ave","name":""},
  {"lat":41.7784,"lon":-107.309,"city":"Rawlins","state":"WY","address":"I-80 Johnson Rd","name":""},
  {"lat":44.2772,"lon":-105.495,"city":"Gillette","state":"WY","address":"1810 S Douglas Hwy","name":""},
  {"lat":42.0865,"lon":-110.948,"city":"Cokeville","state":"WY","address":"10501 US-30","name":""},
  {"lat":42.8518,"lon":-106.27,"city":"Casper","state":"WY","address":"41 SE Wyoming Blvd","name":""},
  {"lat":42.4935,"lon":-88.9992,"city":"South Beloit","state":"IL","address":"16049 Willowbrook Rd","name":""},
  {"lat":41.0987,"lon":-104.853,"city":"Cheyenne","state":"WY","address":"2250 Etchepare Dr","name":""},
  {"lat":41.2654,"lon":-110.979,"city":"Evanston","state":"WY","address":"1920 Harrison Dr","name":""},
  {"lat":41.3695,"lon":-89.0985,"city":"La Salle","state":"IL","address":"343 Civic Rd","name":""},
  {"lat":35.1591,"lon":-103.704,"city":"Tucumcari","state":"NM","address":"2021 S Mountain Rd","name":""},
  {"lat":35.4807,"lon":-108.433,"city":"Jamestown","state":"NM","address":"1 Giant Crossing","name":""},
  {"lat":35.2184,"lon":-114.007,"city":"Kingman","state":"AZ","address":"3300 E Andy Devine Ave","name":""},
  {"lat":39.6841,"lon":-75.4852,"city":"Carneys Point","state":"NJ","address":"326 Slapes Corner Rd","name":""},
  {"lat":43.0014,"lon":-78.4066,"city":"Corfu","state":"NY","address":"8484 Alleghany Rd","name":""},
  {"lat":32.3412,"lon":-108.677,"city":"Lordsburg","state":"NM","address":"11 Old Hwy 70","name":""},
  {"lat":39.6254,"lon":-75.9502,"city":"North East","state":"MD","address":"1 Center Dr","name":""},
  {"lat":39.6379,"lon":-75.8058,"city":"Elkton","state":"MD","address":"221 Belle Hill Rd","name":""},
  {"lat":34.9137,"lon":-114.155,"city":"Yucca","state":"AZ","address":"10835 S Double R Dr","name":""},
  {"lat":35.079,"lon":-106.746,"city":"Albuquerque","state":"NM","address":"9911 Avalon Rd NW","name":""},
  {"lat":41.5864,"lon":-87.2382,"city":"Lake Station","state":"IN","address":"1401 Ripley St","name":""},
  {"lat":40.3958,"lon":-91.57,"city":"Wayland","state":"MO","address":"102 Fore Dr","name":""},
  {"lat":43.4514,"lon":-83.8943,"city":"Saginaw","state":"MI","address":"3475 E Washington Rd","name":""},
  {"lat":42.4703,"lon":-93.5718,"city":"Williams","state":"IA","address":"3040 220th St","name":""},
  {"lat":40.9603,"lon":-117.748,"city":"Winnemucca","state":"NV","address":"1880 W Winnemucca Blvd","name":""},
  {"lat":46.0086,"lon":-112.61,"city":"Butte","state":"MT","address":"122000 Browns Gulch Rd","name":""},
  {"lat":42.6604,"lon":-112.207,"city":"McCammon","state":"ID","address":"587 E US-30","name":""},
  {"lat":42.6495,"lon":-114.443,"city":"Jerome","state":"ID","address":"5350 US-93","name":""},
  {"lat":43.4394,"lon":-112.116,"city":"Idaho Falls","state":"ID","address":"6485 W Overland Dr","name":""},
  {"lat":38.8578,"lon":-84.6259,"city":"Walton","state":"KY","address":"13019 Walton Verona Rd","name":""},
  {"lat":38.8786,"lon":-97.5928,"city":"Salina","state":"KS","address":"2250 N Ohio St","name":""},
  {"lat":39.5524,"lon":-86.0444,"city":"Whiteland","state":"IN","address":"82 White St","name":""},
  {"lat":39.6933,"lon":-86.1911,"city":"Indianapolis","state":"IN","address":"1720 W Thompson Rd","name":""},
  {"lat":38.7599,"lon":-90.0654,"city":"Granite City","state":"IL","address":"1310 East Chain Of Rocks Road","name":""},
  {"lat":39.1334,"lon":-88.5663,"city":"Effingham","state":"IL","address":"1701 W Evergreen Ave","name":""},
  {"lat":38.5759,"lon":-90.0983,"city":"East St. Louis","state":"IL","address":"140 Racehorse Dr","name":""},
  {"lat":40.0343,"lon":-86.4741,"city":"Lebanon","state":"IN","address":"520 S State Rd 39","name":""},
  {"lat":38.1749,"lon":-87.5526,"city":"Haubstadt","state":"IN","address":"844 E 1250 S","name":""},
  {"lat":41.2884,"lon":-87.2945,"city":"Hebron","state":"IN","address":"3231 E 181st Ave","name":""},
  {"lat":42.4599,"lon":-92.2529,"city":"Evansdale","state":"IA","address":"445 Evansdale Dr","name":""},
  {"lat":41.6033,"lon":-90.6251,"city":"Davenport","state":"IA","address":"8200 Northwest Blvd","name":""},
  {"lat":41.659,"lon":-93.5011,"city":"Altoona","state":"IA","address":"3231 Adventureland Dr","name":""},
  {"lat":38.4115,"lon":-96.2377,"city":"Emporia","state":"KS","address":"4215 W US-50","name":""},
  {"lat":38.1567,"lon":-85.0672,"city":"Waddy","state":"KY","address":"1670 Waddy Rd","name":""},
  {"lat":36.6972,"lon":-87.4554,"city":"Oak Grove","state":"KY","address":"18750 Herndon Oak Grove Rd","name":""},
  {"lat":36.6625,"lon":-86.5536,"city":"Franklin","state":"KY","address":"4380 Nashville Rd","name":""},
  {"lat":32.2763,"lon":-90.1613,"city":"Pearl","state":"MS","address":"685 US-80","name":""},
  {"lat":30.4216,"lon":-89.1389,"city":"Gulfport","state":"MS","address":"9351 Canal Rd","name":""},
  {"lat":38.8403,"lon":-91.2281,"city":"Warrenton","state":"MO","address":"1 Campbranch Rd","name":""},
  {"lat":38.2253,"lon":-91.1582,"city":"Sullivan","state":"MO","address":"825 N Loop Dr","name":""},
  {"lat":37.2139,"lon":-93.382,"city":"Springfield","state":"MO","address":"4939 W Chestnut Expy","name":""},
  {"lat":38.7233,"lon":-94.4516,"city":"Peculiar","state":"MO","address":"700 State Hwy J","name":""},
  {"lat":36.76,"lon":-89.5408,"city":"Matthews","state":"MO","address":"703 MO-80","name":""},
  {"lat":39.1307,"lon":-94.4968,"city":"Kansas City","state":"MO","address":"1300 N Corrington Ave","name":""},
  {"lat":36.9221,"lon":-89.3144,"city":"Charleston","state":"MO","address":"2460 US-60","name":""},
  {"lat":46.9552,"lon":-114.132,"city":"Missoula","state":"MT","address":"8745 Hwy 93 N","name":""},
  {"lat":37.0554,"lon":-94.4299,"city":"Joplin","state":"MO","address":"11570 Hwy FF","name":""},
  {"lat":41.1014,"lon":-100.727,"city":"North Platte","state":"NE","address":"3400 S Newberry Rd","name":""},
  {"lat":41.0926,"lon":-96.2556,"city":"Gretna","state":"NE","address":"15010 NE-31","name":""},
  {"lat":41.0517,"lon":-102.07,"city":"Big Springs","state":"NE","address":"109 Circle Rd","name":""},
  {"lat":41.0977,"lon":-114.958,"city":"Wells","state":"NV","address":"156 US-93","name":""},
  {"lat":40.6496,"lon":-116.945,"city":"Battle Mountain","state":"NV","address":"650 W Front St","name":""},
  {"lat":45.8125,"lon":-108.416,"city":"Billings","state":"MT","address":"2775 Old Hardin Rd","name":""},
  {"lat":39.6146,"lon":-119.217,"city":"Fernley","state":"NV","address":"480 Truck Inn Way","name":""},
  {"lat":30.6412,"lon":-83.19,"city":"Lake Park","state":"GA","address":"7001 Bellville Rd","name":""},
  {"lat":39.2755,"lon":-103.709,"city":"Limon","state":"CO","address":"2495 Williams Ave","name":""},
  {"lat":33.3217,"lon":-87.0471,"city":"McCalla","state":"AL","address":"6098 McAshan Dr","name":""},
  {"lat":32.1946,"lon":-86.4203,"city":"Hope Hull","state":"AL","address":"900 Tyson Rd","name":""},
  {"lat":31.1913,"lon":-85.4001,"city":"Dothan","state":"AL","address":"2190 Ross Clark Cir","name":""},
  {"lat":34.8545,"lon":-117.082,"city":"Barstow","state":"CA","address":"2611 Fisher Blvd","name":""},
  {"lat":33.4609,"lon":-112.205,"city":"Phoenix","state":"AZ","address":"6700 W Latham St","name":""},
  {"lat":30.4934,"lon":-84.431,"city":"Midway","state":"FL","address":"32670 Blue Star Hwy","name":""},
  {"lat":35.0154,"lon":-110.674,"city":"Winslow","state":"AZ","address":"400 Transcon Ln","name":""},
  {"lat":33.6042,"lon":-114.52,"city":"Ehrenberg","state":"AZ","address":"I-10 Exit 1 Frontage Road N.","name":""},
  {"lat":32.7324,"lon":-111.55,"city":"Eloy","state":"AZ","address":"16189 S Sunshine Blvd","name":""},
  {"lat":36.1816,"lon":-119.332,"city":"Tulare","state":"CA","address":"979 E Paige Ave","name":""},
  {"lat":33.818,"lon":-116.403,"city":"Thousand Palms","state":"CA","address":"72235 Varner Rd","name":""},
  {"lat":35.2837,"lon":-93.0901,"city":"Russellville","state":"AR","address":"42 Bradley Cove Rd","name":""},
  {"lat":37.7558,"lon":-121.144,"city":"Ripon","state":"CA","address":"1501 N Jack Tone Rd","name":""},
  {"lat":37.4656,"lon":-121.165,"city":"Patterson","state":"CA","address":"2275 Sperry Ave","name":""},
  {"lat":34.0151,"lon":-117.525,"city":"Mira Loma","state":"CA","address":"11053 Riverside Dr","name":""},
  {"lat":34.8164,"lon":-118.888,"city":"Lebec","state":"CA","address":"42810 Frazier Mountain Park Rd","name":""},
  {"lat":37.8562,"lon":-121.276,"city":"Lathrop","state":"CA","address":"345 Roth Rd","name":""},
  {"lat":38.1179,"lon":-121.394,"city":"Lodi","state":"CA","address":"15100 Thorton Rd","name":""},
  {"lat":34.0646,"lon":-117.493,"city":"Fontana","state":"CA","address":"14320 Slover Ave","name":""},
  {"lat":39.7627,"lon":-104.794,"city":"Aurora","state":"CO","address":"16751 E 32nd Ave","name":""},
  {"lat":28.0098,"lon":-82.3032,"city":"Seffner","state":"FL","address":"11555 E Sligh Ave","name":""},
  {"lat":28.326,"lon":-82.3225,"city":"San Antonio","state":"FL","address":"29933 State Rd 52","name":""},
  {"lat":29.7496,"lon":-81.3446,"city":"St. Augustine","state":"FL","address":"950 FL-206 W","name":""},
  {"lat":28.3748,"lon":-80.802,"city":"Cocoa","state":"FL","address":"1101 Friday Rd","name":""},
  {"lat":27.449,"lon":-80.3978,"city":"Fort Pierce","state":"FL","address":"100 N Kings Hwy","name":""},
  {"lat":31.1404,"lon":-81.5785,"city":"Brunswick","state":"GA","address":"2990 US-17","name":""}]}