{"key":"godfathers_pizza","displayName":"Godfather's Pizza","category":"restaurant","useLocationName":false,"locations":[
  {"lat":41.480787,"lon":-81.725451,"city":"Cleveland","state":"OH","address":"5700 Bridge Ave","name":""},
  {"lat":20.916331,"lon":-156.322924,"city":"Haiku-Pauwela","state":"HI","address":"1 POKOA PL","name":""},
  {"lat":41.480807,"lon":-81.725459,"city":"Cleveland","state":"OH","address":"5700 Bridge Ave","name":""},
  {"lat":43.138969,"lon":-95.144874,"city":"SPENCER","state":"IA","address":"113 Grand Avenue","name":""},
  {"lat":42.785497,"lon":-96.176511,"city":"LE MARS","state":"IA","address":"625 Hawkeye Avenue Southwest","name":""},
  {"lat":43.423249,"lon":-95.126089,"city":"SPIRIT LAKE","state":"IA","address":"2310 17th Street","name":""},
  {"lat":42.486234,"lon":-96.360464,"city":"SIOUX CITY","state":"IA","address":"3701 Gordon Drive","name":""},
  {"lat":43.338807,"lon":-95.149344,"city":"MILFORD","state":"IA","address":"2402 Okoboji Avenue","name":""},
  {"lat":43.666793,"lon":-92.981378,"city":"AUSTIN","state":"MN","address":"600 Oakland Ave W.","name":""},
  {"lat":44.065058,"lon":-93.226876,"city":"OWATONNA","state":"MN","address":"116 Oakdale Street","name":""},
  {"lat":44.295062,"lon":-93.274147,"city":"FARIBAULT","state":"MN","address":"328 4th Street Northwest","name":""},
  {"lat":43.856808,"lon":-95.116592,"city":"Windom","state":"MN","address":"112 3rd Avenue","name":""},
  {"lat":33.446187,"lon":-86.827037,"city":"HOMEWOOD","state":"AL","address":"231 STATE FARM PAKWAY, UNIT 101","name":""},
  {"lat":30.587007,"lon":-88.170338,"city":"Mobile","state":"AL","address":"5442 US 90","name":""},
  {"lat":30.719904,"lon":-88.158478,"city":"Mobile","state":"AL","address":"5015 MOFFETT ROAD","name":""},
  {"lat":30.825767,"lon":-88.074942,"city":"Saraland","state":"AL","address":"120 SARALAND LOOP ROAD","name":""},
  {"lat":39.913307,"lon":-104.956272,"city":"THORNTON","state":"CO","address":"2350 E. 120TH AVENUE","name":""},
  {"lat":41.485046,"lon":-90.412802,"city":"SILVIS","state":"IL","address":"1211 AVENUE OF THE CITIES, SUITE 4","name":""},
  {"lat":41.262311,"lon":-95.893076,"city":"COUNCIL BLUFFS","state":"IA","address":"3020 W. BROADWAY","name":""},
  {"lat":41.249532,"lon":-95.81374,"city":"COUNCIL BLUFFS","state":"IA","address":"928 VALLEY VIEW VILLAGE, STE #9","name":""},
  {"lat":43.147775,"lon":-93.16854,"city":"MASON CITY","state":"IA","address":"1703 4TH ST SE","name":""},
  {"lat":41.687522,"lon":-93.78134,"city":"GRIMES","state":"IA","address":"200 SE GATEWAY DR #111","name":""},
  {"lat":42.504096,"lon":-92.401029,"city":"WATERLOO","state":"IA","address":"3811 UNIVERSITY AVE","name":""},
  {"lat":42.505737,"lon":-94.148181,"city":"Fort Dodge","state":"IA","address":"3232 1ST AVENUE SOUTH","name":""},
  {"lat":42.763979,"lon":-95.551403,"city":"CHEROKEE","state":"IA","address":"103 EAST INDIAN STREET","name":""},
  {"lat":42.016207,"lon":-91.634734,"city":"CEDAR RAPIDS","state":"IA","address":"3647 1/2 1ST AVENUE SOUTHEAST","name":""},
  {"lat":39.037861,"lon":-95.744377,"city":"TOPEKA","state":"KS","address":"5300 SW 17TH ST","name":""},
  {"lat":37.605828,"lon":-97.332854,"city":"Wichita","state":"KS","address":"4840 S. BROADWAY","name":""},
  {"lat":30.018598,"lon":-90.233263,"city":"KENNER","state":"LA","address":"2321 WEST ESPLANADE AVENUE, SUITE J","name":""},
  {"lat":44.564141,"lon":-92.559236,"city":"RED WING","state":"MN","address":"2000 OLD WEST MAIN ST","name":""},
  {"lat":44.038931,"lon":-92.486617,"city":"ROCHESTER","state":"MN","address":"1611 16TH ST NW","name":""},
  {"lat":46.819084,"lon":-95.845323,"city":"DETROIT LAKES","state":"MN","address":"712 1/2 WASHINGTON AVE","name":""},
  {"lat":45.391204,"lon":-93.873391,"city":"BECKER","state":"MN","address":"13854 1ST STREET SE, SUITE 8","name":""},
  {"lat":37.083627,"lon":-93.300008,"city":"NIXA","state":"MO","address":"1890 DEFFER DR","name":""},
  {"lat":36.762754,"lon":-90.411016,"city":"POPLAR BLUFF","state":"MO","address":"791 N. WESTWOOD BLVD","name":""},
  {"lat":37.179537,"lon":-93.225412,"city":"SPRINGFIELD","state":"MO","address":"1832 S. INGRAM MILL ROAD","name":""},
  {"lat":39.264246,"lon":-94.656596,"city":"KANSAS CITY","state":"MO","address":"9004 NW SKYVIEW AVENUE","name":""},
  {"lat":47.523502,"lon":-111.30768,"city":"GREAT FALLS","state":"MT","address":"1800 3RD STREET NW","name":""},
  {"lat":41.206401,"lon":-96.195796,"city":"OMAHA","state":"NE","address":"17935 WELCH PLAZA","name":""},
  {"lat":41.286707,"lon":-96.080826,"city":"OMAHA","state":"NE","address":"3141 NORTH 108TH ST","name":""},
  {"lat":41.239403,"lon":-96.014165,"city":"OMAHA","state":"NE","address":"2117 S. 67TH ST","name":""},
  {"lat":41.140719,"lon":-95.970883,"city":"BELLEVUE","state":"NE","address":"3811 TWIN CREEK DR","name":""},
  {"lat":40.626258,"lon":-96.628388,"city":"HICKMAN","state":"NE","address":"18940 S. 68TH ST","name":""},
  {"lat":41.232388,"lon":-96.176021,"city":"OMAHA","state":"NE","address":"2917 S. 168TH ST","name":""},
  {"lat":40.813187,"lon":-96.672474,"city":"LINCOLN","state":"NE","address":"3301 O STREET","name":""},
  {"lat":41.124004,"lon":-100.764958,"city":"NORTH PLATTE","state":"NE","address":"1100 SOUTH JEFFERS STREET","name":""},
  {"lat":41.204891,"lon":-96.135266,"city":"OMAHA","state":"NE","address":"14139 Q STREET","name":""},
  {"lat":41.292824,"lon":-96.152508,"city":"OMAHA","state":"NE","address":"15234 WEST MAPLE ROAD","name":""},
  {"lat":41.263604,"lon":-95.980293,"city":"OMAHA","state":"NE","address":"417 NORTH SADDLE CREEK ROAD","name":""},
  {"lat":41.32717,"lon":-95.957449,"city":"OMAHA","state":"NE","address":"7403 NORTH 30TH STREET","name":""},
  {"lat":35.831729,"lon":-80.274555,"city":"LEXINGTON","state":"NC","address":"215 WEST US HWY 64, UNIT #14","name":""},
  {"lat":34.925781,"lon":-79.756943,"city":"ROCKINGHAM","state":"NC","address":"1010 E. BROAD AVE","name":""},
  {"lat":48.244564,"lon":-103.622883,"city":"WILLISTON","state":"ND","address":"13586 57TH STREET NW","name":""},
  {"lat":39.658592,"lon":-84.109014,"city":"Centerville","state":"OH","address":"5800 WILMINGTON PIKE","name":""},
  {"lat":39.820038,"lon":-84.125174,"city":"Huber Heights","state":"OH","address":"4628 BRANDT PIKE","name":""},
  {"lat":39.643315,"lon":-84.225936,"city":"Miamisburg","state":"OH","address":"291 NORTH SPRINGBORO PIKE","name":""},
  {"lat":45.519358,"lon":-123.09542,"city":"FOREST GROVE","state":"OR","address":"2834-A PACIFIC AVE","name":""},
  {"lat":45.514536,"lon":-122.791254,"city":"PORTLAND","state":"OR","address":"11140 S.W. BARNES RD","name":""},
  {"lat":45.516076,"lon":-122.903707,"city":"HILLSBORO","state":"OR","address":"7440 E MAIN ST","name":""},
  {"lat":45.432545,"lon":-122.823723,"city":"TIGARD","state":"OR","address":"14200 SW BARROWS RD","name":""},
  {"lat":43.514494,"lon":-96.788823,"city":"SIOUX FALLS","state":"SD","address":"5107 WEST 41ST ST","name":""},
  {"lat":43.689867,"lon":-98.008634,"city":"MITCHELL","state":"SD","address":"2160 HIGHLAND WAY","name":""},
  {"lat":45.473313,"lon":-98.49145,"city":"ABERDEEN","state":"SD","address":"711 N. 2ND STREET","name":""},
  {"lat":45.459688,"lon":-98.454774,"city":"ABERDEEN","state":"SD","address":"2303 SE 6TH AVENUE","name":""},
  {"lat":29.777018,"lon":-95.77951,"city":"KATY","state":"TX","address":"402 WEST GRAND PARKWAY SOUTH #103","name":""},
  {"lat":29.934761,"lon":-95.260291,"city":"HUMBLE","state":"TX","address":"8650 N. SAM HOUSTON PKWY E. #110","name":""},
  {"lat":47.436741,"lon":-120.321756,"city":"WENATCHEE","state":"WA","address":"1014 N. WENATCHEE AVE","name":""},
  {"lat":47.114499,"lon":-122.434251,"city":"Tacoma","state":"WA","address":"15709 PACIFIC AVE., PAD 8","name":""},
  {"lat":36.982022,"lon":-86.465611,"city":"BOWLING GREEN","state":"KY","address":"306 MORGANTOWN ROAD","name":""},
  {"lat":38.600871,"lon":-90.393457,"city":"KIRKWOOD","state":"MO","address":"10170 MANCHESTER ROAD","name":""},
  {"lat":39.777426,"lon":-94.792373,"city":"ST. JOSEPH","state":"MO","address":"4217 FREDERICK AVENUE","name":""},
  {"lat":44.585673,"lon":-97.21042,"city":"LAKE NORDEN","state":"SD","address":"721 BURLINGTON STREET","name":""},
  {"lat":41.555588,"lon":-109.310527,"city":"ROCK SPRINGS","state":"WY","address":"8 PURPLE SAGE ROAD (Fast Stop 1134)","name":""},
  {"lat":34.839412,"lon":-87.639737,"city":"FLORENCE","state":"AL","address":"2801 MALL Rd #15","name":""},
  {"lat":32.195455,"lon":-86.415845,"city":"HOPE HULL","state":"AL","address":"1127 TYSON ROAD","name":""},
  {"lat":33.933844,"lon":-86.19035,"city":"STEELE","state":"AL","address":"905 STEELE STATION ROAD","name":""},
  {"lat":31.420695,"lon":-87.007948,"city":"EVERGREEN","state":"AL","address":"16101 HIGHWAY 84","name":""},
  {"lat":32.850266,"lon":-87.90186,"city":"EUTAW","state":"AL","address":"7561 MESOPOTAMIA STREET","name":""},
  {"lat":32.53716,"lon":-85.082114,"city":"SMITHS STATION","state":"AL","address":"747 LEE ROAD 248","name":""},
  {"lat":31.962477,"lon":-110.344926,"city":"BENSON","state":"AZ","address":"643 STATE ROAD 90","name":""},
  {"lat":32.80639,"lon":-111.672066,"city":"ELOY","state":"AZ","address":"5000 N. SUNLAND GIN ROAD","name":""},
  {"lat":32.686769,"lon":-114.583001,"city":"YUMA","state":"AZ","address":"2931 E. GILA RIDGE ROAD","name":""},
  {"lat":34.334441,"lon":-112.117721,"city":"MAYER","state":"AZ","address":"14414 SOUTH CROSS L ROAD","name":""},
  {"lat":33.431121,"lon":-112.591811,"city":"BUCKEYE","state":"AZ","address":"1610 SOUTH MILLER ROAD","name":""},
  {"lat":35.883278,"lon":-89.918418,"city":"BLYTHEVILLE","state":"AR","address":"3910 S. DIVISION ST","name":""},
  {"lat":34.786234,"lon":-92.125606,"city":"NORTH LITTLE ROCK","state":"AR","address":"11801 E. I-40","name":""},
  {"lat":34.815652,"lon":-91.567807,"city":"HAZEN","state":"AR","address":"3404 HIGHWAY 63 NORTH","name":""},
  {"lat":35.17127,"lon":-92.744429,"city":"MORRILTON","state":"AR","address":"1600 NORTH HIGHWAY 95","name":""},
  {"lat":35.153997,"lon":-90.13819,"city":"MEMPHIS","state":"AR","address":"800 MARTIN LUTHER KING JR DRIVE","name":""},
  {"lat":32.708798,"lon":-117.011059,"city":"SPRING VALLEY","state":"CA","address":"685 SWEETWATER RD","name":""},
  {"lat":34.856943,"lon":-117.091489,"city":"BARSTOW","state":"CA","address":"2974 LENWOOD RD","name":""},
  {"lat":39.167365,"lon":-122.144339,"city":"WILLIAMS","state":"CA","address":"100 MARGURITE STREET","name":""},
  {"lat":33.038827,"lon":-115.629111,"city":"WESTMORLAND","state":"CA","address":"551 WEST MAIN STREET","name":""},
  {"lat":36.995438,"lon":-120.096317,"city":"MADERA","state":"CA","address":"3174 AVENUE 17","name":""},
  {"lat":39.906983,"lon":-122.196247,"city":"CORNING","state":"CA","address":"2120 SOUTH AVENUE","name":""},
  {"lat":36.321195,"lon":-121.243296,"city":"GREENFIELD","state":"CA","address":"202 EL CAMINO REAL","name":""},
  {"lat":38.850732,"lon":-106.139071,"city":"BUENA VISTA","state":"CO","address":"115 HARRISON AVE","name":""},
  {"lat":38.543987,"lon":-106.934417,"city":"GUNNISON","state":"CO","address":"108 S. 12TH STREET","name":""},
  {"lat":37.987786,"lon":-103.538542,"city":"LA JUNTA","state":"CO","address":"308 EAST 1ST STREET","name":""},
  {"lat":38.095945,"lon":-102.620315,"city":"LAMAR","state":"CO","address":"605 N. MAIN ST","name":""},
  {"lat":37.578331,"lon":-106.137164,"city":"MONTE VISTA","state":"CO","address":"1537 GRAND AVE","name":""},
  {"lat":38.088466,"lon":-102.616133,"city":"LAMAR","state":"CO","address":"301 E. OLIVE ST","name":""},
  {"lat":38.342234,"lon":-104.622989,"city":"PUEBLO","state":"CO","address":"6470 NORTH ELIZABETH STREET","name":""},
  {"lat":37.617512,"lon":-104.754814,"city":"WALSENBURG","state":"CO","address":"99800 INTERSTATE 25","name":""},
  {"lat":38.493509,"lon":-102.785777,"city":"EADS","state":"CO","address":"15596 HWY 287","name":""},
  {"lat":40.396744,"lon":-104.7355,"city":"GREELEY","state":"CO","address":"2449 35TH AVENUE","name":""},
  {"lat":40.412922,"lon":-104.680781,"city":"GREELEY","state":"CO","address":"1607 2ND AVENUE","name":""},
  {"lat":38.723455,"lon":-104.729213,"city":"FOUNTAIN","state":"CO","address":"5505 TRAVEL PLAZA DRIVE","name":""},
  {"lat":41.925902,"lon":-72.259233,"city":"WILLINGTON","state":"CT","address":"3 POLSTER ROAD","name":""},
  {"lat":27.873072,"lon":-81.592948,"city":"LAKE WALES","state":"FL","address":"17309 HIGHWAY 27","name":""},
  {"lat":30.290861,"lon":-81.986525,"city":"JACKSONVILLE","state":"FL","address":"17110 BRANDY BRANCH ROAD","name":""},
  {"lat":31.138121,"lon":-81.571277,"city":"BRUNSWICK","state":"GA","address":"2766 US HIGHWAY 17 SOUTH","name":""},
  {"lat":32.717344,"lon":-83.732319,"city":"MACON","state":"GA","address":"1190 FRANK AMERSON PARKWAY","name":""},
  {"lat":34.22738,"lon":-83.499422,"city":"COMMERCE","state":"GA","address":"4855 MAYSVILLE ROAD","name":""},
  {"lat":32.876511,"lon":-85.147847,"city":"WEST POINT","state":"GA","address":"1917 HIGHWAY 18","name":""},
  {"lat":33.560967,"lon":-83.494182,"city":"MADISON","state":"GA","address":"1500 MONTICELLO ROAD","name":""},
  {"lat":38.089606,"lon":-88.535792,"city":"MCLEANSBORO","state":"IL","address":"106 E. RANDOLPH ST","name":""},
  {"lat":38.262048,"lon":-87.996369,"city":"GRAYVILLE","state":"IL","address":"522 N. COURT ST","name":""},
  {"lat":38.006737,"lon":-89.658124,"city":"STEELEVILLE","state":"IL","address":"102 EAST BROADWAY","name":""},
  {"lat":38.318036,"lon":-88.8914,"city":"MOUNT VERNON","state":"IL","address":"201 EAST MAIN","name":""},
  {"lat":38.084244,"lon":-88.176987,"city":"CARMI","state":"IL","address":"1107 WEST OAK ST","name":""},
  {"lat":40.681087,"lon":-89.588794,"city":"EAST PEORIA","state":"IL","address":"1015 W. CAMP ST","name":""},
  {"lat":39.786045,"lon":-89.607707,"city":"SPRINGFIELD","state":"IL","address":"1549 SOUTH DIRKSEN PARKWAY","name":""},
  {"lat":39.763157,"lon":-89.68513,"city":"SPRINGFIELD","state":"IL","address":"1754 WABASH AVE","name":""},
  {"lat":38.379834,"lon":-88.360169,"city":"FAIRFIELD","state":"IL","address":"101 WEST MAIN ST","name":""},
  {"lat":39.874128,"lon":-88.956166,"city":"DECATUR","state":"IL","address":"2860 N. MAIN","name":""},
  {"lat":37.740237,"lon":-88.918331,"city":"MARION","state":"IL","address":"701 E. DEYOUNG ST","name":""},
  {"lat":37.699767,"lon":-89.219398,"city":"CARBONDALE","state":"IL","address":"1900 SOUTH ILLINOIS AVE","name":""},
  {"lat":37.74607,"lon":-89.09665,"city":"CARTERVILLE","state":"IL","address":"1100 PIN OAK DR","name":""},
  {"lat":40.2437,"lon":-88.632128,"city":"FARMER CITY","state":"IL","address":"925 EAST CLINTON AVE","name":""},
  {"lat":37.97915,"lon":-89.05314,"city":"CHRISTOPHER","state":"IL","address":"104 EGYPTIAN AVE","name":""},
  {"lat":38.299362,"lon":-88.903148,"city":"MT. VERNON","state":"IL","address":"1801 SOUTH 10TH STREET","name":""},
  {"lat":40.558795,"lon":-89.616761,"city":"PEKIN","state":"IL","address":"2107 COURT ST, UNIT 20","name":""},
  {"lat":39.781412,"lon":-88.869611,"city":"MT. ZION","state":"IL","address":"150 SPITLER PARK DR","name":""},
  {"lat":39.005645,"lon":-87.732901,"city":"ROBINSON","state":"IL","address":"607 EAST MAIN STREET","name":""},
  {"lat":39.496403,"lon":-88.176581,"city":"CHARLESTON","state":"IL","address":"501 MADISON STREET","name":""},
  {"lat":38.519137,"lon":-90.210505,"city":"DUPO","state":"IL","address":"110 SOUTH MAIN STREET","name":""},
  {"lat":37.730289,"lon":-88.966171,"city":"MARION","state":"IL","address":"2700 WEST MAIN STREET","name":""},
  {"lat":38.570703,"lon":-89.984266,"city":"BELLEVILLE","state":"IL","address":"4590 NORTH ILLINOIS STREETE","name":""},
  {"lat":38.311632,"lon":-88.957466,"city":"MT. VERNON","state":"IL","address":"101 SOUTH 45TH STREET","name":""},
  {"lat":41.410833,"lon":-90.018042,"city":"ATKINSON","state":"IL","address":"5 SOUTH STATE STREET","name":""},
  {"lat":38.625204,"lon":-88.967951,"city":"SALEM","state":"IL","address":"1530 WEST MAIN STREET","name":""},
  {"lat":38.562178,"lon":-90.132428,"city":"EAST ST. LOUIS","state":"IL","address":"2005 MOUSETTE LN","name":""},
  {"lat":41.433975,"lon":-88.189741,"city":"CHANNAHON","state":"IL","address":"23801 WEST BLUFF ROAD","name":""},
  {"lat":40.89858,"lon":-90.659317,"city":"MONMOUTH","state":"IL","address":"1001 WEST 11TH AVENUE","name":""},
  {"lat":39.251748,"lon":-88.154368,"city":"GREENUP","state":"IL","address":"203 N. HAUGHTON HWY","name":""},
  {"lat":41.998701,"lon":-87.960489,"city":"ELK GROVE VILLAGE","state":"IL","address":"1900 BUSSE ROAD","name":""},
  {"lat":42.098826,"lon":-89.019625,"city":"MONROE CENTER","state":"IL","address":"16991 EAST ILLINOIS ROUTE 72","name":""},
  {"lat":38.943841,"lon":-90.176895,"city":"GODFREY","state":"IL","address":"5608 HUMBERT ROAD","name":""},
  {"lat":41.242631,"lon":-87.627806,"city":"GRANT PARK","state":"IL","address":"8316 NORTH ROUTE 1","name":""},
  {"lat":38.517778,"lon":-89.136528,"city":"CENTRALIA","state":"IL","address":"315 EAST CALUMET STREET","name":""},
  {"lat":37.7483,"lon":-89.020888,"city":"HERRIN","state":"IL","address":"3228 SOUTH PARK AVENUE","name":""},
  {"lat":38.592928,"lon":-89.966625,"city":"FAIRVIEW HEIGHTS","state":"IL","address":"1029 LINCOLN HIGHWAY","name":""},
  {"lat":39.026501,"lon":-86.945404,"city":"BLOOMFIELD","state":"IN","address":"509 W. MAIN ST","name":""},
  {"lat":38.487595,"lon":-87.284503,"city":"PETERSBURG","state":"IN","address":"17 WEST MAIN","name":""},
  {"lat":38.500032,"lon":-86.640955,"city":"FRENCH LICK","state":"IN","address":"208 SOUTH STATE RD","name":""},
  {"lat":40.477611,"lon":-85.972551,"city":"GREENTOWN","state":"IN","address":"515 WEST MAIN","name":""},
  {"lat":39.932375,"lon":-85.844842,"city":"FORTVILLE","state":"IN","address":"322 EAST BROADWAY","name":""},
  {"lat":39.296731,"lon":-85.771106,"city":"HOPE","state":"IN","address":"9823 NORTH STATE RD 9","name":""},
  {"lat":38.252585,"lon":-87.577996,"city":"FORT BRANCH","state":"IN","address":"US HWY 41 STATE RD 168 RT 1","name":""},
  {"lat":38.741918,"lon":-85.804687,"city":"AUSTIN","state":"IN","address":"11 WEST MAIN ST","name":""},
  {"lat":38.299182,"lon":-86.955148,"city":"HUNTINGBURG","state":"IN","address":"601 NORTH MAIN","name":""},
  {"lat":38.391264,"lon":-86.942042,"city":"JASPER","state":"IN","address":"555 HOFFMAN RD","name":""},
  {"lat":37.92951,"lon":-87.902565,"city":"MT. VERNON","state":"IN","address":"631 WEST 4TH ST","name":""},
  {"lat":39.877286,"lon":-86.473997,"city":"PITTSBORO","state":"IN","address":"780 JEFF GORDON BLVD","name":""},
  {"lat":38.043298,"lon":-87.367336,"city":"CHANDLER","state":"IN","address":"102 E. LINCOLN AVE","name":""},
  {"lat":39.296364,"lon":-85.21729,"city":"BATESVILLE","state":"IN","address":"568 EAST PEARL ST","name":""},
  {"lat":38.357626,"lon":-85.702583,"city":"JEFFERSONVILLE","state":"IN","address":"5425 E. HIGHWAY 62","name":""},
  {"lat":38.659845,"lon":-86.453317,"city":"ORLEANS","state":"IN","address":"363 SOUTH MAPLE STREET","name":""},
  {"lat":38.556534,"lon":-86.478042,"city":"PAOLI","state":"IN","address":"812 WEST MAIN STREET","name":""},
  {"lat":38.876399,"lon":-86.044448,"city":"BROWNSTOWN","state":"IN","address":"113 WEST COMMERCE ST","name":""},
  {"lat":37.99844,"lon":-87.538973,"city":"EVANSVILLE","state":"IN","address":"2225 N. FARES AVENUE","name":""},
  {"lat":41.563513,"lon":-87.357075,"city":"GARY","state":"IN","address":"3150 GRANT STREET","name":""},
  {"lat":38.950571,"lon":-85.907557,"city":"SEYMOUR","state":"IN","address":"1373 WEST TIPTON STREET","name":""},
  {"lat":40.998648,"lon":-85.78119,"city":"NORTH MANCHESTER","state":"IN","address":"104 WABASH ROAD","name":""},
  {"lat":38.681712,"lon":-87.512715,"city":"VINCENNES","state":"IN","address":"1515 WASHINGTON AVENUE","name":""},
  {"lat":38.651856,"lon":-87.133425,"city":"WASHINGTON","state":"IN","address":"1 GATEWAY DRIVE","name":""},
  {"lat":41.652826,"lon":-86.896167,"city":"MICHIGAN CITY","state":"IN","address":"10157 NORTH LOVE'S AVENUE","name":""},
  {"lat":37.976099,"lon":-87.390973,"city":"NEWBURGH","state":"IN","address":"7777 IN-66","name":""},
  {"lat":37.991082,"lon":-87.382604,"city":"NEWBURGH","state":"IN","address":"7288 OAK GROVE ROAD","name":""},
  {"lat":38.438651,"lon":-85.660388,"city":"CHARLESTOWN","state":"IN","address":"700 PIKE STREET","name":""},
  {"lat":38.670935,"lon":-87.517398,"city":"VINCENNES","state":"IN","address":"1521 HART STREET","name":""},
  {"lat":38.693702,"lon":-87.497732,"city":"VINCENNES","state":"IN","address":"2816 NORTH SIXTH STREET","name":""},
  {"lat":39.860664,"lon":-84.995094,"city":"CENTERVILLE","state":"IN","address":"2351 NORTH CENTERVILLE ROAD","name":""},
  {"lat":37.977468,"lon":-87.461967,"city":"EVANSVILLE","state":"IN","address":"101 NORTH CROSS POINTE BLVD","name":""},
  {"lat":41.585104,"lon":-93.789572,"city":"WEST DES MOINES","state":"IA","address":"5919 ASHWORTH RD","name":""},
  {"lat":40.826304,"lon":-91.140827,"city":"BURLINGTON","state":"IA","address":"2760 MT. PLEASANT ST","name":""},
  {"lat":41.027394,"lon":-95.234144,"city":"RED OAK","state":"IA","address":"2405 N. BROADWAY ST","name":""},
  {"lat":42.311398,"lon":-95.244545,"city":"ODEBOLT","state":"IA","address":"121 N. DES MOINES","name":""},
  {"lat":42.517375,"lon":-94.533552,"city":"MANSON","state":"IA","address":"1302 FIRST AVE","name":""},
  {"lat":40.688457,"lon":-95.792149,"city":"PERCIVAL","state":"IA","address":"2501 210TH AVE","name":""},
  {"lat":43.121091,"lon":-92.733992,"city":"FLOYD","state":"IA","address":"100 MONROE ST","name":""},
  {"lat":42.069177,"lon":-94.874669,"city":"CARROLL","state":"IA","address":"624 W. US HIGHWAY 30","name":""},
  {"lat":41.371677,"lon":-93.559057,"city":"INDIANOLA","state":"IA","address":"1201 N. JEFFERSON WAY","name":""},
  {"lat":42.182018,"lon":-91.774422,"city":"Center Point","state":"IA","address":"4200 LEWIS ACCESS ROAD","name":""},
  {"lat":41.393259,"lon":-91.087657,"city":"MUSCATINE","state":"IA","address":"2417 GRANDVIEW AVENUE","name":""},
  {"lat":42.512849,"lon":-90.720933,"city":"DUBUQUE","state":"IA","address":"3300 ASBURY ROAD","name":""},
  {"lat":42.434614,"lon":-96.380008,"city":"SIOUX CITY","state":"IA","address":"2525 SINGING HILLS BLVD","name":""},
  {"lat":42.043597,"lon":-91.689647,"city":"HIAWATHA","state":"IA","address":"1225 BOYSON ROAD","name":""},
  {"lat":43.186386,"lon":-96.13094,"city":"HULL","state":"IA","address":"1207 BLACK FOREST ROAD","name":""},
  {"lat":37.753774,"lon":-100.028803,"city":"DODGE CITY","state":"KS","address":"1108 W. WYATT EARP BLVD","name":""},
  {"lat":38.9477,"lon":-99.560979,"city":"ELLIS","state":"KS","address":"200 WASHINGTON STREET","name":""},
  {"lat":38.361099,"lon":-98.754127,"city":"GREAT BEND","state":"KS","address":"1221 10TH STREET","name":""},
  {"lat":37.646275,"lon":-98.722035,"city":"PRATT","state":"KS","address":"1412 EAST 1ST STREET","name":""},
  {"lat":39.755565,"lon":-99.318366,"city":"PHILLIPSBURG","state":"KS","address":"709 E. STATE STREET","name":""},
  {"lat":39.838917,"lon":-99.892778,"city":"NORTON","state":"KS","address":"303 W. HOLME ST","name":""},
  {"lat":39.397459,"lon":-101.047854,"city":"COLBY","state":"KS","address":"265 WEST 4TH STREET","name":""},
  {"lat":37.082738,"lon":-97.039633,"city":"ARKANSAS CITY","state":"KS","address":"1712 N. SUMMIT STREET","name":""},
  {"lat":39.082319,"lon":-95.72718,"city":"TOPEKA","state":"KS","address":"1811 NW BRICKYARD ROAD","name":""},
  {"lat":37.960813,"lon":-100.833082,"city":"GARDEN CITY","state":"KS","address":"3285 EAST US HIGHWAY 50","name":""},
  {"lat":38.001217,"lon":-100.996293,"city":"HOLCOMB","state":"KS","address":"1500 NORTH JONES AVENUE","name":""},
  {"lat":38.464321,"lon":-100.905097,"city":"SCOTT CITY","state":"KS","address":"1720 SOUTH MAIN STREET","name":""},
  {"lat":39.019566,"lon":-95.508986,"city":"TECUMSEH","state":"KS","address":"8000 SE I-70 (MILE MARKER 188)","name":""},
  {"lat":37.397851,"lon":-87.760402,"city":"PROVIDENCE","state":"KY","address":"200 EAST MAIN","name":""},
  {"lat":37.547152,"lon":-87.983045,"city":"STURGIS","state":"KY","address":"620 NORTH MAIN","name":""},
  {"lat":37.011303,"lon":-88.531517,"city":"PADUCAH","state":"KY","address":"5750 BENTON ROAD","name":""},
  {"lat":37.071657,"lon":-88.123652,"city":"KUTTAWA","state":"KY","address":"2299 US HWY 62 WEST","name":""},
  {"lat":37.759677,"lon":-87.073912,"city":"OWENSBORO","state":"KY","address":"2245 RAGU DR","name":""},
  {"lat":37.764173,"lon":-87.106923,"city":"OWENSBORO","state":"KY","address":"300 E. PARRISH AVE","name":""},
  {"lat":36.603282,"lon":-88.314272,"city":"MURRAY","state":"KY","address":"411 S. 12TH ST","name":""},
  {"lat":37.028307,"lon":-88.670225,"city":"PADUCAH","state":"KY","address":"3572 LONE OAK RD","name":""},
  {"lat":37.073665,"lon":-88.70037,"city":"PADUCAH","state":"KY","address":"3025 OLIVET CHURCH RD","name":""},
  {"lat":36.873453,"lon":-89.011053,"city":"BARDWELL","state":"KY","address":"101 N. ELM ST","name":""},
  {"lat":36.627543,"lon":-88.313233,"city":"MURRAY","state":"KY","address":"900 N. 12TH ST","name":""},
  {"lat":36.820525,"lon":-87.504122,"city":"HOPKINSVILLE","state":"KY","address":"4200 LAFAYETTE ROAD","name":""},
  {"lat":37.376427,"lon":-86.82699,"city":"BEAVER DAM","state":"KY","address":"675 WESTERN KENTUCKY PKWY","name":""},
  {"lat":38.222757,"lon":-85.356699,"city":"SIMPSONVILLE","state":"KY","address":"7117 SHELBYVILLE ROAD","name":""},
  {"lat":37.047744,"lon":-87.486638,"city":"CROFTON","state":"KY","address":"104 S. MADISONVILLE STREET","name":""},
  {"lat":36.846868,"lon":-87.463056,"city":"HOPKINSVILLE","state":"KY","address":"1830 EAST 9TH STREET","name":""},
  {"lat":37.317719,"lon":-87.500829,"city":"MADISONVILLE","state":"KY","address":"709 SOUTH MAIN STREET","name":""},
  {"lat":37.352503,"lon":-87.489248,"city":"MADISONVILLE","state":"KY","address":"921 NATIONAL MINE DRIVE","name":""},
  {"lat":38.027105,"lon":-84.40961,"city":"LEXINGTON","state":"KY","address":"2450 POLO CLUB BOULEVARD","name":""},
  {"lat":36.765659,"lon":-88.641988,"city":"MAYFIELD","state":"KY","address":"297 TREELAND DRIVE","name":""},
  {"lat":38.193718,"lon":-83.477977,"city":"MOREHEAD","state":"KY","address":"1710 FLEMINSGBURG ROAD","name":""},
  {"lat":36.953795,"lon":-86.509038,"city":"BOWLING GREEN","state":"KY","address":"4914 RUSSELLVILLE ROAD","name":""},
  {"lat":36.984855,"lon":-86.487412,"city":"BOWLING GREEN","state":"KY","address":"104 NEW BOND WAY","name":""},
  {"lat":37.00723,"lon":-86.375175,"city":"BOWLING GREEN","state":"KY","address":"601 HENNESSY WAY","name":""},
  {"lat":36.715968,"lon":-86.562382,"city":"FRANKLIN","state":"KY","address":"1080 HARDING ROAD","name":""},
  {"lat":32.492527,"lon":-91.992388,"city":"MONROE","state":"LA","address":"335 HIGHWAY 594","name":""},
  {"lat":32.063174,"lon":-93.566328,"city":"MANSFIELD","state":"LA","address":"1940 US-84","name":""},
  {"lat":30.478151,"lon":-92.074413,"city":"OPELOUSAS","state":"LA","address":"4158 I-49 NORTH SERVICE ROAD","name":""},
  {"lat":45.090601,"lon":-93.351612,"city":"BROOKLYN PARK","state":"MN","address":"7450 UNITY AVE, NORTH","name":""},
  {"lat":45.248846,"lon":-93.022795,"city":"COLUMBUS","state":"MN","address":"15402 HORNSBY STREET NE","name":""},
  {"lat":43.626881,"lon":-93.358962,"city":"Albert Lea","state":"MN","address":"1820 MARGARETHA AVENUE","name":""},
  {"lat":45.314135,"lon":-95.596852,"city":"BENSON","state":"MN","address":"1020 ATLANTIC AVENUE","name":""},
  {"lat":43.992859,"lon":-95.946324,"city":"LAKE WILSON","state":"MN","address":"587 STATE HIGHWAY 30","name":""},
  {"lat":46.670769,"lon":-92.226849,"city":"DULUTH","state":"MN","address":"1301 COMMONWEALTH AVENUE","name":""},
  {"lat":45.110003,"lon":-95.040199,"city":"WILLMAR","state":"MN","address":"1300 5TH STREET SE","name":""},
  {"lat":32.321783,"lon":-89.344782,"city":"LAKE","state":"MS","address":"6138 LAKE-NORRIS ROAD","name":""},
  {"lat":30.452132,"lon":-88.933312,"city":"BILOXI","state":"MS","address":"11332 CEDAR LAKE ROAD","name":""},
  {"lat":34.952038,"lon":-88.909987,"city":"WALNUT","state":"MS","address":"600 RICHARDSON DRIVE","name":""},
  {"lat":33.518072,"lon":-88.377466,"city":"COLUMBUS","state":"MS","address":"525 TUSCALOOSA ROAD","name":""},
  {"lat":37.003528,"lon":-93.202915,"city":"OZARK","state":"MO","address":"510 EAST SOUTH ST","name":""},
  {"lat":37.115978,"lon":-93.370868,"city":"BATTLEFIELD","state":"MO","address":"5453 FF HWY","name":""},
  {"lat":38.785003,"lon":-90.795215,"city":"LAKE ST. LOUIS","state":"MO","address":"501 CIVIC CENTER DRIVE","name":""},
  {"lat":38.75009,"lon":-90.615655,"city":"ST. PETERS","state":"MO","address":"2875 SAINT PETERS HOWELL ROAD","name":""},
  {"lat":37.298929,"lon":-89.554315,"city":"CAPE GIRARDEAU","state":"MO","address":"353 SOUTH KINGSHIGHWAY","name":""},
  {"lat":36.878815,"lon":-89.578809,"city":"SIKESTON","state":"MO","address":"823 EAST MALONE AVENUE","name":""},
  {"lat":39.011171,"lon":-94.068579,"city":"BATES CITY","state":"MO","address":"500 NORTH D HIGHWAY","name":""},
  {"lat":38.824543,"lon":-90.313658,"city":"FLORISSANT","state":"MO","address":"3500 PATTERSON ROAD","name":""},
  {"lat":39.760901,"lon":-94.498066,"city":"STEWARTSVILLE","state":"MO","address":"103 HILL STREET","name":""},
  {"lat":39.711655,"lon":-91.390952,"city":"HANNIBAL","state":"MO","address":"400 N Highway 61","name":""},
  {"lat":36.644215,"lon":-93.233894,"city":"BRANSON","state":"MO","address":"1026 WEST MAIN STREET","name":""},
  {"lat":47.474817,"lon":-111.360851,"city":"GREAT FALLS","state":"MT","address":"3219 AIRPORT DRIVE","name":""},
  {"lat":40.908096,"lon":-97.097679,"city":"SEWARD","state":"NE","address":"122 NORTH 5TH ST","name":""},
  {"lat":41.180643,"lon":-96.043729,"city":"LAVISTA","state":"NE","address":"7920 SO. 84TH ST","name":""},
  {"lat":40.902334,"lon":-98.340205,"city":"GRAND ISLAND","state":"NE","address":"1916 S LOCUST","name":""},
  {"lat":41.284756,"lon":-96.234088,"city":"ELKHORN","state":"NE","address":"2929 N 204th street","name":""},
  {"lat":41.45113,"lon":-96.474048,"city":"FREMONT","state":"NE","address":"1851 E. 23RD ST","name":""},
  {"lat":41.01037,"lon":-95.886487,"city":"PLATTSMOUTH","state":"NE","address":"132 S. 6TH ST","name":""},
  {"lat":41.145651,"lon":-96.240227,"city":"GRETNA","state":"NE","address":"806 VILLAGE SQUARE","name":""},
  {"lat":42.269462,"lon":-96.862528,"city":"WAKEFIELD","state":"NE","address":"206 OAK ST","name":""},
  {"lat":42.45696,"lon":-98.633898,"city":"O'NEILL","state":"NE","address":"204 EAST HWY 20","name":""},
  {"lat":41.772368,"lon":-96.220817,"city":"TEKAMAH","state":"NE","address":"603 S. 13TH ST","name":""},
  {"lat":41.234125,"lon":-96.395039,"city":"YUTAN","state":"NE","address":"546 COUNTY ROAD M","name":""},
  {"lat":40.97457,"lon":-96.386912,"city":"GREENWOOD","state":"NE","address":"13504 238TH ST","name":""},
  {"lat":41.371421,"lon":-96.16018,"city":"BENNINGTON","state":"NE","address":"15625 C. W. HADAN DR.","name":""},
  {"lat":42.127348,"lon":-98.029129,"city":"NELIGH","state":"NE","address":"210 L ST","name":""},
  {"lat":42.047741,"lon":-97.416412,"city":"NORFOLK","state":"NE","address":"714 W. BENJAMIN","name":""},
  {"lat":42.106763,"lon":-96.707933,"city":"PENDER","state":"NE","address":"701 SOUTH 4TH ST","name":""},
  {"lat":41.115874,"lon":-102.97167,"city":"SIDNEY","state":"NE","address":"1020 OLD POST ROAD","name":""},
  {"lat":40.668762,"lon":-96.178441,"city":"SYRACUSE","state":"NE","address":"110 NORTH 30 RD","name":""},
  {"lat":42.228919,"lon":-97.018265,"city":"WAYNE","state":"NE","address":"106 S. MAIN ST","name":""},
  {"lat":40.917205,"lon":-100.166123,"city":"GOTHENBURG","state":"NE","address":"301 S. LAKE AVENUE","name":""},
  {"lat":41.544029,"lon":-96.133975,"city":"BLAIR","state":"NE","address":"1458 WASHINGTON STREET","name":""},
  {"lat":40.673212,"lon":-99.086647,"city":"KEARNEY","state":"NE","address":"108 2ND AVENUE","name":""},
  {"lat":41.192684,"lon":-97.41693,"city":"SHELBY","state":"NE","address":"600 EAST PARK","name":""},
  {"lat":41.254112,"lon":-95.9327,"city":"OMAHA","state":"NE","address":"601 SOUTH 13TH STREET","name":""},
  {"lat":42.429569,"lon":-97.096034,"city":"LAUREL","state":"NE","address":"210 US-20","name":""},
  {"lat":42.867448,"lon":-100.548076,"city":"VALENTINE","state":"NE","address":"203 EAST HIGHWAY 20","name":""},
  {"lat":36.3809,"lon":-114.896644,"city":"LAS VEGAS","state":"NV","address":"12501 APEX GREAT BASIN WAY","name":""},
  {"lat":39.515294,"lon":-119.827942,"city":"RENO","state":"NV","address":"645 BOOTH ST","name":""},
  {"lat":39.618668,"lon":-119.266012,"city":"FERNLEY","state":"NV","address":"825 COMMERCE CENTER DRIVE","name":""},
  {"lat":35.159225,"lon":-103.702396,"city":"TUCUMCARI","state":"NM","address":"1900 MOUNTAIN RD","name":""},
  {"lat":32.353964,"lon":-108.735631,"city":"LORDSBURG","state":"NM","address":"900 WEST MOTEL DRIVE","name":""},
  {"lat":36.444929,"lon":-103.179789,"city":"CLAYTON","state":"NM","address":"703 SOUTH 1ST STREET","name":""},
  {"lat":35.183354,"lon":-107.899718,"city":"MILAN","state":"NM","address":"257 HORIZON BLVD","name":""},
  {"lat":31.862089,"lon":-106.686598,"city":"SANTA TERESA","state":"NM","address":"2401 AIRPORT ROAD","name":""},
  {"lat":44.003261,"lon":-75.921117,"city":"WATERTOWN","state":"NY","address":"23425 STATE ROUTE 12","name":""},
  {"lat":35.657928,"lon":-81.96333,"city":"MARION","state":"NC","address":"3308 HWY 226 SOUTH","name":""},
  {"lat":36.068012,"lon":-79.313715,"city":"MEBANE","state":"NC","address":"1217 TROLLINGWOOD HAWFIELDS RD","name":""},
  {"lat":35.343205,"lon":-80.769125,"city":"CHARLOTTE","state":"NC","address":"3020 PROSPERITY CHURCH ROAD, STE F","name":""},
  {"lat":40.265026,"lon":-84.18568,"city":"SIDNEY","state":"OH","address":"2241 FAIR ROAD","name":""},
  {"lat":41.173642,"lon":-80.571332,"city":"HUBBARD","state":"OH","address":"2586 NORTH MAIN STREET","name":""},
  {"lat":39.844899,"lon":-82.937724,"city":"OBETZ","state":"OH","address":"6023 ALUM CREEK DRIVE","name":""},
  {"lat":41.107537,"lon":-81.045969,"city":"DIAMOND","state":"OH","address":"4352 STATE ROUTE 225","name":""},
  {"lat":34.168116,"lon":-97.135938,"city":"ARDMORE","state":"OK","address":"930 W. Broadway","name":""},
  {"lat":35.304939,"lon":-95.588649,"city":"EUFAULA","state":"OK","address":"1601 BIRKES RD","name":""},
  {"lat":35.526339,"lon":-98.350701,"city":"HINTON","state":"OK","address":"4400 N. BROADWAY","name":""},
  {"lat":36.176344,"lon":-94.573864,"city":"WATTS","state":"OK","address":"3033 HIGHWAY 412","name":""},
  {"lat":34.656699,"lon":-97.958289,"city":"MARLOW","state":"OK","address":"811 N. BROADWAY ST","name":""},
  {"lat":36.417232,"lon":-99.384468,"city":"WOODWARD","state":"OK","address":"3020 WILLIAMS AVENUE","name":""},
  {"lat":36.797164,"lon":-98.650198,"city":"ALVA","state":"OK","address":"607 E. OKLAHOMA BLVD","name":""},
  {"lat":36.677078,"lon":-101.481145,"city":"GUYMON","state":"OK","address":"101 SE 2ND STREET","name":""},
  {"lat":35.01484,"lon":-97.366412,"city":"PURCELL","state":"OK","address":"225 N. GREEN AVENUE","name":""},
  {"lat":34.500676,"lon":-97.947578,"city":"DUNCAN","state":"OK","address":"202 W. MAIN ST","name":""},
  {"lat":36.433421,"lon":-99.413579,"city":"WOODWARD","state":"OK","address":"2615 OKLAHOMA AVENUE","name":""},
  {"lat":35.341798,"lon":-96.929498,"city":"SHAWNEE","state":"OK","address":"1005 N. KICKAPOO AVE","name":""},
  {"lat":34.739764,"lon":-97.222821,"city":"PAULS VALLEY","state":"OK","address":"309 W. GRANT AVE","name":""},
  {"lat":35.260362,"lon":-96.936279,"city":"TECUMSEH","state":"OK","address":"100 E. WALNUT ST","name":""},
  {"lat":34.776902,"lon":-96.669673,"city":"ADA","state":"OK","address":"300 N. MISSISSIPPI","name":""},
  {"lat":34.18827,"lon":-97.17082,"city":"ARDMORE","state":"OK","address":"3201 12th Ave. NW","name":""},
  {"lat":34.640108,"lon":-97.958317,"city":"MARLOW","state":"OK","address":"701 S. BROADWAY ST","name":""},
  {"lat":35.43945,"lon":-95.976938,"city":"HENRYETTA","state":"OK","address":"413 E. MAIN STREET","name":""},
  {"lat":33.988462,"lon":-96.270316,"city":"DURANT","state":"OK","address":"1223 NORTH 1ST ST","name":""},
  {"lat":33.992431,"lon":-96.381545,"city":"DURANT","state":"OK","address":"524 W. MAIN STREET","name":""},
  {"lat":36.8714,"lon":-94.867931,"city":"MIAMI","state":"OK","address":"1015 E. STEVE OWENS BLVD","name":""},
  {"lat":35.915552,"lon":-94.968962,"city":"TAHLEQUAH","state":"OK","address":"111 E. DOWNING ST","name":""},
  {"lat":34.774919,"lon":-96.686197,"city":"ADA","state":"OK","address":"524 W. MAIN STREET","name":""},
  {"lat":34.086663,"lon":-96.769969,"city":"MADILL","state":"OK","address":"411 SOUTH 1ST STREET","name":""},
  {"lat":35.865331,"lon":-97.42576,"city":"GUTHRIE","state":"OK","address":"1223 S. DIVISION ST","name":""},
  {"lat":35.037309,"lon":-97.937174,"city":"CHICKASHA","state":"OK","address":"1326 SOUTH 4TH STREET","name":""},
  {"lat":35.507538,"lon":-97.759759,"city":"YUKON","state":"OK","address":"1016 W. MAIN STREET","name":""},
  {"lat":34.022331,"lon":-94.739964,"city":"BROKEN BOW","state":"OK","address":"504 S. PARK DRIVE","name":""},
  {"lat":35.052088,"lon":-97.94562,"city":"CHICKASHA","state":"OK","address":"1001 W. CHOCTAW AVE","name":""},
  {"lat":35.57967,"lon":-97.5498,"city":"OKLAHOMA CITY","state":"OK","address":"10875 N PENNSYLVANIA AVE","name":""},
  {"lat":35.946402,"lon":-97.594564,"city":"CRESCENT","state":"OK","address":"432 S. GRAND","name":""},
  {"lat":34.642675,"lon":-97.173039,"city":"WYNNEWOOD","state":"OK","address":"305 W. ROBERT S. KERR BLVD.","name":""},
  {"lat":35.377807,"lon":-97.573672,"city":"OKLAHOMA CITY","state":"OK","address":"3233 SW 89TH STREET","name":""},
  {"lat":36.272359,"lon":-98.480099,"city":"FAIRVIEW","state":"OK","address":"401 N. MAIN STREET","name":""},
  {"lat":35.841354,"lon":-98.4157,"city":"WATONGA","state":"OK","address":"304 W. RUSSWORM DRIVE","name":""},
  {"lat":35.859423,"lon":-97.932238,"city":"KINGFISHER","state":"OK","address":"203 SOUTH MAIN STREET","name":""},
  {"lat":35.508503,"lon":-97.937499,"city":"EL RENO","state":"OK","address":"1645 EAST HIGHWAY 66","name":""},
  {"lat":35.38225,"lon":-97.088478,"city":"MCLOUD","state":"OK","address":"12601 SOUTH MCLOUD ROAD","name":""},
  {"lat":35.183372,"lon":-97.499155,"city":"NORMAN","state":"OK","address":"5317 SE 44TH STREET","name":""},
  {"lat":35.878986,"lon":-97.396152,"city":"GUTHRIE","state":"OK","address":"2530 EAST NOBLE AVENUE","name":""},
  {"lat":35.491375,"lon":-94.971833,"city":"VIAN","state":"OK","address":"706 SOUTH THORNTON STREET","name":""},
  {"lat":36.729557,"lon":-102.500695,"city":"BOISE CITY","state":"OK","address":"1100 EAST MAIN STREET","name":""},
  {"lat":33.997791,"lon":-96.428208,"city":"DURANT","state":"OK","address":"5278 WEST MAIN STREET","name":""},
  {"lat":34.173099,"lon":-98.498358,"city":"RANDLETT","state":"OK","address":"251344 HIGHWAY 70","name":""},
  {"lat":36.506027,"lon":-101.77432,"city":"TEXHOMA","state":"OK","address":"1430 HIGHWAY 54 EAST","name":""},
  {"lat":34.837232,"lon":-97.608622,"city":"LINDSAY","state":"OK","address":"502 WEST CHEROKEE STREET","name":""},
  {"lat":36.858736,"lon":-101.210243,"city":"HOOKER","state":"OK","address":"201 WEST HIGHWAY 54","name":""},
  {"lat":45.480906,"lon":-122.859294,"city":"ALOHA","state":"OR","address":"17691 SW FARMINGTON ROAD","name":""},
  {"lat":39.786891,"lon":-77.712026,"city":"GREENCASTLE","state":"PA","address":"705 BUCHANAN TRAIL EAST","name":""},
  {"lat":33.682077,"lon":-78.89645,"city":"MYRTLE BEACH","state":"SC","address":"608 SOUTH KINGS HWY","name":""},
  {"lat":33.459061,"lon":-80.734507,"city":"ORANGEBURG","state":"SC","address":"3205 FIVE CHOP ROAD","name":""},
  {"lat":44.341899,"lon":-98.21707,"city":"HURON","state":"SD","address":"195 21ST St SW","name":""},
  {"lat":42.504062,"lon":-96.494673,"city":"DAKOTA DUNES","state":"SD","address":"200 TOWER ROAD","name":""},
  {"lat":43.736406,"lon":-98.95591,"city":"KIMBALL","state":"SD","address":"1100 SOUTH MAIN STREET","name":""},
  {"lat":43.44646,"lon":-96.707133,"city":"HARRISBURG","state":"SD","address":"756 CLIFF AVENUE NORTH","name":""},
  {"lat":43.226199,"lon":-99.430586,"city":"GREGORY","state":"SD","address":"408 US-18","name":""},
  {"lat":43.377024,"lon":-99.850706,"city":"WINNER","state":"SD","address":"502 EAST 2ND STREET","name":""},
  {"lat":44.904204,"lon":-97.130798,"city":"WATERTOWN","state":"SD","address":"220 10TH STREET NW","name":""},
  {"lat":35.995152,"lon":-88.437435,"city":"HUNTINGDON","state":"TN","address":"23 VETERANS DR NORTH","name":""},
  {"lat":36.071546,"lon":-87.380696,"city":"DICKSON","state":"TN","address":"106 HIGHWAY 46","name":""},
  {"lat":36.070631,"lon":-89.394201,"city":"DYERSBURG","state":"TN","address":"3070 LAKE RD","name":""},
  {"lat":35.684138,"lon":-88.860742,"city":"JACKSON","state":"TN","address":"1295 UNION UNIVERSITY DRIVE","name":""},
  {"lat":35.668085,"lon":-88.828659,"city":"JACKSON","state":"TN","address":"7 RIDGECREST ROAD","name":""},
  {"lat":36.414152,"lon":-89.057458,"city":"Union City","state":"TN","address":"1400 SOUTH 1ST STREET","name":""},
  {"lat":35.97022,"lon":-83.248037,"city":"NEWPORT","state":"TN","address":"1129 SMOKEY MOUNTAIN LANE","name":""},
  {"lat":36.067754,"lon":-86.427635,"city":"MT. JULIET","state":"TN","address":"150 COUCHVILLE INDUSTRIAL BLVD","name":""},
  {"lat":36.346981,"lon":-88.849756,"city":"MARTIN","state":"TN","address":"44 LINDELL STREET","name":""},
  {"lat":34.291848,"lon":-99.757727,"city":"QUANAH","state":"TX","address":"1415 W 11TH STREET","name":""},
  {"lat":31.948088,"lon":-102.139926,"city":"MIDLAND","state":"TX","address":"5200 CHOLLA RD","name":""},
  {"lat":32.50863,"lon":-95.646498,"city":"VAN","state":"TX","address":"1188 S. OAK STREET","name":""},
  {"lat":33.26178,"lon":-94.151405,"city":"QUEEN CITY","state":"TX","address":"22406 US HIGHWAY 59 N","name":""},
  {"lat":33.695976,"lon":-95.55552,"city":"PARIS","state":"TX","address":"3215 N. MAIN ST","name":""},
  {"lat":33.262447,"lon":-97.180214,"city":"DENTON","state":"TX","address":"6421 N. I-35","name":""},
  {"lat":34.723338,"lon":-100.533616,"city":"MEMPHIS","state":"TX","address":"219 S. BOYKIN DR","name":""},
  {"lat":35.879474,"lon":-101.97348,"city":"DUMAS","state":"TX","address":"720 N. DUMAS","name":""},
  {"lat":29.988975,"lon":-94.211897,"city":"BEAUMONT","state":"TX","address":"7495 SMITH ROAD","name":""},
  {"lat":32.287225,"lon":-96.543605,"city":"ALMA","state":"TX","address":"6550 SOUTH INTERSTATE 45 SERVICE RD","name":""},
  {"lat":33.886705,"lon":-98.468842,"city":"WICHITA FALLS","state":"TX","address":"1124 CENTRAL FREEWAY EAST","name":""},
  {"lat":32.742391,"lon":-97.743081,"city":"WEATHERFORD","state":"TX","address":"2605 EAST BANKHEAD DRIVE","name":""},
  {"lat":25.954326,"lon":-97.418482,"city":"BROWNSVILLE","state":"TX","address":"3400 NAFTA PARKWAY","name":""},
  {"lat":27.644129,"lon":-99.555479,"city":"LAREDO","state":"TX","address":"101 PINNACLE ROAD","name":""},
  {"lat":32.443014,"lon":-95.060478,"city":"WINONA","state":"TX","address":"12577 COUNTY ROAD 3101","name":""},
  {"lat":35.189148,"lon":-102.011119,"city":"AMARILLO","state":"TX","address":"14701 I-40 WEST","name":""},
  {"lat":26.245395,"lon":-97.725482,"city":"HARLINGEN","state":"TX","address":"21379 US-77 EXPRESSWAY","name":""},
  {"lat":26.38591,"lon":-98.140457,"city":"EDINBURG","state":"TX","address":"8420 NORTH EXPRESSWAY 281","name":""},
  {"lat":37.937661,"lon":-77.466226,"city":"RUTHER GLEN","state":"VA","address":"23845 ROGERS CLARK BLVD","name":""},
  {"lat":47.245343,"lon":-122.384471,"city":"FIFE","state":"WA","address":"1501 PORT OF TACOMA ROAD","name":""},
  {"lat":37.370164,"lon":-81.798015,"city":"BRADSHAW","state":"WV","address":"1586 MOUNTAINEER HIGHWAY","name":""},
  {"lat":38.031565,"lon":-82.128781,"city":"HARTS","state":"WV","address":"1062 MCCLELLAN HIGHWAY","name":""},
  {"lat":37.779372,"lon":-81.336464,"city":"GLEN DANIEL","state":"WV","address":"7006 HARPER RD","name":""},
  {"lat":37.367252,"lon":-81.074525,"city":"PRINCETON","state":"WV","address":"ROUTE 20, ATHENS RD","name":""},
  {"lat":37.794161,"lon":-80.30054,"city":"WHITE SULPHUR SPRINGS","state":"WV","address":"103 E. MAIN ST","name":""},
  {"lat":37.803241,"lon":-81.166603,"city":"BECKLEY","state":"WV","address":"468 STANAFORD RD","name":""},
  {"lat":37.616013,"lon":-81.115739,"city":"GHENT","state":"WV","address":"125 ODD RD","name":""},
  {"lat":37.445694,"lon":-81.700901,"city":"RODERFIELD","state":"WV","address":"12745 COAL HERITAGE ROAD","name":""},
  {"lat":38.094622,"lon":-81.837893,"city":"DANVILLE","state":"WV","address":"30 RAMSEY ROAD","name":""},
  {"lat":41.1721,"lon":-104.828164,"city":"CHEYENNE","state":"WY","address":"5719 YELLOWSTONE RD","name":""},
  {"lat":37.736552,"lon":-88.533164,"city":"ELDORADO","state":"IL","address":"142 US-45","name":""},
  {"lat":37.689158,"lon":-87.90856,"city":"MORGANFIELD","state":"KY","address":"600 East Fort Street","name":""},
  {"lat":35.191976,"lon":-101.760921,"city":"AMARILLO","state":"TX","address":"6930 E Interstate Dr East","name":""},
  {"lat":37.728002,"lon":-80.632737,"city":"ALDERSON","state":"WV","address":"411 Alta Dr","name":""},
  {"lat":38.260342,"lon":-81.841583,"city":"ALUM CREEK","state":"WV","address":"403 Midway Rd","name":""},
  {"lat":37.922845,"lon":-81.15868,"city":"GLEN JEAN","state":"WV","address":"4704 Legends Hwy","name":""},
  {"lat":37.845183,"lon":-80.41467,"city":"LEWISBURG","state":"WV","address":"14967 US-219","name":""},
  {"lat":38.225139,"lon":-80.096962,"city":"MARLINTON","state":"WV","address":"18251 Seneca Trail","name":""},
  {"lat":38.424474,"lon":-82.212618,"city":"ONA","state":"WV","address":"2634 US-60","name":""},
  {"lat":38.339542,"lon":-81.170336,"city":"LIZEMORES","state":"WV","address":"13546 Clay Hwy","name":""},
  {"lat":35.446454,"lon":-96.280086,"city":"OKEMAH","state":"OK","address":"102 W. Copeland","name":""},
  {"lat":44.746644,"lon":-96.702847,"city":"Clear Lake","state":"SD","address":"204 SD-22","name":""},
  {"lat":41.500826,"lon":-95.451861,"city":"Shelby","state":"IA","address":"12 East Street","name":""},
  {"lat":43.301046,"lon":-96.431742,"city":"Inwood","state":"IA","address":"2403 US Highway 18 Street","name":""},
  {"lat":39.192829,"lon":-94.548776,"city":"Kansas City","state":"MO","address":"5402 NE Antioch Road","name":""},
  {"lat":30.774769,"lon":-83.29973,"city":"Valdosta","state":"GA","address":"2319 Old Clyattville Road","name":""},
  {"lat":32.278263,"lon":-90.154977,"city":"Flowood","state":"MS","address":"730 US-80 East","name":""},
  {"lat":38.077249,"lon":-117.247864,"city":"Tonopah","state":"NV","address":"1170 US Highway 95","name":""},
  {"lat":35.710881,"lon":-96.86686,"city":"Chandler","state":"OK","address":"169E Turner Turnpike","name":""},
  {"lat":32.441771,"lon":-98.69454,"city":"Ranger","state":"TX","address":"6950 Interstate Highway 20","name":""},
  {"lat":36.073597,"lon":-102.533935,"city":"Dalhart","state":"TX","address":"12182 Highway 87 North","name":""},
  {"lat":40.312492,"lon":-88.985381,"city":"Heyworth","state":"IL","address":"701West Cleveland","name":""},
  {"lat":40.813756,"lon":-89.614004,"city":"Peoria","state":"IL","address":"1415 West Alta Road","name":""},
  {"lat":40.775875,"lon":-89.631713,"city":"Peoria","state":"IL","address":"7225 N. Allen Road","name":""},
  {"lat":38.668715,"lon":-88.488718,"city":"Flora","state":"IL","address":"232 West North Avenue","name":""},
  {"lat":38.06368,"lon":-87.509864,"city":"Evansville","state":"IN","address":"3131 Kansas Road","name":""},
  {"lat":36.762336,"lon":-90.410569,"city":"Poplar Bluff","state":"MO","address":"703 N. Westwood Blvd.","name":""},
  {"lat":40.99473,"lon":-92.300762,"city":"Agency","state":"IA","address":"444 E. Main St.","name":""},
  {"lat":41.292023,"lon":-91.536157,"city":"Ainsworth","state":"IA","address":"3112 Highway 92","name":""},
  {"lat":45.629052,"lon":-94.573928,"city":"Albany","state":"MN","address":"310 8th Street South","name":""},
  {"lat":41.028322,"lon":-92.807522,"city":"Albia","state":"IA","address":"107 N. Main St.","name":""},
  {"lat":31.543814,"lon":-82.525084,"city":"Alma","state":"GA","address":"2021 GA Hwy 32 W.","name":""},
  {"lat":42.023923,"lon":-93.65045,"city":"Ames","state":"IA","address":"1215 Friley Hall","name":""},
  {"lat":42.023655,"lon":-93.645861,"city":"Ames","state":"IA","address":"2229 Lincoln Way","name":""},
  {"lat":44.361792,"lon":-97.129338,"city":"Arlington","state":"SD","address":"100 N. Hwy 81/ PO Box 351","name":""},
  {"lat":41.409317,"lon":-95.015334,"city":"Atlantic","state":"IA","address":"110 Locust St.","name":""},
  {"lat":42.252768,"lon":-94.877206,"city":"Auburn","state":"IA","address":"402 Pine Street","name":""},
  {"lat":36.862516,"lon":-86.7133,"city":"Auburn","state":"KY","address":"410 West Main Street","name":""},
  {"lat":43.293956,"lon":-94.219654,"city":"Bancroft","state":"IA","address":"112 N. Long Street (Hwy 169 N.)","name":""},
  {"lat":39.547838,"lon":-86.15799,"city":"Bargersville","state":"IN","address":"2994 Fulmer Dr.","name":""},
  {"lat":41.001392,"lon":-92.16533,"city":"Batavia","state":"IA","address":"100 1st Street","name":""},
  {"lat":39.064365,"lon":-84.111786,"city":"Batavia","state":"OH","address":"2700 Old State Route 32","name":""},
  {"lat":48.712058,"lon":-94.607477,"city":"Baudette","state":"MN","address":"509 Main St. West / P.O. Box 69","name":""},
  {"lat":29.001342,"lon":-95.913675,"city":"Bay City","state":"TX","address":"7925 7th Street","name":""},
  {"lat":41.84831,"lon":-94.550957,"city":"Bayard","state":"IA","address":"101 Hwy 141","name":""},
  {"lat":43.084301,"lon":-96.802576,"city":"Beresford","state":"SD","address":"47018 SD Hwy 46","name":""},
  {"lat":45.815254,"lon":-108.470352,"city":"Billings","state":"MT","address":"905 Main Street","name":""},
  {"lat":44.153668,"lon":-103.31071,"city":"Black Hawk","state":"SD","address":"7215 Black Hawk Rd.","name":""},
  {"lat":40.753378,"lon":-92.413176,"city":"Bloomfield","state":"IA","address":"206 North Washington Street","name":""},
  {"lat":36.246359,"lon":-85.615265,"city":"Bloomington Springs","state":"TN","address":"4456 S. Grundy Quarles Hwy","name":""},
  {"lat":38.976191,"lon":-92.748239,"city":"Boonville","state":"MO","address":"205 E. Morgan St.","name":""},
  {"lat":42.18189,"lon":-94.977921,"city":"Breda","state":"IA","address":"212 Main Street","name":""},
  {"lat":41.670959,"lon":-103.100358,"city":"Bridgeport","state":"NE","address":"102 West 5th Street","name":""},
  {"lat":31.88693,"lon":-100.291363,"city":"Bronte","state":"TX","address":"101 South State Street","name":""},
  {"lat":40.795905,"lon":-91.107975,"city":"Burlington","state":"IA","address":"901 South Street","name":""},
  {"lat":36.861618,"lon":-87.837732,"city":"Cadiz","state":"KY","address":"27 Main Street","name":""},
  {"lat":47.228607,"lon":-88.454841,"city":"Calumet","state":"MI","address":"56021 US Highway 41","name":""},
  {"lat":39.752244,"lon":-94.215314,"city":"Cameron","state":"MO","address":"1518 Bob Griffin Rd.","name":""},
  {"lat":42.307007,"lon":-90.994865,"city":"Cascade","state":"IA","address":"1501 1st Avenue East","name":""},
  {"lat":41.005605,"lon":-93.293317,"city":"Chariton","state":"IA","address":"107 E. Grace Ave.","name":""},
  {"lat":34.390612,"lon":-103.195754,"city":"Clovis","state":"NM","address":"621 South Prince Street","name":""},
  {"lat":41.423979,"lon":-97.368532,"city":"Columbus","state":"NE","address":"770 33rd Avenue","name":""},
  {"lat":38.990893,"lon":-93.567398,"city":"Concordia","state":"MO","address":"201 North Main Street","name":""},
  {"lat":40.988289,"lon":-94.733991,"city":"Corning","state":"IA","address":"408 6th Street","name":""},
  {"lat":40.038695,"lon":-86.871744,"city":"Crawfordsville","state":"IN","address":"1808 Indianapolis Road","name":""},
  {"lat":39.38233,"lon":-78.299119,"city":"Cross Junction","state":"VA","address":"9181 N. Frederick Pike","name":""},
  {"lat":44.383516,"lon":-97.549451,"city":"De Smet","state":"SD","address":"102 Highway 14 East / PO Box 16","name":""},
  {"lat":42.023833,"lon":-95.371322,"city":"Denison","state":"IA","address":"506 Highway 59 North","name":""},
  {"lat":40.146314,"lon":-97.727391,"city":"Deshler","state":"NE","address":"101 1st Street","name":""},
  {"lat":41.808894,"lon":-90.537896,"city":"DeWitt","state":"IA","address":"630 South 6th Avenue","name":""},
  {"lat":46.918708,"lon":-102.788364,"city":"Dickinson","state":"ND","address":"191 40th Street West","name":""},
  {"lat":46.877948,"lon":-102.7789,"city":"Dickinson","state":"ND","address":"450 East Villard Street","name":""},
  {"lat":42.484971,"lon":-91.272801,"city":"Earlville","state":"IA","address":"425 Northern Avenue","name":""},
  {"lat":41.154063,"lon":-92.629372,"city":"Eddyville","state":"IA","address":"500 South Merino Avenue","name":""},
  {"lat":42.443487,"lon":-90.93236,"city":"Epworth","state":"IA","address":"206 S. Center Ave.","name":""},
  {"lat":34.388412,"lon":-103.034677,"city":"Farwell","state":"TX","address":"701 Avenue A","name":""},
  {"lat":46.288872,"lon":-96.117619,"city":"Fergus Falls","state":"MN","address":"2605 West Lincoln Avenue","name":""},
  {"lat":42.965537,"lon":-92.198068,"city":"Fredericksburg","state":"IA","address":"138 E. Main Street","name":""},
  {"lat":36.396044,"lon":-86.766412,"city":"Goodlettsville","state":"TN","address":"1721 Highway 41 South","name":""},
  {"lat":36.183215,"lon":-82.755975,"city":"Greeneville","state":"TN","address":"3990 East Andrew Johnson Highway","name":""},
  {"lat":41.234502,"lon":-95.13921,"city":"Griswold","state":"IA","address":"708 Main Street","name":""},
  {"lat":42.269735,"lon":-104.748559,"city":"Guernsey","state":"WY","address":"550 West Whalen Street","name":""},
  {"lat":36.646325,"lon":-87.196749,"city":"Guthrie","state":"KY","address":"10125 Dixie Beeline Hwy.","name":""},
  {"lat":41.676991,"lon":-94.501903,"city":"Guthrie Center","state":"IA","address":"500 State Street","name":""},
  {"lat":47.300335,"lon":-101.6288,"city":"Hazen","state":"ND","address":"709 3rd Avenue NW","name":""},
  {"lat":41.177088,"lon":-92.307154,"city":"Hedrick","state":"IA","address":"103 E. 6th Street","name":""},
  {"lat":34.811941,"lon":-102.405391,"city":"Hereford","state":"TX","address":"100 South 25 Mile Avenue","name":""},
  {"lat":38.670367,"lon":-96.947133,"city":"Herington","state":"KS","address":"301 W. Walnut Street","name":""},
  {"lat":37.876465,"lon":-93.266072,"city":"Hermitage","state":"MO","address":"22888 State Highway 64","name":""},
  {"lat":32.696542,"lon":-103.136308,"city":"Hobbs","state":"NM","address":"71 West Marland Blvd.","name":""},
  {"lat":42.465767,"lon":-92.7672,"city":"Holland","state":"IA","address":"16250 N Avenue","name":""},
  {"lat":39.750357,"lon":-86.025373,"city":"Indianapolis","state":"IN","address":"8020 Brookville Road","name":""},
  {"lat":39.667438,"lon":-86.01808,"city":"Indianapolis","state":"IN","address":"6925 S. Franklin Rd.","name":""},
  {"lat":39.811242,"lon":-85.990284,"city":"Indianapolis","state":"IN","address":"2935 Mitthoeffer Rd.","name":""},
  {"lat":41.355746,"lon":-93.587631,"city":"Indianola","state":"IA","address":"2001 West 2nd Avenue","name":""},
  {"lat":41.663055,"lon":-91.538382,"city":"Iowa City","state":"IA","address":"125 N. Madison Street","name":""},
  {"lat":30.914006,"lon":-101.897988,"city":"Iraan","state":"TX","address":"100 East 6th Street","name":""},
  {"lat":34.85417,"lon":-77.485541,"city":"Jacksonville","state":"NC","address":"5673 Gum Branch Road","name":""},
  {"lat":42.035268,"lon":-94.367296,"city":"Jefferson","state":"IA","address":"606 East Hwy 30","name":""},
  {"lat":35.845097,"lon":-90.677153,"city":"Jonesboro","state":"AR","address":"105 N. Caraway Carl Reng Center / Box 299","name":""},
  {"lat":55.348619,"lon":-131.67106,"city":"Ketchikan","state":"AK","address":"2050 Sea Level Drive","name":""},
  {"lat":41.228643,"lon":-89.927879,"city":"Kewanee","state":"IL","address":"349 South Tenney St.","name":""},
  {"lat":35.841116,"lon":-84.182706,"city":"Knoxville","state":"TN","address":"1116 Harvey","name":""},
  {"lat":41.33033,"lon":-89.100541,"city":"La Salle","state":"IL","address":"359 3rd Street","name":""},
  {"lat":42.266793,"lon":-94.725799,"city":"Lake City","state":"IA","address":"711 East Main Street","name":""},
  {"lat":38.215034,"lon":-92.625283,"city":"Lake Ozark","state":"MO","address":"12 North Shore Drive","name":""},
  {"lat":42.311114,"lon":-95.040308,"city":"Lake View","state":"IA","address":"1211 9th Street","name":""},
  {"lat":42.600632,"lon":-91.647266,"city":"Lamont","state":"IA","address":"710 Washburn Ave.","name":""},
  {"lat":40.438883,"lon":-92.568685,"city":"Lancaster","state":"MO","address":"15613 US Hwy 63","name":""},
  {"lat":46.750685,"lon":-88.445739,"city":"L'Anse","state":"MI","address":"110 US Highway 41","name":""},
  {"lat":42.007063,"lon":-92.784669,"city":"Le Grand","state":"IA","address":"806 West Main Street","name":""},
  {"lat":38.465242,"lon":-91.815669,"city":"Linn","state":"MO","address":"1780 Hwy 50 East","name":""},
  {"lat":45.976073,"lon":-94.849627,"city":"Long Prairie","state":"MN","address":"904 1st Avenue NE","name":""},
  {"lat":43.662847,"lon":-96.212178,"city":"Luverne","state":"MN","address":"818 North Kniss Avenue","name":""},
  {"lat":42.467757,"lon":-91.479843,"city":"Manchester","state":"IA","address":"2210 State Hwy 13","name":""},
  {"lat":42.069357,"lon":-90.677454,"city":"Maquoketa","state":"IA","address":"916 West Platt","name":""},
  {"lat":41.373458,"lon":-93.737678,"city":"Martensdale","state":"IA","address":"290 Hwy 28","name":""},
  {"lat":41.493034,"lon":-87.335475,"city":"Merrillville","state":"IN","address":"6851 Broadway","name":""},
  {"lat":40.817417,"lon":-97.044738,"city":"Milford","state":"NE","address":"923 238th Road","name":""},
  {"lat":43.305742,"lon":-100.667253,"city":"Mission","state":"SD","address":"620 2nd Street","name":""},
  {"lat":40.964581,"lon":-91.54113,"city":"Mount Pleasant","state":"IA","address":"901 E. Washington St.","name":""},
  {"lat":36.999344,"lon":-91.701088,"city":"Mountain View","state":"MO","address":"103 E. 5th Street","name":""},
  {"lat":41.436533,"lon":-91.079861,"city":"Muscatine","state":"IA","address":"2201 Houser Street","name":""},
  {"lat":36.262906,"lon":-86.75784,"city":"Nashville","state":"TN","address":"3740 Dickerson Pike","name":""},
  {"lat":41.171274,"lon":-90.996077,"city":"New Boston","state":"IL","address":"402 6th Street","name":""},
  {"lat":38.651351,"lon":-78.669053,"city":"New Market","state":"VA","address":"100 Lee Hwy/Intersection","name":""},
  {"lat":41.68842,"lon":-93.076261,"city":"Newton","state":"IA","address":"1806 S. 12th Avenue W.","name":""},
  {"lat":41.752807,"lon":-91.608224,"city":"North Liberty","state":"IA","address":"620 Meade Dr.","name":""},
  {"lat":43.444425,"lon":-93.218647,"city":"Northwood","state":"IA","address":"912 Central Avenue","name":""},
  {"lat":36.018287,"lon":-84.2497,"city":"Oak Ridge","state":"TN","address":"1190 Oak Ridge Turnpike","name":""},
  {"lat":41.833142,"lon":-96.463044,"city":"Oakland","state":"NE","address":"101 S. Charde Avenue","name":""},
  {"lat":40.116929,"lon":-87.959191,"city":"Ogden","state":"IL","address":"401 N. Market Street","name":""},
  {"lat":44.777048,"lon":-94.995217,"city":"Olivia","state":"MN","address":"1208 West Lincoln Ave","name":""},
  {"lat":41.263485,"lon":-95.956404,"city":"Omaha","state":"NE","address":"2400 Cass Street","name":""},
  {"lat":42.027058,"lon":-96.097791,"city":"Onawa","state":"IA","address":"1004 Iowa Street","name":""},
  {"lat":46.870748,"lon":-89.312865,"city":"Ontonagon","state":"MI","address":"103 Greenland Road","name":""},
  {"lat":40.928727,"lon":-90.950072,"city":"Oquawka","state":"IL","address":"116 S. Eighth Street","name":""},
  {"lat":40.943532,"lon":-92.408116,"city":"Ottumwa","state":"IA","address":"4108 US Hwy 63","name":""},
  {"lat":41.007035,"lon":-92.432532,"city":"Ottumwa","state":"IA","address":"720 Richmond Avenue","name":""},
  {"lat":41.028539,"lon":-92.424839,"city":"Ottumwa","state":"IA","address":"1049 West 2nd St.","name":""},
  {"lat":30.707928,"lon":-101.201794,"city":"Ozona","state":"TX","address":"1206 Avenue E","name":""},
  {"lat":43.387466,"lon":-97.098908,"city":"Parker","state":"SD","address":"27600 South Dakota Hwy 19","name":""},
  {"lat":43.38482,"lon":-97.99745,"city":"Parkston","state":"SD","address":"905 W. Hwy 44","name":""},
  {"lat":36.589438,"lon":-86.592128,"city":"Portland","state":"TN","address":"5500 Hwy 31 West","name":""},
  {"lat":36.604389,"lon":-86.536544,"city":"Portland","state":"TN","address":"905 N. Broadway","name":""},
  {"lat":41.393171,"lon":-89.466446,"city":"Princeton","state":"IL","address":"1838 N. Main Street","name":""},
  {"lat":35.466595,"lon":-78.148356,"city":"Princeton","state":"NC","address":"1050 Edwards Road","name":""},
  {"lat":37.163734,"lon":-93.423779,"city":"Republic","state":"MO","address":"2804 North Brookline Avenue","name":""},
  {"lat":42.452236,"lon":-94.671503,"city":"Rockwell City","state":"IA","address":"2325 Marshall Ave.","name":""},
  {"lat":33.393621,"lon":-104.55949,"city":"Roswell","state":"NM","address":"2600 West 2nd Street","name":""},
  {"lat":38.32407,"lon":-82.212814,"city":"Salt Rock","state":"WV","address":"5600 State Route 10","name":""},
  {"lat":31.375719,"lon":-100.488533,"city":"San Angelo","state":"TX","address":"7410 Knickerbocker Road","name":""},
  {"lat":31.470317,"lon":-100.409953,"city":"San Angelo","state":"TX","address":"1733 Pulliam Street","name":""},
  {"lat":43.186901,"lon":-95.809887,"city":"Sheldon","state":"IA","address":"100 N. Crossroads Drive","name":""},
  {"lat":43.04596,"lon":-96.174227,"city":"Sioux Center","state":"IA","address":"2950 S. Main Avenue","name":""},
  {"lat":43.544332,"lon":-96.784978,"city":"Sioux Falls","state":"SD","address":"4700 W. 12th Street","name":""},
  {"lat":43.988422,"lon":-95.753212,"city":"Slayton","state":"MN","address":"2511 Maple Avenue","name":""},
  {"lat":41.806837,"lon":-91.492498,"city":"Solon","state":"IA","address":"110 S. Market St.","name":""},
  {"lat":45.227409,"lon":-94.94253,"city":"Spicer","state":"MN","address":"190 Progress Way","name":""},
  {"lat":37.227291,"lon":-93.347771,"city":"Springfield","state":"MO","address":"3459 West Division Street","name":""},
  {"lat":45.495907,"lon":-94.151043,"city":"St. Cloud","state":"MN","address":"4255 Roosevelt Road","name":""},
  {"lat":37.822902,"lon":-92.163861,"city":"St. Robert","state":"MO","address":"681 Old Route 66","name":""},
  {"lat":42.749538,"lon":-95.150246,"city":"Storm Lake","state":"IA","address":"5292 Hwy 71 North","name":""},
  {"lat":38.130833,"lon":-92.794988,"city":"Sunrise Beach","state":"MO","address":"11947 North State Hwy 5","name":""},
  {"lat":34.456613,"lon":-77.494184,"city":"Surf City","state":"NC","address":"2700 NC-210","name":""},
  {"lat":41.137129,"lon":-101.12629,"city":"Sutherland","state":"NE","address":"381 North Highway 25","name":""},
  {"lat":41.848875,"lon":-91.664584,"city":"Swisher","state":"IA","address":"2722 120th Street NE","name":""},
  {"lat":38.638252,"lon":-78.773402,"city":"Timberville","state":"VA","address":"125 North Main Street","name":""},
  {"lat":41.985572,"lon":-92.57971,"city":"Toledo","state":"IA","address":"108 1/2 Hwy 30 West","name":""},
  {"lat":40.090851,"lon":-93.599856,"city":"Trenton","state":"MO","address":"1841 East 28th Street","name":""},
  {"lat":42.051816,"lon":-95.704354,"city":"Ute","state":"IA","address":"200 East 1st Street","name":""},
  {"lat":42.058774,"lon":-95.202209,"city":"Vail","state":"IA","address":"101 Hwy 30","name":""},
  {"lat":36.99933,"lon":-91.025526,"city":"Van Buren","state":"MO","address":"102 West Pine Street","name":""},
  {"lat":42.788144,"lon":-96.933231,"city":"Vermillion","state":"SD","address":"812 Cottage Ave.","name":""},
  {"lat":43.081343,"lon":-98.299974,"city":"Wagner","state":"SD","address":"413 W. Hwy 46","name":""},
  {"lat":46.476934,"lon":-89.948296,"city":"Wakefield","state":"MI","address":"185 US Highway 2 West","name":""},
  {"lat":47.792982,"lon":-103.281971,"city":"Watford City","state":"ND","address":"107 8th Avenue SE","name":""},
  {"lat":47.803015,"lon":-103.212325,"city":"Watford City","state":"ND","address":"4004 Frontier Avenue","name":""},
  {"lat":38.749604,"lon":-83.028875,"city":"West Portsmouth","state":"OH","address":"1051 Galena Pike","name":""},
  {"lat":42.963906,"lon":-91.808583,"city":"West Union","state":"IA","address":"213 Vine Street","name":""},
  {"lat":38.440456,"lon":-92.001088,"city":"Westphalia","state":"MO","address":"1963 Hwy 63","name":""},
  {"lat":41.589536,"lon":-91.034907,"city":"Wilton","state":"IA","address":"1300 Nicolaus Drive","name":""},
  {"lat":41.177645,"lon":-90.324174,"city":"Woodhull","state":"IL","address":"536 Oxford Avenue","name":""},
  {"lat":42.514738,"lon":-92.458191,"city":"Cedar Falls","state":"IA","address":"1015 Union Drive","name":""},
  {"lat":33.504741,"lon":-101.888169,"city":"Lubbock","state":"TX","address":"3401 98th Street","name":""},
  {"lat":44.096762,"lon":-102.830206,"city":"New Underwood","state":"SD","address":"16098 Hwy 1416","name":""},
  {"lat":38.599951,"lon":-83.319463,"city":"Vanceburg","state":"KY","address":"14 KY-8 A","name":""},
  {"lat":41.276238,"lon":-91.195935,"city":"Letts","state":"IA","address":"13961 County Rd 252","name":""},
  {"lat":41.500826,"lon":-95.451861,"city":"Shelby","state":"IA","address":"12 East Street","name":""},
  {"lat":40.449466,"lon":-88.993021,"city":"Bloomington","state":"IL","address":"2401 South Main Street","name":""},
  {"lat":39.776436,"lon":-93.553332,"city":"Chillicothe","state":"MO","address":"1000 S. Washington St.","name":""},
  {"lat":41.609945,"lon":-90.568425,"city":"Davenport","state":"IA","address":"20919 North Brady St.","name":""},
  {"lat":37.678214,"lon":-85.913968,"city":"Elizabethtown","state":"KY","address":"121 Ring Road","name":""},
  {"lat":35.000667,"lon":-80.977895,"city":"Fort Mill","state":"SC","address":"135 Sutton Ridge Lane","name":""},
  {"lat":37.517693,"lon":-90.139808,"city":"Fredericktown","state":"MO","address":"1500 Highway 72 West","name":""},
  {"lat":36.861042,"lon":-87.502599,"city":"Hopkinsville","state":"KY","address":"2313 Canton Street","name":""},
  {"lat":40.728482,"lon":-99.102595,"city":"Kearney","state":"NE","address":"1711 W. 56th Street","name":""},
  {"lat":35.593974,"lon":-97.436691,"city":"Oklahoma City","state":"OK","address":"12225 N I-35","name":""},
  {"lat":37.061743,"lon":-88.695039,"city":"Paducah","state":"KY","address":"2250 New Holt Road","name":""},
  {"lat":37.366025,"lon":-97.322461,"city":"Belle Plaine","state":"KS","address":"I-35, Mile 26, Kansas Turnpike","name":""},
  {"lat":38.810782,"lon":-90.699826,"city":"O'Fallon","state":"MO","address":"38 South Main Street","name":""},
  {"lat":43.607167,"lon":-96.710362,"city":"Sioux Falls","state":"SD","address":"5400 Cliff Avenue","name":""},
  {"lat":40.05468,"lon":-81.053753,"city":"St. Clairsville","state":"OH","address":"66320 Belmont-Morristown Rd.","name":""},
  {"lat":38.431622,"lon":-92.852159,"city":"Versailles","state":"MO","address":"810 West Newton Street","name":""},
  {"lat":39.758668,"lon":-94.943006,"city":"Wathena","state":"KS","address":"2218 Highway 36 East","name":""},
  {"lat":31.9941,"lon":-89.89865,"city":"Mendenhall","state":"MS","address":"4275 Simpson Hwy 49","name":""},
  {"lat":38.01294,"lon":-87.52744,"city":"Evansville","state":"IN","address":"2001 Lynch Road","name":""},
  {"lat":29.2679,"lon":-82.19833,"city":"Ocala","state":"FL","address":"7791 NW 47th Avenue","name":""},
  {"lat":37.97915,"lon":-85.69414,"city":"Shepherdsville","state":"KY","address":"1090 Cedar Grove Road","name":""},
  {"lat":39.01996,"lon":-95.13522,"city":"Lawrence","state":"AL","address":"209 Kansas Turnpike","name":""},
  {"lat":29.98395,"lon":-91.86159,"city":"New Iberia","state":"LA","address":"715 Hwy 90 West","name":""},
  {"lat":37.155538,"lon":-88.728611,"city":"Metropolis","state":"IL","address":"102 West 10th Street","name":""},
  {"lat":39.484599,"lon":-88.170855,"city":"Charleston","state":"IL","address":"1001 Lincoln Ave","name":""},
  {"lat":35.166361,"lon":-79.422073,"city":"Southern Pines","state":"NC","address":"10725 US 15-501","name":""},
  {"lat":39.84875,"lon":-85.26216,"city":"Straughn","state":"IN","address":"5884 S Wilbur Wright Road","name":""},
  {"lat":41.687522,"lon":-93.78134,"city":"GRIMES","state":"IA","address":"200 SE GATEWAY DR #111","name":""},
  {"lat":41.585104,"lon":-93.789572,"city":"WEST DES MOINES","state":"IA","address":"5919 ASHWORTH RD","name":""},
  {"lat":33.16398,"lon":-95.21793,"city":"Mt. Vernon","state":"TX","address":"215 East I-30 North Service Road","name":""},
  {"lat":29.436719,"lon":-98.656461,"city":"San Antonio","state":"TX","address":"8530 State Highway 151 Suite 101","name":""},
  {"lat":36.368281,"lon":-77.671745,"city":"Halifax","state":"NC","address":"10401 NC-903","name":""},
  {"lat":39.995554,"lon":-86.003201,"city":"Noblesville","state":"IN","address":"14235 Mundy Dr., Suite B","name":""},
  {"lat":40.001107,"lon":-86.106574,"city":"Carmel","state":"IN","address":"3404 E. 146th Street, Suite A","name":""},
  {"lat":42.239471,"lon":-91.189802,"city":"Monticello","state":"IA","address":"202 N. Cedar St.","name":""},
  {"lat":35.103594,"lon":-106.648869,"city":"Albuquerque","state":"NM","address":"2200 6th Street NW","name":""},
  {"lat":35.381669,"lon":-96.670404,"city":"Seminole","state":"OK","address":"11268 Highway 99","name":""},
  {"lat":33.155015,"lon":-96.732413,"city":"McKinney","state":"TX","address":"4701 South Custer Road #400","name":""},
  {"lat":33.220327,"lon":-96.900067,"city":"Aubrey","state":"TX","address":"27379 EAST UNIVERSITY DRIVE, STE 400","name":""},
  {"lat":38.61812,"lon":-90.04311,"city":"Caseyville","state":"AL","address":"8795 Sasak Place","name":""},
  {"lat":40.47312,"lon":-88.99383,"city":"Bloomington","state":"AL","address":"102 West Oakland Avenue","name":""},
  {"lat":38.21667,"lon":-85.20316,"city":"Shelbyville","state":"AL","address":"20 Mt. Tabor Ct.","name":""},
  {"lat":38.09546,"lon":-84.50902,"city":"Lexington","state":"AL","address":"2305 Remington Drive","name":""},
  {"lat":35.858202,"lon":-78.707258,"city":"Raleigh","state":"NC","address":"6429 Glenwood Ave., Unit C","name":""},
  {"lat":35.95467,"lon":-83.91563,"city":"Knoxville","state":"TN","address":"216 E Blount Ave","name":""},
  {"lat":34.80649,"lon":-89.81272,"city":"Hernando","state":"MS","address":"3731 Highway 305","name":""},
  {"lat":44.50592,"lon":-88.072349,"city":"Green Bay","state":"WI","address":"1221 Lombardi Access Road","name":""},
  {"lat":37.722633,"lon":-88.933145,"city":"Marion","state":"IL","address":"908 South Court St","name":""},
  {"lat":36.8714,"lon":-94.867931,"city":"MIAMI","state":"OK","address":"1015 E. STEVE OWENS BLVD","name":""},
  {"lat":46.7694,"lon":-92.12181,"city":"Duluth","state":"MN","address":"1831 West Superior Street","name":""},
  {"lat":38.01348,"lon":-87.49155,"city":"Evansville","state":"IN","address":"3951 N Green River Rd","name":""},
  {"lat":37.47144,"lon":-105.8579,"city":"Alamosa","state":"CO","address":"138 Broadway AVenue","name":""},
  {"lat":46.839727,"lon":-100.287746,"city":"STERLING","state":"ND","address":"3201 HIGHWAY 14","name":""},
  {"lat":33.26244,"lon":-111.59825,"city":"Queen Creek","state":"AZ","address":"22485 Queen Creek Road, Suite 101","name":""},
  {"lat":40.826304,"lon":-91.140827,"city":"BURLINGTON","state":"IA","address":"2760 MT. PLEASANT ST","name":""},
  {"lat":44.243246,"lon":-88.323737,"city":"Appleton","state":"WI","address":"W5700 County Hwy KK","name":""},
  {"lat":20.916331,"lon":-156.322924,"city":"Haiku-Pauwela","state":"HI","address":"1 POKOA PL","name":""}]}