{"key":"hampton","displayName":"Hampton Inn","category":"hotels","useLocationName":false,"locations":[
  {"lat":20.891,"lon":-156.471,"city":"Kahului","state":"HI","address":"130 West Kaahumanu Avenue","name":""},
  {"lat":19.638,"lon":-155.993,"city":"Kailua-Kona","state":"HI","address":"75-5739 Ali'i Drive","name":""},
  {"lat":21.333385,"lon":-158.053261,"city":"Kapolei","state":"HI","address":"91-5431 Kapolei Parkway, Suite 900","name":""},
  {"lat":33.60574,"lon":-114.537788,"city":"Blythe","state":"CA","address":"2011 East Donlon Street","name":""},
  {"lat":33.45605,"lon":-112.51127,"city":"Buckeye","state":"AZ","address":"21245 W Roosevelt St","name":""},
  {"lat":32.697,"lon":-115.5,"city":"Calexico","state":"CA","address":"2501 Scaroni Ave","name":""},
  {"lat":33.027539,"lon":-117.273806,"city":"Cardiff","state":"CA","address":"1661 Villa Cardiff Dr.","name":""},
  {"lat":33.1251,"lon":-117.2749,"city":"Carlsbad","state":"CA","address":"2229 Palomar Airport Road","name":""},
  {"lat":32.652122,"lon":-116.957408,"city":"Chula Vista","state":"CA","address":"2424 Fenton St","name":""},
  {"lat":33.6493,"lon":-117.91104,"city":"Costa Mesa","state":"CA","address":"2070 Newport Blvd","name":""},
  {"lat":32.808079,"lon":-116.962648,"city":"El Cajon","state":"CA","address":"1025 N. Magnolia Avenue","name":""},
  {"lat":32.771314,"lon":-115.533727,"city":"El Centro","state":"CA","address":"598 E. Wake Ave.","name":""},
  {"lat":33.672009,"lon":-117.657608,"city":"Foothill Ranch","state":"CA","address":"27102 Towne Centre Drive","name":""},
  {"lat":33.747066,"lon":-117.011955,"city":"Hemet","state":"CA","address":"3700 West Florida Avenue","name":""},
  {"lat":32.583887,"lon":-117.116473,"city":"Imperial Beach","state":"CA","address":"771 Palm Avenue","name":""},
  {"lat":33.740406,"lon":-116.225542,"city":"Indio","state":"CA","address":"42261 Spectrum Street","name":""},
  {"lat":33.674998,"lon":-117.858509,"city":"Irvine","state":"CA","address":"2192 Dupont Drive","name":""},
  {"lat":33.628147,"lon":-117.717918,"city":"Lake Forest","state":"CA","address":"23021 Lake Center Drive B","name":""},
  {"lat":33.546067,"lon":-117.670696,"city":"Mission Viejo","state":"CA","address":"28682 Marguerite Pkwy","name":""},
  {"lat":33.56726,"lon":-117.18201,"city":"Murrieta","state":"CA","address":"25140 Hancock Ave.","name":""},
  {"lat":32.9386,"lon":-117.0284,"city":"Poway","state":"CA","address":"14068 Stowe Drive","name":""},
  {"lat":33.410271,"lon":-117.599915,"city":"San Clemente","state":"CA","address":"2481 S. El Camino Real","name":""},
  {"lat":32.756005,"lon":-117.205988,"city":"San Diego","state":"CA","address":"3888 Greenwood St","name":""},
  {"lat":32.729875,"lon":-117.210957,"city":"San Diego","state":"CA","address":"2211 Lee Court","name":""},
  {"lat":32.721268,"lon":-117.170532,"city":"San Diego","state":"CA","address":"1531 Pacific Highway","name":""},
  {"lat":32.834133,"lon":-117.143181,"city":"San Diego","state":"CA","address":"5434 Kearny Mesa Road","name":""},
  {"lat":32.934902,"lon":-117.238464,"city":"San Diego","state":"CA","address":"11920 El Camino Real","name":""},
  {"lat":32.758,"lon":-117.1822,"city":"San Diego","state":"CA","address":"2151 Hotel Circle South","name":""},
  {"lat":33.135693,"lon":-117.16299,"city":"San Marcos","state":"CA","address":"123 E. Carmel Street","name":""},
  {"lat":33.501705,"lon":-117.154626,"city":"Temecula","state":"CA","address":"28190 Jefferson Avenue","name":""},
  {"lat":32.698716,"lon":-114.604298,"city":"Yuma","state":"AZ","address":"1600 East 16th Street","name":""},
  {"lat":40.9014,"lon":-124.0834,"city":"Arcata","state":"CA","address":"4750 Valley West Blvd","name":""},
  {"lat":35.61139,"lon":-121.141,"city":"San Simeon","state":"CA","address":"9070 Castillo Dr","name":""},
  {"lat":34.1456,"lon":-118.7823,"city":"Agoura Hills","state":"CA","address":"30255 Agoura Road","name":""},
  {"lat":35.129024,"lon":-120.601131,"city":"Arroyo Grande","state":"CA","address":"1400 West Branch Street","name":""},
  {"lat":34.989158,"lon":-118.942593,"city":"Arvin","state":"CA","address":"5601 Outlets at Tejon Parkway","name":""},
  {"lat":35.368675,"lon":-119.045905,"city":"Bakersfield","state":"CA","address":"1401 Easton Drive","name":""},
  {"lat":35.4396,"lon":-119.0769,"city":"Bakersfield","state":"CA","address":"8818 Spectrum Park Way","name":""},
  {"lat":35.3544,"lon":-118.916,"city":"Bakersfield","state":"CA","address":"7941 East Brundage Lane","name":""},
  {"lat":34.618195,"lon":-120.187342,"city":"Buellton","state":"CA","address":"600 McMurray Road","name":""},
  {"lat":34.206955,"lon":-118.342575,"city":"Burbank","state":"CA","address":"7501 North Glenoaks Boulevard","name":""},
  {"lat":34.22107,"lon":-119.07183,"city":"Camarillo","state":"CA","address":"50 W. Daily Drive","name":""},
  {"lat":33.872383,"lon":-118.26286,"city":"Carson","state":"CA","address":"767 Albertoni St.","name":""},
  {"lat":33.928251,"lon":-118.395887,"city":"El Segundo","state":"CA","address":"888 N. Pacific Coast Hwy","name":""},
  {"lat":34.142373,"lon":-118.255718,"city":"Glendale","state":"CA","address":"114 W. Colorado","name":""},
  {"lat":34.434998,"lon":-119.822243,"city":"Goleta","state":"CA","address":"5665 Hollister Ave.","name":""},
  {"lat":33.930752,"lon":-118.351051,"city":"Hawthorne","state":"CA","address":"11430 Acacia Ave.","name":""},
  {"lat":33.865953,"lon":-118.393305,"city":"Hermosa Beach","state":"CA","address":"1530 Pacific Coast Highway","name":""},
  {"lat":33.942755,"lon":-118.369601,"city":"Inglewood","state":"CA","address":"10300 La Cienega Boulevard","name":""},
  {"lat":34.7017,"lon":-118.1728,"city":"Lancaster","state":"CA","address":"2300 W. Double Play Way","name":""},
  {"lat":33.827334,"lon":-118.143544,"city":"Long Beach","state":"CA","address":"3771 N Lakewood Blvd.","name":""},
  {"lat":34.091823,"lon":-118.326845,"city":"Los Angeles","state":"CA","address":"1133 Vine Street","name":""},
  {"lat":35.380737,"lon":-120.856454,"city":"Morro Bay","state":"CA","address":"295 Atascadero Road","name":""},
  {"lat":34.171926,"lon":-118.377942,"city":"North Hollywood","state":"CA","address":"11350 Burbank Blvd","name":""},
  {"lat":34.172557,"lon":-119.225366,"city":"Oxnard","state":"CA","address":"3231 Peninsula Road","name":""},
  {"lat":34.59972,"lon":-118.142326,"city":"Palmdale","state":"CA","address":"39428 Trade Center Drive","name":""},
  {"lat":35.588583,"lon":-120.69763,"city":"Paso Robles","state":"CA","address":"212 Alexa Court","name":""},
  {"lat":34.274417,"lon":-118.574255,"city":"Porter Ranch","state":"CA","address":"20150 Rinaldi Street","name":""},
  {"lat":35.245018,"lon":-120.683372,"city":"San Luis Obispo","state":"CA","address":"1530 Calle Joaquin","name":""},
  {"lat":34.441465,"lon":-118.593704,"city":"Santa Clarita","state":"CA","address":"28700 Newhall Ranch Rd","name":""},
  {"lat":34.377648,"lon":-118.5675,"city":"Santa Clarita","state":"CA","address":"25259 The Old Road","name":""},
  {"lat":34.979871,"lon":-120.434677,"city":"Santa Maria","state":"CA","address":"2190 Preisker Lane","name":""},
  {"lat":34.014878,"lon":-118.491075,"city":"Santa Monica","state":"CA","address":"501 Colorado Avenue","name":""},
  {"lat":34.1732,"lon":-118.4661,"city":"Sherman Oaks","state":"CA","address":"5638 Sepulveda Blvd.","name":""},
  {"lat":34.1864,"lon":-118.9104,"city":"Thousand Oaks","state":"CA","address":"510 North Ventu Park Road","name":""},
  {"lat":36.223904,"lon":-119.33625,"city":"Tulare","state":"CA","address":"1100 N. Cherry Street","name":""},
  {"lat":36.326515,"lon":-119.344238,"city":"Visalia","state":"CA","address":"4747 W. Noble Ave","name":""},
  {"lat":37.601761,"lon":-122.371613,"city":"Burlingame","state":"CA","address":"1755 Bayshore Highway","name":""},
  {"lat":37.690972,"lon":-122.471055,"city":"Daly City","state":"CA","address":"2700 Junipero Serra Boulevard","name":""},
  {"lat":37.7819,"lon":-122.4077,"city":"San Francisco","state":"CA","address":"942 Mission Street","name":""},
  {"lat":37.656154,"lon":-122.400598,"city":"South San Francisco","state":"CA","address":"300 Gateway Blvd.","name":""},
  {"lat":37.724514,"lon":-122.242279,"city":"Alameda","state":"CA","address":"1700 Harbor Bay Parkway","name":""},
  {"lat":37.945637,"lon":-121.696762,"city":"Brentwood","state":"CA","address":"7605 Brentwood Boulevard","name":""},
  {"lat":37.484829,"lon":-121.940102,"city":"Fremont","state":"CA","address":"46500 Landing Parkway","name":""},
  {"lat":36.98632,"lon":-121.556501,"city":"Gilroy","state":"CA","address":"5975 Travel Park Circle","name":""},
  {"lat":37.66573,"lon":-122.079132,"city":"Hayward","state":"CA","address":"24137 Mission Boulevard","name":""},
  {"lat":37.812458,"lon":-121.293312,"city":"Lathrop","state":"CA","address":"103 East Louise Avenue","name":""},
  {"lat":37.702663,"lon":-121.816582,"city":"Livermore","state":"CA","address":"2850 Constitution Drive","name":""},
  {"lat":37.7805,"lon":-121.2224,"city":"Manteca","state":"CA","address":"1461 Bass Pro Drive","name":""},
  {"lat":36.694868,"lon":-121.802992,"city":"Marina","state":"CA","address":"120 Reservation Rd","name":""},
  {"lat":37.423374,"lon":-121.919884,"city":"Milpitas","state":"CA","address":"215 Barber Court","name":""},
  {"lat":36.605761,"lon":-121.86004,"city":"Monterey","state":"CA","address":"2401 Del Monte Avenue","name":""},
  {"lat":37.121067,"lon":-121.624229,"city":"Morgan Hill","state":"CA","address":"16115 Condit Road","name":""},
  {"lat":37.39892,"lon":-122.075086,"city":"Mountain View","state":"CA","address":"390 Moffett Blvd.","name":""},
  {"lat":37.8017,"lon":-122.270568,"city":"Oakland","state":"CA","address":"378 11th Street","name":""},
  {"lat":37.465203,"lon":-121.16712,"city":"Patterson","state":"CA","address":"2467 Sperry Avenue","name":""},
  {"lat":37.70021,"lon":-121.06919,"city":"Salida","state":"CA","address":"4921 Sisk Road","name":""},
  {"lat":36.6702,"lon":-121.6416,"city":"Salinas","state":"CA","address":"523 Work Street","name":""},
  {"lat":37.376209,"lon":-121.919772,"city":"San Jose","state":"CA","address":"2088 North First Street","name":""},
  {"lat":37.25708,"lon":-121.8709,"city":"San Jose","state":"CA","address":"5190 Cherry Ave","name":""},
  {"lat":37.543918,"lon":-122.285767,"city":"San Mateo","state":"CA","address":"2940 S. Norfolk Street","name":""},
  {"lat":36.985138,"lon":-122.023666,"city":"Santa Cruz","state":"CA","address":"1505 Ocean Street","name":""},
  {"lat":36.960943,"lon":-122.049069,"city":"Santa Cruz","state":"CA","address":"2424 Mission Street","name":""},
  {"lat":37.905889,"lon":-121.219746,"city":"Stockton","state":"CA","address":"3651 Arch Rd.","name":""},
  {"lat":37.354254,"lon":-122.014928,"city":"Sunnyvale","state":"CA","address":"861 E. El Camino Real","name":""},
  {"lat":37.75639,"lon":-121.46135,"city":"Tracy","state":"CA","address":"2400 Naglee Road","name":""},
  {"lat":37.597428,"lon":-122.070006,"city":"Union City","state":"CA","address":"31040 Alvarado-Niles Road","name":""},
  {"lat":36.895433,"lon":-121.778612,"city":"Watsonville","state":"CA","address":"75 Lee Road","name":""},
  {"lat":38.236008,"lon":-122.631374,"city":"Petaluma","state":"CA","address":"450 Jefferson St","name":""},
  {"lat":38.3495,"lon":-122.7169,"city":"Rohnert Park","state":"CA","address":"6248 Redwood Drive","name":""},
  {"lat":38.481863,"lon":-122.738303,"city":"Santa Rosa","state":"CA","address":"3815 Airway Dr.","name":""},
  {"lat":39.135,"lon":-123.1988,"city":"Ukiah","state":"CA","address":"1160 Airport Park Boulevard","name":""},
  {"lat":38.548865,"lon":-122.807921,"city":"Windsor","state":"CA","address":"8937 Brooks Road South","name":""},
  {"lat":37.97024,"lon":-122.046067,"city":"Concord","state":"CA","address":"1785 Pine Street","name":""},
  {"lat":38.426792,"lon":-121.48214,"city":"Elk Grove","state":"CA","address":"2305 Longport Ct","name":""},
  {"lat":38.6446,"lon":-121.1116,"city":"Folsom","state":"CA","address":"155 Placerville Road","name":""},
  {"lat":38.117393,"lon":-121.255379,"city":"Lodi","state":"CA","address":"1337 South Beckman Road","name":""},
  {"lat":38.282076,"lon":-122.281339,"city":"Napa","state":"CA","address":"945 Hartle Court","name":""},
  {"lat":38.013641,"lon":-121.869911,"city":"Pittsburg","state":"CA","address":"1201 California Avenue","name":""},
  {"lat":38.59087,"lon":-121.28566,"city":"Rancho Cordova","state":"CA","address":"10755 Gold Center Drive","name":""},
  {"lat":38.551724,"lon":-121.42529,"city":"Sacramento","state":"CA","address":"1875 65th Street","name":""},
  {"lat":38.653946,"lon":-121.530235,"city":"Sacramento","state":"CA","address":"3021 Advantage Way","name":""},
  {"lat":38.624729,"lon":-121.412987,"city":"Sacramento","state":"CA","address":"2230 Auburn Blvd.","name":""},
  {"lat":38.242117,"lon":-122.039383,"city":"Suisun City","state":"CA","address":"2 Harbor Center","name":""},
  {"lat":38.1436,"lon":-122.23374,"city":"Vallejo","state":"CA","address":"1596 Fairgrounds Dr","name":""},
  {"lat":38.5906,"lon":-121.5566,"city":"West Sacramento","state":"CA","address":"800 Stillwater Road","name":""},
  {"lat":38.675064,"lon":-121.726646,"city":"Woodland","state":"CA","address":"2060 Freeway Drive","name":""},
  {"lat":39.136169,"lon":-121.637192,"city":"Yuba City","state":"CA","address":"1375 Sunsweet Blvd","name":""},
  {"lat":39.1992,"lon":-119.7774,"city":"Carson City","state":"NV","address":"10 Hospitality Way","name":""},
  {"lat":36.801846,"lon":-119.698706,"city":"Clovis","state":"CA","address":"855 Gettysburg Avenue","name":""},
  {"lat":36.838566,"lon":-119.782722,"city":"Fresno","state":"CA","address":"327 E. Fir Avenue","name":""},
  {"lat":36.833714,"lon":-119.917557,"city":"Fresno","state":"CA","address":"7194 Kathryn Avenue","name":""},
  {"lat":36.763503,"lon":-119.720308,"city":"Fresno","state":"CA","address":"1515 N Peach Ave","name":""},
  {"lat":36.995922,"lon":-120.110527,"city":"Madera","state":"CA","address":"3254 Airport Dr","name":""},
  {"lat":37.28582,"lon":-120.452621,"city":"Merced","state":"CA","address":"225 South Parsons Avenue","name":""},
  {"lat":37.339461,"lon":-119.644411,"city":"Oakhurst","state":"CA","address":"40740 Highway 41","name":""},
  {"lat":36.580842,"lon":-119.635671,"city":"Selma","state":"CA","address":"3410 Floral Avenue","name":""},
  {"lat":38.951461,"lon":-119.950276,"city":"South Lake Tahoe","state":"CA","address":"3838 Lake Tahoe Blvd","name":""},
  {"lat":37.476114,"lon":-120.850695,"city":"Turlock","state":"CA","address":"1821 Lander Ave","name":""},
  {"lat":33.803037,"lon":-117.907046,"city":"Anaheim","state":"CA","address":"100 W. Katella Avenue","name":""},
  {"lat":34.141323,"lon":-118.023438,"city":"Arcadia","state":"CA","address":"311 E. Huntington Drive","name":""},
  {"lat":33.927925,"lon":-116.943199,"city":"Banning","state":"CA","address":"6071 Joshua Palmer Way","name":""},
  {"lat":34.84507,"lon":-117.08345,"city":"Barstow","state":"CA","address":"2710 Lenwood Road","name":""},
  {"lat":34.244303,"lon":-116.889791,"city":"Big Bear Lake","state":"CA","address":"41820 Big Bear Boulevard","name":""},
  {"lat":33.873756,"lon":-118.005211,"city":"Buena Park","state":"CA","address":"7307 Artesia Blvd.","name":""},
  {"lat":33.786,"lon":-116.459,"city":"Cathedral City","state":"CA","address":"36101 Date Palm Dr.","name":""},
  {"lat":34.0105,"lon":-117.7374,"city":"Chino Hills","state":"CA","address":"3150 Chino Avenue","name":""},
  {"lat":33.819,"lon":-117.518,"city":"Corona","state":"CA","address":"3989 Bedford Canyon Road","name":""},
  {"lat":33.803977,"lon":-118.016331,"city":"Cypress","state":"CA","address":"10900 Yamaha Way","name":""},
  {"lat":33.792399,"lon":-117.91526,"city":"Garden Grove","state":"CA","address":"11747 Harbor Blvd.","name":""},
  {"lat":33.936079,"lon":-117.274085,"city":"Moreno Valley","state":"CA","address":"12611 Memorial Way","name":""},
  {"lat":33.90377,"lon":-117.563271,"city":"Norco","state":"CA","address":"1530 Hamner Ave.","name":""},
  {"lat":34.0706,"lon":-117.5516,"city":"Ontario","state":"CA","address":"4500 East Mills Circle","name":""},
  {"lat":34.066,"lon":-117.585,"city":"Ontario","state":"CA","address":"535 N. TURNER AVENUE","name":""},
  {"lat":33.783121,"lon":-116.35682,"city":"Palm Desert","state":"CA","address":"74900 Gerald Ford Drive","name":""},
  {"lat":34.10588,"lon":-117.550348,"city":"Rancho Cucamonga","state":"CA","address":"11669 Foothill Blvd.","name":""},
  {"lat":35.641502,"lon":-117.667526,"city":"Ridgecrest","state":"CA","address":"104 East Sydnor Avenue","name":""},
  {"lat":33.9042,"lon":-117.495,"city":"Riverside","state":"CA","address":"4250 Riverwalk Parkway","name":""},
  {"lat":33.985298,"lon":-117.374344,"city":"Riverside","state":"CA","address":"3505 Market Street","name":""},
  {"lat":33.889576,"lon":-117.27554,"city":"Riverside","state":"CA","address":"22440 Van Buren Blvd","name":""},
  {"lat":34.0692,"lon":-117.2663,"city":"San Bernardino","state":"CA","address":"895 East Hospitality Lane","name":""},
  {"lat":33.7594,"lon":-118.078,"city":"Seal Beach","state":"CA","address":"2401 Seal Beach Blvd","name":""},
  {"lat":34.072614,"lon":-117.8795,"city":"West Covina","state":"CA","address":"3145 E. Garvey Ave. N.","name":""},
  {"lat":35.9969,"lon":-115.126,"city":"Henderson","state":"NV","address":"3245 St. Rose Parkway","name":""},
  {"lat":36.056972,"lon":-115.039609,"city":"Henderson","state":"NV","address":"421 Astaire Drive","name":""},
  {"lat":35.22266,"lon":-114.037209,"city":"Kingman","state":"AZ","address":"1791 Sycamore Avenue","name":""},
  {"lat":34.478653,"lon":-114.351112,"city":"Lake Havasu City","state":"AZ","address":"245 London Bridge Road","name":""},
  {"lat":36.0702,"lon":-115.1187,"city":"Las Vegas","state":"NV","address":"6575 South Eastern Avenue","name":""},
  {"lat":36.126585,"lon":-115.146646,"city":"Las Vegas","state":"NV","address":"755 Sierra Vista Dr.","name":""},
  {"lat":36.1131,"lon":-115.304,"city":"Las Vegas","state":"NV","address":"4280 South Grand Canyon Dr","name":""},
  {"lat":36.046475,"lon":-115.169807,"city":"Las Vegas","state":"NV","address":"7850 Giles Street","name":""},
  {"lat":36.214555,"lon":-115.25023,"city":"Las Vegas","state":"NV","address":"7100 Cascade Valley Court","name":""},
  {"lat":36.099374,"lon":-115.182155,"city":"Las Vegas","state":"NV","address":"4975 S. Dean Martin Dr.","name":""},
  {"lat":34.84822,"lon":-114.615665,"city":"Needles","state":"CA","address":"1803 Needles Hwy","name":""},
  {"lat":36.24118,"lon":-115.110229,"city":"North Las Vegas","state":"NV","address":"2852 East Craig Road","name":""},
  {"lat":34.150026,"lon":-114.285958,"city":"Parker","state":"AZ","address":"1110 S Geronimo Ave","name":""},
  {"lat":37.676988,"lon":-113.062034,"city":"Cedar City","state":"UT","address":"60 South Main St.","name":""},
  {"lat":37.661003,"lon":-113.08199,"city":"Cedar City","state":"UT","address":"1145 S. Bentley Boulevard","name":""},
  {"lat":37.046711,"lon":-112.525965,"city":"Kanab","state":"UT","address":"98 S 100 E","name":""},
  {"lat":36.80744,"lon":-114.10385,"city":"Mesquite","state":"NV","address":"1030 W Pioneer Blvd","name":""},
  {"lat":37.189472,"lon":-112.996201,"city":"Springdale","state":"UT","address":"1127 Zion Park Boulevard","name":""},
  {"lat":37.030092,"lon":-113.609633,"city":"St George","state":"UT","address":"1250 West SunRiver Parkway","name":""},
  {"lat":37.1094,"lon":-113.5546,"city":"St George","state":"UT","address":"53 North River Road","name":""},
  {"lat":44.044217,"lon":-121.318154,"city":"Bend","state":"OR","address":"730 SW Columbia Street","name":""},
  {"lat":39.729867,"lon":-121.809335,"city":"Chico","state":"CA","address":"1651 Springfield Drive","name":""},
  {"lat":44.047226,"lon":-123.150772,"city":"Eugene","state":"OR","address":"3780 W. 11th Avenue","name":""},
  {"lat":42.463247,"lon":-123.321818,"city":"Grants Pass","state":"OR","address":"110 NE Morgan Lane","name":""},
  {"lat":42.3468,"lon":-122.872,"city":"Medford","state":"OR","address":"1122 Morrow Road","name":""},
  {"lat":39.49957,"lon":-121.56994,"city":"Oroville","state":"CA","address":"2355 Feather River Blvd","name":""},
  {"lat":40.189854,"lon":-122.237625,"city":"Red Bluff","state":"CA","address":"520 Adobe Road","name":""},
  {"lat":40.577343,"lon":-122.355797,"city":"Redding","state":"CA","address":"2160 Larkspur Lane","name":""},
  {"lat":44.240074,"lon":-121.193773,"city":"Redmond","state":"OR","address":"3901 SW 21st Street","name":""},
  {"lat":39.4269,"lon":-119.7525,"city":"Reno","state":"NV","address":"10599 Professional Circle","name":""},
  {"lat":39.517325,"lon":-119.888509,"city":"Reno","state":"NV","address":"900 Ambassador Drive","name":""},
  {"lat":43.229096,"lon":-123.360232,"city":"Roseburg","state":"OR","address":"1620 NW Mulholland Dr","name":""},
  {"lat":44.925012,"lon":-122.994076,"city":"Salem","state":"OR","address":"510 Hawthorne Avenue SE","name":""},
  {"lat":39.532369,"lon":-119.723866,"city":"Sparks","state":"NV","address":"200 Legends Bay Drive","name":""},
  {"lat":43.612326,"lon":-116.205332,"city":"Boise","state":"ID","address":"495 S Capitol Blvd.","name":""},
  {"lat":43.589443,"lon":-116.275124,"city":"Boise","state":"ID","address":"7499 West Overland Road","name":""},
  {"lat":43.572662,"lon":-116.217674,"city":"Boise","state":"ID","address":"3270 South Shoshone","name":""},
  {"lat":42.548273,"lon":-113.80072,"city":"Burley","state":"ID","address":"560 Hampton Drive","name":""},
  {"lat":40.831682,"lon":-115.78311,"city":"Elko","state":"NV","address":"674 Cimarron Way","name":""},
  {"lat":43.597473,"lon":-116.358253,"city":"Meridian","state":"ID","address":"875 South Allen Street","name":""},
  {"lat":43.14108,"lon":-115.658958,"city":"Mountain Home","state":"ID","address":"3175 NE Foothills Avenue","name":""},
  {"lat":43.605137,"lon":-116.5077,"city":"Nampa","state":"ID","address":"5750 East Franklin Road","name":""},
  {"lat":42.591744,"lon":-114.464868,"city":"Twin Falls","state":"ID","address":"1658 Fillmore Street North","name":""},
  {"lat":41.097852,"lon":-114.961384,"city":"Wells","state":"NV","address":"1091 Cobre St","name":""},
  {"lat":33.287,"lon":-111.8906,"city":"Chandler","state":"AZ","address":"1231 South Spectrum Boulevard","name":""},
  {"lat":33.306587,"lon":-111.968422,"city":"Chandler","state":"AZ","address":"7333 W. Detroit Street","name":""},
  {"lat":32.273977,"lon":-107.718754,"city":"Deming","state":"NM","address":"3751 E Cedar Street","name":""},
  {"lat":33.383023,"lon":-111.718685,"city":"Gilbert","state":"AZ","address":"1825 N. Higley Road","name":""},
  {"lat":33.2922,"lon":-111.7545,"city":"Gilbert","state":"AZ","address":"3265 South Market Street","name":""},
  {"lat":33.5318,"lon":-112.2649,"city":"Glendale","state":"AZ","address":"6630 North 95th Avenue","name":""},
  {"lat":33.4677,"lon":-112.3586,"city":"Goodyear","state":"AZ","address":"2000 N. Litchfield Road","name":""},
  {"lat":32.345854,"lon":-108.715774,"city":"Lordsburg","state":"NM","address":"412 Wabash","name":""},
  {"lat":33.635592,"lon":-112.23554,"city":"Peoria","state":"AZ","address":"8408 W. Paradise Lane","name":""},
  {"lat":33.45213,"lon":-112.072922,"city":"Phoenix","state":"AZ","address":"77 E Polk St","name":""},
  {"lat":33.707143,"lon":-112.114685,"city":"Phoenix","state":"AZ","address":"2550 West Charlotte Drive","name":""},
  {"lat":33.454838,"lon":-111.987017,"city":"Phoenix","state":"AZ","address":"601 North 44th Street","name":""},
  {"lat":33.50634,"lon":-112.032028,"city":"Phoenix","state":"AZ","address":"2310 East Highland Avenue","name":""},
  {"lat":33.482341,"lon":-112.07578,"city":"Phoenix","state":"AZ","address":"160 W. Catalina Drive","name":""},
  {"lat":33.254674,"lon":-111.635362,"city":"Queen Creek","state":"AZ","address":"20768 E. Maya Road","name":""},
  {"lat":33.637191,"lon":-111.927503,"city":"Scottsdale","state":"AZ","address":"16620 North Scottsdale Road","name":""},
  {"lat":33.57711,"lon":-111.925423,"city":"Scottsdale","state":"AZ","address":"10101 North Scottsdale Road","name":""},
  {"lat":33.539752,"lon":-111.87726,"city":"Scottsdale","state":"AZ","address":"9550 E. Talking Stick Way","name":""},
  {"lat":31.539513,"lon":-110.256378,"city":"Sierra Vista","state":"AZ","address":"4100 Snyder Boulevard","name":""},
  {"lat":33.658203,"lon":-112.37738,"city":"Surprise","state":"AZ","address":"14783 West Grand Avenue","name":""},
  {"lat":33.444619,"lon":-111.926254,"city":"Tempe","state":"AZ","address":"1415 N. Scottsdale Road","name":""},
  {"lat":33.412113,"lon":-111.97006,"city":"Tempe","state":"AZ","address":"1550 S. 52nd Street","name":""},
  {"lat":32.2183,"lon":-110.8574,"city":"Tucson","state":"AZ","address":"251 South Wilmot Road","name":""},
  {"lat":32.37799,"lon":-111.099715,"city":"Tucson","state":"AZ","address":"6300 W Marana Center Blvd","name":""},
  {"lat":32.086969,"lon":-110.803724,"city":"Tucson","state":"AZ","address":"9095 S Rita Rd","name":""},
  {"lat":32.314682,"lon":-110.976265,"city":"Tucson","state":"AZ","address":"5950 North Oracle Road","name":""},
  {"lat":32.21941,"lon":-110.97057,"city":"Tucson","state":"AZ","address":"141 South Stone Ave.","name":""},
  {"lat":32.125313,"lon":-110.933739,"city":"Tucson","state":"AZ","address":"6971 S. Tucson Boulevard","name":""},
  {"lat":32.875011,"lon":-105.960915,"city":"Alamogordo","state":"NM","address":"1295 Hamilton Road","name":""},
  {"lat":30.351,"lon":-103.6908,"city":"Alpine","state":"TX","address":"2607 West Highway 90","name":""},
  {"lat":32.845621,"lon":-104.428148,"city":"Artesia","state":"NM","address":"2501 South Permian Pavilion Loop","name":""},
  {"lat":32.2622,"lon":-101.492,"city":"Big Spring","state":"TX","address":"805 West I-20 Highway","name":""},
  {"lat":32.3953,"lon":-104.2223,"city":"Carlsbad","state":"NM","address":"120 Esperanza Circle","name":""},
  {"lat":31.8833,"lon":-106.5828,"city":"El Paso","state":"TX","address":"6411 South Desert Boulevard","name":""},
  {"lat":31.780976,"lon":-106.39595,"city":"El Paso","state":"TX","address":"6635 Gateway Blvd. West","name":""},
  {"lat":31.72044,"lon":-106.302502,"city":"El Paso","state":"TX","address":"12055 Gateway West Boulevard","name":""},
  {"lat":30.9039,"lon":-102.903,"city":"Fort Stockton","state":"TX","address":"2271 West Interstate 10","name":""},
  {"lat":32.757005,"lon":-103.17698,"city":"Hobbs","state":"NM","address":"5420 Lovington Highway","name":""},
  {"lat":32.292108,"lon":-106.793094,"city":"Las Cruces","state":"NM","address":"1641 Hickory Loop","name":""},
  {"lat":32.3172,"lon":-106.7511,"city":"Las Cruces","state":"NM","address":"2350 East Griggs Avenue","name":""},
  {"lat":33.543015,"lon":-101.938004,"city":"Lubbock","state":"TX","address":"5614 Englewood Avenue","name":""},
  {"lat":33.593156,"lon":-101.878841,"city":"Lubbock","state":"TX","address":"2828 Marsha Sharp Freeway","name":""},
  {"lat":33.528282,"lon":-101.89855,"city":"Lubbock","state":"TX","address":"4003 South Loop 289","name":""},
  {"lat":31.974722,"lon":-102.077512,"city":"Midland","state":"TX","address":"2201 Camp Street","name":""},
  {"lat":31.991,"lon":-102.16,"city":"Midland","state":"TX","address":"1107 Windhaven Drive","name":""},
  {"lat":31.572405,"lon":-102.896929,"city":"Monahans","state":"TX","address":"2021 South Ilda Avenue","name":""},
  {"lat":31.888047,"lon":-102.3328,"city":"Odessa","state":"TX","address":"3923 John Ben Sheppard Pkwy","name":""},
  {"lat":31.397403,"lon":-103.517786,"city":"Pecos","state":"TX","address":"215 South Frontage Road","name":""},
  {"lat":33.444272,"lon":-104.52294,"city":"Roswell","state":"NM","address":"3607 North Main","name":""},
  {"lat":33.325946,"lon":-105.62304,"city":"Ruidoso Downs","state":"NM","address":"26141 US Hwy 70 E","name":""},
  {"lat":31.0346,"lon":-104.8618,"city":"Van Horn","state":"TX","address":"1921 SW Frontage Road","name":""},
  {"lat":27.769864,"lon":-98.039308,"city":"Alice","state":"TX","address":"3135 East Main Street","name":""},
  {"lat":25.959592,"lon":-97.5081,"city":"Brownsville","state":"TX","address":"3000 N. Expressway","name":""},
  {"lat":27.703021,"lon":-97.366093,"city":"Corpus Christi","state":"TX","address":"5879 South Padre Island Drive","name":""},
  {"lat":27.8033,"lon":-97.4536,"city":"Corpus Christi","state":"TX","address":"917 North Navigation Boulevard","name":""},
  {"lat":27.85009,"lon":-97.584121,"city":"Corpus Christi","state":"TX","address":"11233 Interstate Highway 37","name":""},
  {"lat":26.168924,"lon":-97.675875,"city":"Harlingen","state":"TX","address":"1202 Ed Carey Drive","name":""},
  {"lat":27.4948,"lon":-97.846,"city":"Kingsville","state":"TX","address":"2489 South U.S. Hwy 77","name":""},
  {"lat":27.5734,"lon":-99.501344,"city":"Laredo","state":"TX","address":"7903 San Dario","name":""},
  {"lat":26.188414,"lon":-98.221547,"city":"McAllen","state":"TX","address":"10 West Expressway 83","name":""},
  {"lat":26.1983,"lon":-98.2819,"city":"Mission","state":"TX","address":"2505 Victoria Drive","name":""},
  {"lat":26.2335,"lon":-98.1792,"city":"Pharr","state":"TX","address":"300 West Nolana Loop","name":""},
  {"lat":27.816671,"lon":-97.076408,"city":"Port Aransas","state":"TX","address":"2208 Highway 361","name":""},
  {"lat":27.894055,"lon":-97.310986,"city":"Portland","state":"TX","address":"1801 Highway 181","name":""},
  {"lat":28.067869,"lon":-97.0419,"city":"Rockport","state":"TX","address":"3677 Highway 35 North","name":""},
  {"lat":26.171385,"lon":-98.013286,"city":"Weslaco","state":"TX","address":"1004 Fairfield Blvd","name":""},
  {"lat":29.777367,"lon":-98.73584,"city":"Boerne","state":"TX","address":"34935 IH-10 West","name":""},
  {"lat":28.545955,"lon":-99.843714,"city":"Carrizo Springs","state":"TX","address":"2651 North US HIghway 83","name":""},
  {"lat":28.443893,"lon":-99.243684,"city":"Cotulla","state":"TX","address":"659 North Baylor Avenue","name":""},
  {"lat":29.392458,"lon":-100.900772,"city":"Del Rio","state":"TX","address":"2219 Bedell Avenue","name":""},
  {"lat":28.710501,"lon":-100.462396,"city":"Eagle Pass","state":"TX","address":"3301 E. Main Street","name":""},
  {"lat":30.27004,"lon":-98.86507,"city":"Fredericksburg","state":"TX","address":"515 East Main Street","name":""},
  {"lat":30.068177,"lon":-99.114407,"city":"Kerrville","state":"TX","address":"2038 Sidney Baker Street","name":""},
  {"lat":30.706901,"lon":-101.205171,"city":"Ozona","state":"TX","address":"816 14th Street","name":""},
  {"lat":28.941465,"lon":-98.510886,"city":"Pleasanton","state":"TX","address":"2057 West Oaklawn Road","name":""},
  {"lat":29.434677,"lon":-98.653747,"city":"San Antonio","state":"TX","address":"1719 Cable Ranch Road","name":""},
  {"lat":29.547564,"lon":-98.58546,"city":"San Antonio","state":"TX","address":"11426 IH-10 West","name":""},
  {"lat":29.425646,"lon":-98.492929,"city":"San Antonio","state":"TX","address":"118 Soledad Street","name":""},
  {"lat":29.522135,"lon":-98.483398,"city":"San Antonio","state":"TX","address":"8902 Jones Maltsberger Rd.","name":""},
  {"lat":29.420531,"lon":-98.496502,"city":"San Antonio","state":"TX","address":"411 South Flores Street","name":""},
  {"lat":29.605438,"lon":-98.457616,"city":"San Antonio","state":"TX","address":"2127 Gold Canyon Drive","name":""},
  {"lat":29.426611,"lon":-98.482651,"city":"San Antonio","state":"TX","address":"414 Bowie Street","name":""},
  {"lat":29.229302,"lon":-99.756677,"city":"Uvalde","state":"TX","address":"2714 E. Main Street","name":""},
  {"lat":30.279547,"lon":-97.741202,"city":"Austin","state":"TX","address":"1701 Lavaca Street","name":""},
  {"lat":30.463366,"lon":-97.803651,"city":"Austin","state":"TX","address":"10811 Pecan Park Blvd","name":""},
  {"lat":30.263773,"lon":-97.741901,"city":"Austin","state":"TX","address":"200 San Jacinto Blvd.","name":""},
  {"lat":30.217155,"lon":-97.689095,"city":"Austin","state":"TX","address":"7712 E. Riverside Drive","name":""},
  {"lat":30.259,"lon":-97.72,"city":"Austin","state":"TX","address":"2033 E. 5th Street","name":""},
  {"lat":30.39857,"lon":-97.73413,"city":"Austin","state":"TX","address":"3908 West Braker Lane","name":""},
  {"lat":30.33712,"lon":-97.70092,"city":"Austin","state":"TX","address":"7619 I-35 North","name":""},
  {"lat":30.214613,"lon":-97.748894,"city":"Austin","state":"TX","address":"4141 Governors Row","name":""},
  {"lat":30.234732,"lon":-97.862482,"city":"Austin","state":"TX","address":"6401 West US Hwy 290","name":""},
  {"lat":30.103,"lon":-97.3349,"city":"Bastrop","state":"TX","address":"240 South Hasler Boulevard","name":""},
  {"lat":28.9857,"lon":-95.9355,"city":"Bay City","state":"TX","address":"4617 7th Street","name":""},
  {"lat":28.405646,"lon":-97.734916,"city":"Beeville","state":"TX","address":"301 South Hall Street","name":""},
  {"lat":30.1386,"lon":-96.3996,"city":"Brenham","state":"TX","address":"2605 Schulte Boulevard","name":""},
  {"lat":30.084563,"lon":-97.827531,"city":"Buda","state":"TX","address":"1201 Cabela's Drive","name":""},
  {"lat":30.52524,"lon":-97.82427,"city":"Cedar Park","state":"TX","address":"700 Central Park Drive","name":""},
  {"lat":30.6408,"lon":-96.3078,"city":"College Station","state":"TX","address":"925 Earl Rudder Freeway South","name":""},
  {"lat":30.628647,"lon":-96.337044,"city":"College Station","state":"TX","address":"320 Texas Ave., S.","name":""},
  {"lat":30.639275,"lon":-97.68705,"city":"Georgetown","state":"TX","address":"160 River Oaks Cove","name":""},
  {"lat":29.789911,"lon":-95.690399,"city":"Houston","state":"TX","address":"18014 Park Row Drive","name":""},
  {"lat":30.544717,"lon":-97.561828,"city":"Hutto","state":"TX","address":"327 Ed Schmidt Boulevard","name":""},
  {"lat":29.783509,"lon":-95.754086,"city":"Katy","state":"TX","address":"22055 Katy Freeway","name":""},
  {"lat":28.84132,"lon":-97.87118,"city":"Kenedy","state":"TX","address":"4091 South US Hwy 181","name":""},
  {"lat":30.009019,"lon":-97.861124,"city":"Kyle","state":"TX","address":"151 Bunton Creek Rd","name":""},
  {"lat":29.902299,"lon":-96.901606,"city":"La Grange","state":"TX","address":"1624 W State Hwy 71","name":""},
  {"lat":30.3429,"lon":-97.9668,"city":"Lakeway","state":"TX","address":"2013 Ranch Road 620 South","name":""},
  {"lat":29.6979,"lon":-98.0902,"city":"New Braunfels","state":"TX","address":"575 Hwy 46 South","name":""},
  {"lat":28.634383,"lon":-96.624614,"city":"Port Lavaca","state":"TX","address":"1788 STATE HWY 35 N","name":""},
  {"lat":29.545,"lon":-95.7601,"city":"Rosenberg","state":"TX","address":"3312 Vista Drive","name":""},
  {"lat":30.486806,"lon":-97.669545,"city":"Round Rock","state":"TX","address":"110 Dell Way","name":""},
  {"lat":29.346428,"lon":-98.429237,"city":"San Antonio","state":"TX","address":"8202 City Base Landing","name":""},
  {"lat":29.4917,"lon":-98.4009,"city":"San Antonio","state":"TX","address":"6718 N Interstate 35","name":""},
  {"lat":29.870758,"lon":-97.93633,"city":"San Marcos","state":"TX","address":"106 I H 35","name":""},
  {"lat":29.600644,"lon":-98.274819,"city":"Schertz","state":"TX","address":"17702 IH-35 North","name":""},
  {"lat":29.6017,"lon":-97.9518,"city":"Seguin","state":"TX","address":"1130 Larkin Ave","name":""},
  {"lat":29.572524,"lon":-98.329643,"city":"Selma","state":"TX","address":"14655 IH-35N Access Road","name":""},
  {"lat":29.806172,"lon":-98.420192,"city":"Spring Branch","state":"TX","address":"499 Singing Oaks","name":""},
  {"lat":29.60964,"lon":-95.64893,"city":"Sugar Land","state":"TX","address":"218 Promenade Way","name":""},
  {"lat":30.084814,"lon":-95.634133,"city":"Tomball","state":"TX","address":"14100 Medical Complex Drive","name":""},
  {"lat":28.861221,"lon":-96.995796,"city":"Victoria","state":"TX","address":"7006 North Navarro","name":""},
  {"lat":29.328288,"lon":-96.119053,"city":"Wharton","state":"TX","address":"2019 FM 102 Rd","name":""},
  {"lat":32.492428,"lon":-99.723778,"city":"Abilene","state":"TX","address":"3526 West Lake Road","name":""},
  {"lat":32.4042,"lon":-99.7653,"city":"Abilene","state":"TX","address":"3917 Ridgemont Drive","name":""},
  {"lat":31.7289,"lon":-98.9774,"city":"Brownwood","state":"TX","address":"1103 Riverside Drive","name":""},
  {"lat":31.4197,"lon":-100.485,"city":"San Angelo","state":"TX","address":"2959 W Loop 306","name":""},
  {"lat":32.703046,"lon":-100.878937,"city":"Snyder","state":"TX","address":"1801 East Roby Highway","name":""},
  {"lat":32.4512,"lon":-100.3927,"city":"Sweetwater","state":"TX","address":"302 SE Georgia Avenue","name":""},
  {"lat":32.330902,"lon":-97.43502,"city":"Cleburne","state":"TX","address":"1996 West Henderson Street","name":""},
  {"lat":31.068672,"lon":-97.666383,"city":"Harker Heights","state":"TX","address":"126 E. Central Texas Expressway","name":""},
  {"lat":32.2052,"lon":-98.2184,"city":"Stephenville","state":"TX","address":"910 South Harbin Drive","name":""},
  {"lat":31.091238,"lon":-97.389999,"city":"Temple","state":"TX","address":"3816 South General Bruce Drive","name":""},
  {"lat":31.4962,"lon":-97.1517,"city":"Waco","state":"TX","address":"2501 Marketplace Drive","name":""},
  {"lat":31.602041,"lon":-97.108697,"city":"Waco","state":"TX","address":"4259 North I-35","name":""},
  {"lat":31.448669,"lon":-96.076064,"city":"Buffalo","state":"TX","address":"2624 West Commerce Street","name":""},
  {"lat":32.0731,"lon":-96.4424,"city":"Corsicana","state":"TX","address":"623 Bryant's Way","name":""},
  {"lat":32.7632,"lon":-97.073,"city":"Arlington","state":"TX","address":"2200 Brookhollow Plaza Drive","name":""},
  {"lat":32.6767,"lon":-97.0901,"city":"Arlington","state":"TX","address":"1100 East I-20","name":""},
  {"lat":32.886909,"lon":-97.1003,"city":"Colleyville","state":"TX","address":"5300 State HWY 121","name":""},
  {"lat":33.232832,"lon":-97.596303,"city":"Decatur","state":"TX","address":"110 South U.S. Highway 287","name":""},
  {"lat":33.195918,"lon":-97.128947,"city":"Denton","state":"TX","address":"1513 Centre Place Drive","name":""},
  {"lat":32.6606,"lon":-97.2781,"city":"Forest Hill","state":"TX","address":"6555 Park Brook","name":""},
  {"lat":32.751773,"lon":-97.32817,"city":"Fort Worth","state":"TX","address":"1001 Commerce Street","name":""},
  {"lat":32.841599,"lon":-97.301453,"city":"Fort Worth","state":"TX","address":"3850 Sandshell Drive","name":""},
  {"lat":32.734695,"lon":-97.43512,"city":"Fort Worth","state":"TX","address":"2700 Green Oaks Road","name":""},
  {"lat":32.5644,"lon":-97.3164,"city":"Fort Worth","state":"TX","address":"13251 Jake Court","name":""},
  {"lat":32.9742,"lon":-97.3069,"city":"Fort Worth","state":"TX","address":"13600 North Freeway","name":""},
  {"lat":32.681113,"lon":-97.402379,"city":"Fort Worth","state":"TX","address":"4799 SW Loop 820","name":""},
  {"lat":32.824465,"lon":-97.059464,"city":"Ft Worth","state":"TX","address":"4201 Reggis Court","name":""},
  {"lat":33.680512,"lon":-97.158232,"city":"Gainesville","state":"TX","address":"4325 North Interstate 35","name":""},
  {"lat":32.9563,"lon":-97.0374,"city":"Grapevine","state":"TX","address":"1750 North Highway 121","name":""},
  {"lat":32.840405,"lon":-97.188436,"city":"Hurst","state":"TX","address":"1600 Hurst Town Center Drive","name":""},
  {"lat":32.931618,"lon":-97.227385,"city":"Keller","state":"TX","address":"200 Town Center Lane","name":""},
  {"lat":32.5871,"lon":-97.1368,"city":"Mansfield","state":"TX","address":"1640 Hwy 287 North","name":""},
  {"lat":32.9863,"lon":-97.1681,"city":"Trophy Club","state":"TX","address":"525 Plaza Drive","name":""},
  {"lat":32.730992,"lon":-97.779768,"city":"Weatherford","state":"TX","address":"864 E Interstate 20","name":""},
  {"lat":32.958,"lon":-96.827,"city":"Addison","state":"TX","address":"4960 Arapaho Rd","name":""},
  {"lat":32.780142,"lon":-96.79639,"city":"Dallas","state":"TX","address":"1700 Commerce Street","name":""},
  {"lat":32.796201,"lon":-96.695583,"city":"Dallas","state":"TX","address":"8605 E R L Thornton Freeway","name":""},
  {"lat":32.769,"lon":-96.895,"city":"Dallas","state":"TX","address":"1718 N Cockrell Hill Rd","name":""},
  {"lat":32.811506,"lon":-96.858195,"city":"Dallas","state":"TX","address":"3051 N Stemmons Freeway","name":""},
  {"lat":32.886985,"lon":-96.768884,"city":"Dallas","state":"TX","address":"10370 North Central Expressway","name":""},
  {"lat":32.6265,"lon":-96.8238,"city":"DeSoto","state":"TX","address":"1311 East Centre Park Boulevard","name":""},
  {"lat":32.66344,"lon":-96.904565,"city":"Duncanville","state":"TX","address":"202 East Interstate Hwy 20","name":""},
  {"lat":32.904451,"lon":-96.92289,"city":"Farmers Branch","state":"TX","address":"1570 Mira Lago Blvd.","name":""},
  {"lat":32.913,"lon":-97.012,"city":"Irving","state":"TX","address":"4500 Plaza Drive","name":""},
  {"lat":32.839651,"lon":-96.953967,"city":"Irving","state":"TX","address":"701 West Airport Freeway","name":""},
  {"lat":32.884763,"lon":-96.960705,"city":"Irving","state":"TX","address":"820 West Walnut Hill Lane","name":""},
  {"lat":32.997,"lon":-96.9664,"city":"Lewisville","state":"TX","address":"2650 Lake Vista Drive","name":""},
  {"lat":32.762866,"lon":-96.622662,"city":"Mesquite","state":"TX","address":"1700 Rodeo Drive","name":""},
  {"lat":33.0402,"lon":-96.70111,"city":"Plano","state":"TX","address":"3316 Central Expressway","name":""},
  {"lat":33.001268,"lon":-96.672756,"city":"Plano","state":"TX","address":"2813 E. President George Bush Hwy","name":""},
  {"lat":32.981254,"lon":-96.706222,"city":"Richardson","state":"TX","address":"2250 N. Glenville Drive","name":""},
  {"lat":32.897816,"lon":-96.47377,"city":"Rockwall","state":"TX","address":"1549 Laguna Drive","name":""},
  {"lat":32.4229,"lon":-96.8645,"city":"Waxahachie","state":"TX","address":"2010 Civic Center Lane","name":""},
  {"lat":33.130428,"lon":-96.662575,"city":"Allen","state":"TX","address":"830 West Stacy Road","name":""},
  {"lat":33.161994,"lon":-96.831667,"city":"Frisco","state":"TX","address":"6070 Sports Village Road","name":""},
  {"lat":33.103593,"lon":-96.816161,"city":"Frisco","state":"TX","address":"3199 Parkwood Boulevard","name":""},
  {"lat":33.221586,"lon":-96.634085,"city":"McKinney","state":"TX","address":"2008 North Central Expressway","name":""},
  {"lat":33.666,"lon":-96.613,"city":"Sherman","state":"TX","address":"305 N Cornerstone Dr","name":""},
  {"lat":33.070445,"lon":-96.87029,"city":"The Colony","state":"TX","address":"3650 Plano Parkway","name":""},
  {"lat":33.0987,"lon":-96.1127,"city":"Greenville","state":"TX","address":"3001 Kari Lane","name":""},
  {"lat":29.0106,"lon":-95.4123,"city":"Clute","state":"TX","address":"1121 Hwy 332","name":""},
  {"lat":29.266249,"lon":-94.830902,"city":"Galveston","state":"TX","address":"6431 Central City Boulevard","name":""},
  {"lat":29.479539,"lon":-95.099471,"city":"League City","state":"TX","address":"2320 Gulf Freeway South","name":""},
  {"lat":29.807051,"lon":-94.982933,"city":"Baytown","state":"TX","address":"7211 Garth Rd.","name":""},
  {"lat":30.3382,"lon":-95.4781,"city":"Conroe","state":"TX","address":"2242 Stoneside Road","name":""},
  {"lat":29.697687,"lon":-95.124908,"city":"Deer Park","state":"TX","address":"1450 Center Street","name":""},
  {"lat":29.940499,"lon":-95.385569,"city":"Houston","state":"TX","address":"707 North Sam Houston Pkwy East","name":""},
  {"lat":29.8242,"lon":-95.169997,"city":"Houston","state":"TX","address":"14120 Karissa Ct","name":""},
  {"lat":29.778286,"lon":-95.428085,"city":"Houston","state":"TX","address":"5820 Katy Freeway","name":""},
  {"lat":29.695108,"lon":-95.404283,"city":"Houston","state":"TX","address":"1715 Old Spanish Trail","name":""},
  {"lat":29.9497,"lon":-95.332,"city":"Houston","state":"TX","address":"15831 John F. Kennedy Blvd","name":""},
  {"lat":30.022751,"lon":-95.432081,"city":"Houston","state":"TX","address":"150 Wagon Point Drive","name":""},
  {"lat":29.75609,"lon":-95.358736,"city":"Houston","state":"TX","address":"710 Crawford Street","name":""},
  {"lat":29.654434,"lon":-95.263433,"city":"Houston","state":"TX","address":"8620 Airport Blvd.","name":""},
  {"lat":29.775551,"lon":-95.243596,"city":"Houston","state":"TX","address":"10505 East Freeway","name":""},
  {"lat":29.783323,"lon":-95.582275,"city":"Houston","state":"TX","address":"11333 Katy Freeway","name":""},
  {"lat":29.8435,"lon":-95.4973,"city":"Houston","state":"TX","address":"12909 Northwest Freeway","name":""},
  {"lat":29.748388,"lon":-95.454414,"city":"Houston","state":"TX","address":"4500 Post Oak Pkwy.","name":""},
  {"lat":29.96389,"lon":-95.543202,"city":"Houston","state":"TX","address":"7645 West FM 1960","name":""},
  {"lat":29.999528,"lon":-95.195886,"city":"Humble","state":"TX","address":"19108 Moon Trail Dr","name":""},
  {"lat":30.012933,"lon":-95.265006,"city":"Humble","state":"TX","address":"20515 Highway 59 North","name":""},
  {"lat":30.711,"lon":-95.567828,"city":"Huntsville","state":"TX","address":"120 Ravenwood Village Drive","name":""},
  {"lat":29.649383,"lon":-95.030922,"city":"La Porte","state":"TX","address":"1328 Highway 146 South","name":""},
  {"lat":29.5787,"lon":-95.5775,"city":"Missouri City","state":"TX","address":"4909 Highway 6","name":""},
  {"lat":29.63821,"lon":-95.160599,"city":"Pasadena","state":"TX","address":"4741 East Sam Houston Parkway South","name":""},
  {"lat":29.559889,"lon":-95.32,"city":"Pearland","state":"TX","address":"6515 Broadway Street","name":""},
  {"lat":29.56008,"lon":-95.039592,"city":"Seabrook","state":"TX","address":"3000 Nasa Road One","name":""},
  {"lat":30.194,"lon":-95.455,"city":"Shenandoah","state":"TX","address":"18200 I-45 South","name":""},
  {"lat":30.104282,"lon":-95.429238,"city":"Spring","state":"TX","address":"23523 Northgate Crossing Blvd","name":""},
  {"lat":29.63418,"lon":-95.584595,"city":"Stafford","state":"TX","address":"4714 Techniplex Dr.","name":""},
  {"lat":29.5458,"lon":-95.1334,"city":"Webster","state":"TX","address":"506 West Bay Area Blvd.","name":""},
  {"lat":29.831564,"lon":-94.382919,"city":"Winnie","state":"TX","address":"318 Spur 5","name":""},
  {"lat":30.0394,"lon":-94.1546,"city":"Beaumont","state":"TX","address":"3795 I-H10 South","name":""},
  {"lat":30.19891,"lon":-93.2406,"city":"Lake Charles","state":"LA","address":"3175 Holly Hill Road","name":""},
  {"lat":30.1221,"lon":-93.7534,"city":"Orange","state":"TX","address":"2080 Interstate 10 West","name":""},
  {"lat":29.9384,"lon":-93.9822,"city":"Port Arthur","state":"TX","address":"7660 Memorial Blvd.","name":""},
  {"lat":30.218137,"lon":-93.375845,"city":"Sulphur","state":"LA","address":"210 Henning Drive","name":""},
  {"lat":30.376486,"lon":-91.05613,"city":"Baton Rouge","state":"LA","address":"11271 Reiger Road","name":""},
  {"lat":30.450986,"lon":-91.189436,"city":"Baton Rouge","state":"LA","address":"462 Lafayette Street","name":""},
  {"lat":30.422365,"lon":-91.137526,"city":"Baton Rouge","state":"LA","address":"4646 Constitution Avenue","name":""},
  {"lat":30.137132,"lon":-91.946487,"city":"Broussard","state":"LA","address":"2280 E. Main Street","name":""},
  {"lat":30.4283,"lon":-90.0788,"city":"Covington","state":"LA","address":"68700 Highway 190 Service Road","name":""},
  {"lat":30.456522,"lon":-90.958166,"city":"Denham Springs","state":"LA","address":"201 Rushing Road West","name":""},
  {"lat":30.209,"lon":-90.9529,"city":"Gonzales","state":"LA","address":"2634 West Outfitters Drive","name":""},
  {"lat":30.501907,"lon":-90.500761,"city":"Hammond","state":"LA","address":"401 Westin Oak Drive","name":""},
  {"lat":29.957862,"lon":-90.184397,"city":"Harahan","state":"LA","address":"5150 Mounes Street","name":""},
  {"lat":29.889394,"lon":-90.057243,"city":"Harvey","state":"LA","address":"1651 5th Street","name":""},
  {"lat":29.61291,"lon":-90.754994,"city":"Houma","state":"LA","address":"1728 Martin Luther King Blvd.","name":""},
  {"lat":30.241333,"lon":-92.657574,"city":"Jennings","state":"LA","address":"310 W Fred Ruth Zigler Memorial Dr.","name":""},
  {"lat":30.191074,"lon":-92.006331,"city":"Lafayette","state":"LA","address":"1910 S. College Road","name":""},
  {"lat":30.087318,"lon":-90.444072,"city":"LaPlace","state":"LA","address":"4288 Highway 51","name":""},
  {"lat":30.001359,"lon":-90.15559,"city":"Metairie","state":"LA","address":"2730 North Causeway Boulevard","name":""},
  {"lat":29.6985,"lon":-91.197,"city":"Morgan City","state":"LA","address":"6365 Highway 182 East","name":""},
  {"lat":29.9854,"lon":-91.8493,"city":"New Iberia","state":"LA","address":"400 Spanish Towne Boulevard","name":""},
  {"lat":29.956434,"lon":-90.074319,"city":"New Orleans","state":"LA","address":"1300 Canal St.","name":""},
  {"lat":29.952116,"lon":-90.070915,"city":"New Orleans","state":"LA","address":"226 Carondelet Street","name":""},
  {"lat":29.939734,"lon":-90.064519,"city":"New Orleans","state":"LA","address":"1201 Convention Center Blvd.","name":""},
  {"lat":29.96286,"lon":-90.056099,"city":"New Orleans","state":"LA","address":"501 Elysian Fields","name":""},
  {"lat":29.927588,"lon":-90.093453,"city":"New Orleans","state":"LA","address":"3626 St. Charles Ave.","name":""},
  {"lat":30.522,"lon":-92.0669,"city":"Opelousas","state":"LA","address":"1700 Commerce Blvd","name":""},
  {"lat":30.4497,"lon":-91.2416,"city":"Port Allen","state":"LA","address":"2755 Commercial Drive","name":""},
  {"lat":30.243926,"lon":-92.065584,"city":"Scott","state":"LA","address":"2144 West Willow Street","name":""},
  {"lat":29.8147,"lon":-90.8145,"city":"Thibodaux","state":"LA","address":"826 North Canal Boulevard","name":""},
  {"lat":32.555253,"lon":-93.708725,"city":"Bossier City","state":"LA","address":"2691 Viking Drive","name":""},
  {"lat":32.518027,"lon":-93.710344,"city":"Bossier City","state":"LA","address":"1005 Gould Drive","name":""},
  {"lat":31.805514,"lon":-94.192812,"city":"Center","state":"TX","address":"141 Express Boulevard","name":""},
  {"lat":33.683975,"lon":-93.617292,"city":"Hope","state":"AR","address":"2700 N. Hervey Street","name":""},
  {"lat":31.111212,"lon":-93.274414,"city":"Leesville","state":"LA","address":"136 Express Blvd","name":""},
  {"lat":32.470175,"lon":-95.388498,"city":"Lindale","state":"TX","address":"3505 South Main","name":""},
  {"lat":32.5423,"lon":-94.7234,"city":"Longview","state":"TX","address":"3044 Eastman Road","name":""},
  {"lat":32.448307,"lon":-94.707804,"city":"Longview","state":"TX","address":"160 Lucy Drive","name":""},
  {"lat":31.282638,"lon":-94.731642,"city":"Lufkin","state":"TX","address":"4400 South First Street","name":""},
  {"lat":33.29,"lon":-93.212383,"city":"Magnolia","state":"AR","address":"128 Hwy 79 Bypass North","name":""},
  {"lat":32.498364,"lon":-94.357321,"city":"Marshall","state":"TX","address":"5100 South East End Boulevard","name":""},
  {"lat":33.1657,"lon":-94.9983,"city":"Mount Pleasant","state":"TX","address":"2504 West Ferguson Road","name":""},
  {"lat":31.5727,"lon":-94.6736,"city":"Nacogdoches","state":"TX","address":"3625 South Street","name":""},
  {"lat":31.728179,"lon":-93.158062,"city":"Natchitoches","state":"LA","address":"5300 University Parkway","name":""},
  {"lat":31.7335,"lon":-95.618,"city":"Palestine","state":"TX","address":"2700 South Loop 256","name":""},
  {"lat":33.666509,"lon":-95.51123,"city":"Paris","state":"TX","address":"3563 NE Loop 286","name":""},
  {"lat":32.426088,"lon":-93.7157,"city":"Shreveport","state":"LA","address":"8340 Millicent Way","name":""},
  {"lat":32.454885,"lon":-93.82915,"city":"Shreveport","state":"LA","address":"5226 Monkhouse Drive","name":""},
  {"lat":33.1207,"lon":-95.5954,"city":"Sulphur Springs","state":"TX","address":"1202 Mockingbird Lane","name":""},
  {"lat":33.4583,"lon":-94.0767,"city":"Texarkana","state":"TX","address":"4601 Cowhorn Creek Road","name":""},
  {"lat":33.473054,"lon":-94.033922,"city":"Texarkana","state":"AR","address":"5302 Crossroads Parkway","name":""},
  {"lat":32.247979,"lon":-95.30499,"city":"Tyler","state":"TX","address":"8962 S. Broadway Avenue","name":""},
  {"lat":31.346222,"lon":-92.52273,"city":"Alexandria","state":"LA","address":"6124 West Calhoun Drive","name":""},
  {"lat":31.578097,"lon":-90.472943,"city":"Brookhaven","state":"MS","address":"1213 Hampton Drive","name":""},
  {"lat":32.604,"lon":-90.0676,"city":"Canton","state":"MS","address":"133 Soldier Colony Road","name":""},
  {"lat":33.193628,"lon":-92.635837,"city":"El Dorado","state":"AR","address":"2312 Junction City Road","name":""},
  {"lat":32.3436,"lon":-90.0647,"city":"Flowood","state":"MS","address":"115 Hospitality Drive","name":""},
  {"lat":33.356236,"lon":-91.035891,"city":"Greenville","state":"MS","address":"1155 VFW Road","name":""},
  {"lat":33.527,"lon":-90.2111,"city":"Greenwood","state":"MS","address":"1815 Highway 82 West","name":""},
  {"lat":33.455076,"lon":-90.669877,"city":"Indianola","state":"MS","address":"913 Highway 82 West","name":""},
  {"lat":32.300027,"lon":-90.169701,"city":"Jackson","state":"MS","address":"320 Greymont Avenue","name":""},
  {"lat":31.103982,"lon":-92.06339,"city":"Mansura","state":"LA","address":"6896 Highway 1","name":""},
  {"lat":31.2591,"lon":-90.4815,"city":"McComb","state":"MS","address":"109 Manisha Drive","name":""},
  {"lat":32.491639,"lon":-92.053109,"city":"Monroe","state":"LA","address":"5100 Frontage Road","name":""},
  {"lat":33.638516,"lon":-91.801324,"city":"Monticello","state":"AR","address":"480 Hwy 425 N","name":""},
  {"lat":31.555313,"lon":-91.410877,"city":"Natchez","state":"MS","address":"627 South Canal Street","name":""},
  {"lat":32.26964,"lon":-90.134581,"city":"Pearl","state":"MS","address":"1234 Phillips Street","name":""},
  {"lat":32.223934,"lon":-90.158153,"city":"Richland","state":"MS","address":"891 U.S. 49 South","name":""},
  {"lat":32.440843,"lon":-90.150963,"city":"Ridgeland","state":"MS","address":"600 Steed Rd","name":""},
  {"lat":32.542287,"lon":-92.639488,"city":"Ruston","state":"LA","address":"1315 North Trenton Street","name":""},
  {"lat":32.344388,"lon":-90.854349,"city":"Vicksburg","state":"MS","address":"3330 Clay St.","name":""},
  {"lat":32.507642,"lon":-92.18116,"city":"West Monroe","state":"LA","address":"601 Mane Street","name":""},
  {"lat":32.873398,"lon":-90.394962,"city":"Yazoo City","state":"MS","address":"2161 Grand Avenue","name":""},
  {"lat":33.8695,"lon":-112.1466,"city":"Anthem","state":"AZ","address":"42415 N. 41st Drive","name":""},
  {"lat":33.82408,"lon":-111.92177,"city":"Carefree","state":"AZ","address":"2 Easy Street","name":""},
  {"lat":37.34919,"lon":-108.556688,"city":"Cortez","state":"CO","address":"2244 E. Hawkins Street","name":""},
  {"lat":34.738545,"lon":-112.035295,"city":"Cottonwood","state":"AZ","address":"650 West Mingus Avenue","name":""},
  {"lat":37.268309,"lon":-107.880815,"city":"Durango","state":"CO","address":"402 East 2nd Avenue","name":""},
  {"lat":37.306193,"lon":-107.866406,"city":"Durango","state":"CO","address":"3777 Main Ave.","name":""},
  {"lat":36.725468,"lon":-108.188141,"city":"Farmington","state":"NM","address":"1500 Bloomfield Boulevard","name":""},
  {"lat":35.177753,"lon":-111.662209,"city":"Flagstaff","state":"AZ","address":"2400 S. Beulah Blvd.","name":""},
  {"lat":35.215248,"lon":-111.578704,"city":"Flagstaff","state":"AZ","address":"990 N Country Club Dr","name":""},
  {"lat":35.528216,"lon":-108.763309,"city":"Gallup","state":"NM","address":"1460 W. Maloney Avenue","name":""},
  {"lat":39.067263,"lon":-108.56925,"city":"Grand Junction","state":"CO","address":"205 Main Street","name":""},
  {"lat":36.707497,"lon":-110.253853,"city":"Kayenta","state":"AZ","address":"U.S. Hwy. 160","name":""},
  {"lat":38.5803,"lon":-109.5513,"city":"Moab","state":"UT","address":"488 North Main Street","name":""},
  {"lat":38.497482,"lon":-107.89743,"city":"Montrose","state":"CO","address":"1980 North Townsend","name":""},
  {"lat":36.902349,"lon":-111.482439,"city":"Page","state":"AZ","address":"294 Sandhill Road","name":""},
  {"lat":34.547981,"lon":-112.403935,"city":"Prescott","state":"AZ","address":"3453 Ranch Drive","name":""},
  {"lat":34.5851,"lon":-112.3417,"city":"Prescott Valley","state":"AZ","address":"2901 North Glassford Hill Road","name":""},
  {"lat":38.7499,"lon":-112.1048,"city":"Richfield","state":"UT","address":"1100 West 1350 South","name":""},
  {"lat":34.863525,"lon":-111.79139,"city":"Sedona","state":"AZ","address":"1800 W. Highway 89A","name":""},
  {"lat":34.2327,"lon":-110.0264,"city":"Show Low","state":"AZ","address":"1501 East Woolford Road","name":""},
  {"lat":35.25774,"lon":-112.190168,"city":"Williams","state":"AZ","address":"101 Rodeo Road","name":""},
  {"lat":37.483177,"lon":-105.905701,"city":"Alamosa","state":"CO","address":"710 Mariposa Street","name":""},
  {"lat":35.048283,"lon":-106.634869,"city":"Albuquerque","state":"NM","address":"1300 Woodward Rd SE","name":""},
  {"lat":35.1444,"lon":-106.5928,"city":"Albuquerque","state":"NM","address":"4412 The 25 Way","name":""},
  {"lat":35.102745,"lon":-106.709427,"city":"Albuquerque","state":"NM","address":"6150 Iliff Road NW","name":""},
  {"lat":35.105921,"lon":-106.602168,"city":"Albuquerque","state":"NM","address":"2300 Carlisle NE","name":""},
  {"lat":35.194179,"lon":-101.753585,"city":"Amarillo","state":"TX","address":"7777 I-40 East","name":""},
  {"lat":35.188952,"lon":-101.93425,"city":"Amarillo","state":"TX","address":"2200 Cinema Drive","name":""},
  {"lat":35.658,"lon":-101.409,"city":"Borger","state":"TX","address":"1415 W Wilson St","name":""},
  {"lat":38.4474,"lon":-105.1885,"city":"Canon City","state":"CO","address":"102 McCormick Parkway","name":""},
  {"lat":34.980207,"lon":-101.906761,"city":"Canyon","state":"TX","address":"3101 4th Ave","name":""},
  {"lat":34.442484,"lon":-103.194834,"city":"Clovis","state":"NM","address":"224-A Fairway Terrace North","name":""},
  {"lat":38.987543,"lon":-104.802264,"city":"Colorado Springs","state":"CO","address":"1307 Republic Drive","name":""},
  {"lat":38.790039,"lon":-104.797226,"city":"Colorado Springs","state":"CO","address":"2910 Geyser Dr.","name":""},
  {"lat":38.947174,"lon":-104.804958,"city":"Colorado Springs","state":"CO","address":"1060 Kelly Johnson Blvd","name":""},
  {"lat":38.89532,"lon":-104.72221,"city":"Colorado Springs","state":"CO","address":"4380 Integrity Centerpoint Drive","name":""},
  {"lat":38.800573,"lon":-104.731813,"city":"Colorado Springs","state":"CO","address":"2077 Aerotech Drive","name":""},
  {"lat":36.068471,"lon":-102.515039,"city":"Dalhart","state":"TX","address":"700 Liberal Street","name":""},
  {"lat":35.8422,"lon":-101.9734,"city":"Dumas","state":"TX","address":"2010 South Dumas Avenue","name":""},
  {"lat":36.684143,"lon":-101.467238,"city":"Guymon","state":"OK","address":"1202 NE 6th Street","name":""},
  {"lat":37.990643,"lon":-103.567813,"city":"La Junta","state":"CO","address":"27800 US Hwy 50","name":""},
  {"lat":38.216892,"lon":-104.624336,"city":"Pueblo","state":"CO","address":"3315 Gateway Drive","name":""},
  {"lat":38.322079,"lon":-104.619637,"city":"Pueblo","state":"CO","address":"4790 Eagleridge Circle","name":""},
  {"lat":38.523797,"lon":-105.993926,"city":"Salida","state":"CO","address":"785 US-50","name":""},
  {"lat":35.646207,"lon":-106.004052,"city":"Santa Fe","state":"NM","address":"3430 Cerrillos Rd","name":""},
  {"lat":34.9475,"lon":-104.6513,"city":"Santa Rosa","state":"NM","address":"2475 Historic Rt 66","name":""},
  {"lat":36.368605,"lon":-105.597273,"city":"Taos","state":"NM","address":"1515 Paseo del Pueblo Sur","name":""},
  {"lat":35.8277,"lon":-106.2092,"city":"White Rock","state":"NM","address":"124 State Highway 4","name":""},
  {"lat":41.511596,"lon":-112.014612,"city":"Brigham City","state":"UT","address":"40 N. Main Street","name":""},
  {"lat":44.514618,"lon":-109.095802,"city":"Cody","state":"WY","address":"8 Southfork Road","name":""},
  {"lat":40.511,"lon":-107.58,"city":"Craig","state":"CO","address":"377 Cedar Court","name":""},
  {"lat":40.503788,"lon":-111.896393,"city":"Draper","state":"UT","address":"13711 South 200 W","name":""},
  {"lat":41.2642,"lon":-110.9852,"city":"Evanston","state":"WY","address":"101 Wasatch Road","name":""},
  {"lat":40.9919,"lon":-111.8954,"city":"Farmington","state":"UT","address":"332 Park Lane","name":""},
  {"lat":39.553375,"lon":-107.330238,"city":"Glenwood Springs","state":"CO","address":"401 West First Street","name":""},
  {"lat":41.5402,"lon":-109.4748,"city":"Green River","state":"WY","address":"1055 Wild Horse Canyon Road","name":""},
  {"lat":40.632192,"lon":-111.802635,"city":"Holladay","state":"UT","address":"3210 E. Millrock Dr.","name":""},
  {"lat":43.475977,"lon":-111.99051,"city":"Idaho Falls","state":"ID","address":"2500 Channing Way","name":""},
  {"lat":43.497791,"lon":-112.047058,"city":"Idaho Falls","state":"ID","address":"645 Lindsay Blvd","name":""},
  {"lat":43.470978,"lon":-110.789764,"city":"Jackson","state":"WY","address":"350 S. Hwy. 89","name":""},
  {"lat":41.084934,"lon":-111.98402,"city":"Layton","state":"UT","address":"1700 N. Woodland Park Drive","name":""},
  {"lat":40.4322,"lon":-111.895537,"city":"Lehi","state":"UT","address":"3576 North Ashton Blvd.","name":""},
  {"lat":41.735777,"lon":-111.835543,"city":"Logan","state":"UT","address":"207 North Main Street","name":""},
  {"lat":41.222644,"lon":-111.97068,"city":"Ogden","state":"UT","address":"2401 Washington Boulevard","name":""},
  {"lat":40.274298,"lon":-111.716139,"city":"Orem","state":"UT","address":"851 West 1250 South","name":""},
  {"lat":42.8669,"lon":-109.8772,"city":"Pinedale","state":"WY","address":"55 Bloomfield Avenue","name":""},
  {"lat":42.8786,"lon":-112.4236,"city":"Pocatello","state":"ID","address":"151 Vista Drive","name":""},
  {"lat":40.21443,"lon":-111.65808,"city":"Provo","state":"UT","address":"1511 South 40 East","name":""},
  {"lat":41.792523,"lon":-107.2087,"city":"Rawlins","state":"WY","address":"406 Airport Road","name":""},
  {"lat":43.801094,"lon":-111.810276,"city":"Rexburg","state":"ID","address":"1195 S Yellowstone HWY","name":""},
  {"lat":39.5221,"lon":-107.7743,"city":"Rifle","state":"CO","address":"715 Megan Avenue","name":""},
  {"lat":43.047207,"lon":-108.380753,"city":"Riverton","state":"WY","address":"2500 North Federal Blvd","name":""},
  {"lat":41.574375,"lon":-109.244966,"city":"Rock Springs","state":"WY","address":"1901 Dewar Drive","name":""},
  {"lat":40.77602,"lon":-112.022508,"city":"Salt Lake City","state":"UT","address":"307 North Admiral Byrd Road","name":""},
  {"lat":40.740475,"lon":-111.825535,"city":"Salt Lake City","state":"UT","address":"1345 S. Foothill Drive","name":""},
  {"lat":40.75993,"lon":-111.899017,"city":"Salt Lake City","state":"UT","address":"425 South 300 West","name":""},
  {"lat":40.67519,"lon":-111.90872,"city":"Salt Lake City","state":"UT","address":"606 West 4500 South","name":""},
  {"lat":40.557619,"lon":-111.896376,"city":"Sandy","state":"UT","address":"10690 S. Holiday Park Dr.","name":""},
  {"lat":44.806686,"lon":-106.940353,"city":"Sheridan","state":"WY","address":"980 Sibley Circle","name":""},
  {"lat":40.126491,"lon":-111.646624,"city":"Spanish Fork","state":"UT","address":"462 East Commerce Way","name":""},
  {"lat":41.711,"lon":-112.1979,"city":"Tremonton","state":"UT","address":"2145 West Main Street","name":""},
  {"lat":40.6203,"lon":-111.9846,"city":"West Jordan","state":"UT","address":"3923 W. Center Park Dr.","name":""},
  {"lat":40.712259,"lon":-112.02317,"city":"West Valley City","state":"UT","address":"2659 South High Commons Way","name":""},
  {"lat":40.866569,"lon":-111.90182,"city":"Woods Cross","state":"UT","address":"2393 South 800 West","name":""},
  {"lat":39.670188,"lon":-104.825934,"city":"Aurora","state":"CO","address":"2525 S. Anaheim St.","name":""},
  {"lat":39.754213,"lon":-104.847968,"city":"Aurora","state":"CO","address":"2556 North Oswego Street","name":""},
  {"lat":40.0721,"lon":-105.2058,"city":"Boulder","state":"CO","address":"6333 Lookout Road","name":""},
  {"lat":39.970316,"lon":-104.829126,"city":"Brighton","state":"CO","address":"992 Platte River Blvd","name":""},
  {"lat":44.354174,"lon":-106.683447,"city":"Buffalo","state":"WY","address":"85 US Highway 16 East","name":""},
  {"lat":42.851777,"lon":-106.337182,"city":"Casper","state":"WY","address":"1100 N. Poplar Road","name":""},
  {"lat":39.409752,"lon":-104.867081,"city":"Castle Rock","state":"CO","address":"4830 Castleton Way","name":""},
  {"lat":39.588326,"lon":-104.862187,"city":"Centennial","state":"CO","address":"7079 South Kenton Street","name":""},
  {"lat":41.127297,"lon":-104.830261,"city":"Cheyenne","state":"WY","address":"1524 W Lincolnway","name":""},
  {"lat":44.376122,"lon":-103.73114,"city":"Deadwood","state":"SD","address":"531 Main Street","name":""},
  {"lat":39.743228,"lon":-104.992359,"city":"Denver","state":"CO","address":"550 15th Street","name":""},
  {"lat":39.626434,"lon":-104.896004,"city":"Denver","state":"CO","address":"5001 S. Ulster Street","name":""},
  {"lat":39.7456,"lon":-104.9851,"city":"Denver","state":"CO","address":"1845 Sherman Street","name":""},
  {"lat":39.756889,"lon":-105.01545,"city":"Denver","state":"CO","address":"2728 Zuni Street","name":""},
  {"lat":39.7738,"lon":-104.7958,"city":"Denver","state":"CO","address":"4310 Airport Way","name":""},
  {"lat":39.810528,"lon":-104.771133,"city":"Denver","state":"CO","address":"6290 Tower Road","name":""},
  {"lat":42.760708,"lon":-105.408431,"city":"Douglas","state":"WY","address":"1730 Muirfield Ct.","name":""},
  {"lat":40.522858,"lon":-105.047211,"city":"Fort Collins","state":"CO","address":"1620 Oakridge Dr.","name":""},
  {"lat":40.2609,"lon":-103.8014,"city":"Fort Morgan","state":"CO","address":"1152 Main Street","name":""},
  {"lat":39.699699,"lon":-104.939049,"city":"Glendale","state":"CO","address":"4150 East Kentucky Ave.","name":""},
  {"lat":39.722317,"lon":-105.191474,"city":"Golden","state":"CO","address":"17150 W. Colfax Avenue","name":""},
  {"lat":40.390282,"lon":-104.717789,"city":"Greeley","state":"CO","address":"2350 West 29th St","name":""},
  {"lat":39.5663,"lon":-105.028,"city":"Highlands Ranch","state":"CO","address":"3095 W. County Line Road","name":""},
  {"lat":39.972688,"lon":-105.087085,"city":"Lafayette","state":"CO","address":"317 Exempla Circle","name":""},
  {"lat":39.71566,"lon":-105.13341,"city":"Lakewood","state":"CO","address":"137 Union Boulevard","name":""},
  {"lat":41.307423,"lon":-105.547414,"city":"Laramie","state":"WY","address":"3715 East Grand Avenue","name":""},
  {"lat":44.351,"lon":-103.775,"city":"Lead","state":"SD","address":"900 Miners Ave","name":""},
  {"lat":39.577404,"lon":-105.13797,"city":"Littleton","state":"CO","address":"7611 Shaffer Parkway","name":""},
  {"lat":39.535608,"lon":-104.870242,"city":"Lone Tree","state":"CO","address":"10030 Trainstation Circle","name":""},
  {"lat":40.151,"lon":-105.1019,"city":"Longmont","state":"CO","address":"850 S. Main Street","name":""},
  {"lat":39.95839,"lon":-105.15685,"city":"Louisville","state":"CO","address":"912 W. Dillon Road","name":""},
  {"lat":40.408737,"lon":-104.997864,"city":"Loveland","state":"CO","address":"5500 Stone Creek Circle","name":""},
  {"lat":41.110878,"lon":-101.718202,"city":"Ogallala","state":"NE","address":"502 Oregon Trail Drive","name":""},
  {"lat":39.5566,"lon":-104.7695,"city":"Parker","state":"CO","address":"19010 East Cottonwood Drive","name":""},
  {"lat":44.099771,"lon":-103.198151,"city":"Rapid City","state":"SD","address":"825 Eglin St, Bldg A","name":""},
  {"lat":41.883,"lon":-103.667,"city":"Scottsbluff","state":"NE","address":"301 West Highway 26","name":""},
  {"lat":41.114767,"lon":-102.952135,"city":"Sidney","state":"NE","address":"635 Cabela Drive","name":""},
  {"lat":39.626525,"lon":-106.06562,"city":"Silverthorne","state":"CO","address":"177 Meraly Way","name":""},
  {"lat":44.479189,"lon":-103.814254,"city":"Spearfish","state":"SD","address":"240 North 27th Street","name":""},
  {"lat":39.8588,"lon":-105.0529,"city":"Westminster","state":"CO","address":"5030 West 88th Place","name":""},
  {"lat":39.768555,"lon":-105.148533,"city":"Wheat Ridge","state":"CO","address":"4025 Clear Creek Drive","name":""},
  {"lat":34.675735,"lon":-99.334953,"city":"Altus","state":"OK","address":"3601 North Main Street","name":""},
  {"lat":34.4366,"lon":-100.2318,"city":"Childress","state":"TX","address":"400 Madison Avenue","name":""},
  {"lat":35.5012,"lon":-98.9867,"city":"Clinton","state":"OK","address":"2000 Lexington","name":""},
  {"lat":35.412281,"lon":-99.417229,"city":"Elk City","state":"OK","address":"102 Regional Drive","name":""},
  {"lat":35.5677,"lon":-100.9665,"city":"Pampa","state":"TX","address":"2820 North Perryton Parkway","name":""},
  {"lat":34.160229,"lon":-99.311417,"city":"Vernon","state":"TX","address":"4131 Western Trail Drive","name":""},
  {"lat":33.948727,"lon":-98.528775,"city":"Wichita Falls","state":"TX","address":"2432 Sierra Drive","name":""},
  {"lat":33.866932,"lon":-98.535827,"city":"Wichita Falls","state":"TX","address":"4217 Kemp Blvd.","name":""},
  {"lat":36.418133,"lon":-99.385546,"city":"Woodward","state":"OK","address":"2814 Williams Avenue","name":""},
  {"lat":34.790728,"lon":-96.661998,"city":"Ada","state":"OK","address":"1220 Lonnie Abbott Boulevard","name":""},
  {"lat":34.171127,"lon":-97.163323,"city":"Ardmore","state":"OK","address":"526 Railway Express Street","name":""},
  {"lat":36.075537,"lon":-95.816329,"city":"Broken Arrow","state":"OK","address":"2300 W. Albany Street","name":""},
  {"lat":36.167385,"lon":-95.758386,"city":"Catoosa","state":"OK","address":"100 McNabb Field Road","name":""},
  {"lat":35.017353,"lon":-97.935349,"city":"Chickasha","state":"OK","address":"3004 South 4th Street","name":""},
  {"lat":36.290452,"lon":-95.630076,"city":"Claremore","state":"OK","address":"1811 S. Scissortail Avenue","name":""},
  {"lat":33.75695,"lon":-96.587662,"city":"Denison","state":"TX","address":"3415 Ansley Road","name":""},
  {"lat":34.5334,"lon":-97.9686,"city":"Duncan","state":"OK","address":"3833 North Hwy 81","name":""},
  {"lat":35.652439,"lon":-97.42886,"city":"Edmond","state":"OK","address":"300 Meline Drive","name":""},
  {"lat":35.510133,"lon":-97.970247,"city":"El Reno","state":"OK","address":"1530 SW 27th Street","name":""},
  {"lat":36.391491,"lon":-97.930678,"city":"Enid","state":"OK","address":"511 Demla Court","name":""},
  {"lat":35.874842,"lon":-97.395667,"city":"Guthrie","state":"OK","address":"401 Cimarron Blvd.","name":""},
  {"lat":34.6234,"lon":-98.4295,"city":"Lawton","state":"OK","address":"2610 NW Cache Road","name":""},
  {"lat":34.911724,"lon":-95.745711,"city":"McAlester","state":"OK","address":"711 South George Nigh Expressway","name":""},
  {"lat":35.445343,"lon":-97.420517,"city":"Midwest City","state":"OK","address":"1833 Warren Drive","name":""},
  {"lat":35.346874,"lon":-97.497324,"city":"Moore","state":"OK","address":"614 NW 8th St.","name":""},
  {"lat":35.391605,"lon":-97.700807,"city":"Mustang","state":"OK","address":"1320 E State Highway 152","name":""},
  {"lat":35.241809,"lon":-97.476499,"city":"Norman","state":"OK","address":"2300 Conference Drive","name":""},
  {"lat":35.388659,"lon":-97.530557,"city":"Oklahoma City","state":"OK","address":"920 S.W. 77th Street","name":""},
  {"lat":35.448468,"lon":-97.597127,"city":"Oklahoma City","state":"OK","address":"4333 SW 15th Street","name":""},
  {"lat":35.466402,"lon":-97.507383,"city":"Oklahoma City","state":"OK","address":"300 East Sheridan","name":""},
  {"lat":35.607345,"lon":-97.616271,"city":"Oklahoma City","state":"OK","address":"5400 NW 135th St.","name":""},
  {"lat":35.590276,"lon":-97.433853,"city":"Oklahoma City","state":"OK","address":"11820 N I-35 Service Rd","name":""},
  {"lat":35.526775,"lon":-97.56855,"city":"Oklahoma City","state":"OK","address":"3022 Northwest Expressway","name":""},
  {"lat":36.286255,"lon":-95.846397,"city":"Owasso","state":"OK","address":"9009 North 121st East Avenue","name":""},
  {"lat":34.737628,"lon":-97.258722,"city":"Pauls Valley","state":"OK","address":"105 South Humphrey Boulevard","name":""},
  {"lat":35.382946,"lon":-96.925899,"city":"Shawnee","state":"OK","address":"4851 N. Kickapoo","name":""},
  {"lat":36.1266,"lon":-97.0495,"city":"Stillwater","state":"OK","address":"717 East Hall of Fame Avenue","name":""},
  {"lat":36.114065,"lon":-97.122969,"city":"Stillwater","state":"OK","address":"615 S. Country Club Road","name":""},
  {"lat":35.754193,"lon":-96.664705,"city":"Stroud","state":"OK","address":"915 W. Ada Webb Dr.","name":""},
  {"lat":36.152662,"lon":-95.993695,"city":"Tulsa","state":"OK","address":"211 West 3rd Street","name":""},
  {"lat":36.0118,"lon":-95.8845,"city":"Tulsa","state":"OK","address":"8220 East Regal Place","name":""},
  {"lat":36.059521,"lon":-95.881241,"city":"Tulsa","state":"OK","address":"7141 South 85th East Avenue","name":""},
  {"lat":36.113077,"lon":-95.892763,"city":"Tulsa","state":"OK","address":"3418 S. 79th East Avenue","name":""},
  {"lat":36.0625,"lon":-96.0045,"city":"Tulsa","state":"OK","address":"7004 S. Olympia Avenue","name":""},
  {"lat":36.1461,"lon":-96.0814,"city":"Tulsa","state":"OK","address":"7852 West Parkway Boulevard","name":""},
  {"lat":35.48891,"lon":-97.759144,"city":"Yukon","state":"OK","address":"1351 Canadian Court","name":""},
  {"lat":39.3667,"lon":-101.0359,"city":"Colby","state":"KS","address":"1000 East Willow Drive","name":""},
  {"lat":37.76817,"lon":-100.060152,"city":"Dodge City","state":"KS","address":"4002 West Comanche","name":""},
  {"lat":37.980448,"lon":-100.841732,"city":"Garden City","state":"KS","address":"2505 Crestway","name":""},
  {"lat":38.8983,"lon":-99.3147,"city":"Hays","state":"KS","address":"4002 General Hays Rd.","name":""},
  {"lat":37.0321,"lon":-100.9148,"city":"Liberal","state":"KS","address":"508 Hotel Drive","name":""},
  {"lat":36.75576,"lon":-95.934685,"city":"Bartlesville","state":"OK","address":"130 SE Washington Blvd","name":""},
  {"lat":37.5735,"lon":-97.2463,"city":"Derby","state":"KS","address":"1701 Cambridge Street","name":""},
  {"lat":38.422813,"lon":-96.2191,"city":"Emporia","state":"KS","address":"2900 Eaglecrest Dr.","name":""},
  {"lat":37.66184,"lon":-97.565978,"city":"Goddard","state":"KS","address":"455 North Crowne Drive","name":""},
  {"lat":38.064763,"lon":-97.90412,"city":"Hutchinson","state":"KS","address":"1401 1 2 East 11th Ave","name":""},
  {"lat":39.0105,"lon":-96.8337,"city":"Junction City","state":"KS","address":"1039 S. Washington Street","name":""},
  {"lat":38.37217,"lon":-97.629148,"city":"McPherson","state":"KS","address":"200 N Centennial Dr","name":""},
  {"lat":37.47063,"lon":-97.32814,"city":"Mulvane","state":"KS","address":"785 Kansas Star Drive","name":""},
  {"lat":36.736653,"lon":-97.065439,"city":"Ponca City","state":"OK","address":"2805 N. 14th Street","name":""},
  {"lat":38.783131,"lon":-97.614967,"city":"Salina","state":"KS","address":"401 West Schilling Road","name":""},
  {"lat":39.0413,"lon":-95.7572,"city":"Topeka","state":"KS","address":"1515 S.W. Arrowhead Rd","name":""},
  {"lat":37.726867,"lon":-97.208107,"city":"Wichita","state":"KS","address":"2433 North Greenwich Road","name":""},
  {"lat":37.665852,"lon":-97.426512,"city":"Wichita","state":"KS","address":"7230 West Harry","name":""},
  {"lat":37.736562,"lon":-97.457973,"city":"Wichita","state":"KS","address":"10047 W 29th Street North","name":""},
  {"lat":37.681763,"lon":-97.227439,"city":"Wichita","state":"KS","address":"9449 E. Corporate Hills Dr.","name":""},
  {"lat":34.182838,"lon":-93.069348,"city":"Arkadelphia","state":"AR","address":"108 Malvern Road","name":""},
  {"lat":35.4642,"lon":-93.5171,"city":"Clarksville","state":"AR","address":"2630 W. Clark Road","name":""},
  {"lat":36.054443,"lon":-94.196223,"city":"Fayetteville","state":"AR","address":"915 Krupa","name":""},
  {"lat":35.361524,"lon":-94.363841,"city":"Fort Smith","state":"AR","address":"6201-C Rogers Avenue","name":""},
  {"lat":36.2557,"lon":-93.1231,"city":"Harrison","state":"AR","address":"121 Hwy 43 East","name":""},
  {"lat":34.4542,"lon":-93.0761,"city":"Hot Springs","state":"AR","address":"151 Temperance Hill Road","name":""},
  {"lat":35.767837,"lon":-95.401693,"city":"Muskogee","state":"OK","address":"3101 Military Boulevard","name":""},
  {"lat":36.229214,"lon":-95.338816,"city":"Pryor","state":"OK","address":"431 MidAmerica Drive","name":""},
  {"lat":36.334768,"lon":-94.171095,"city":"Rogers","state":"AR","address":"4501 W. Walnut Street","name":""},
  {"lat":35.301901,"lon":-93.137497,"city":"Russellville","state":"AR","address":"2304 N. Arkansas Avenue","name":""},
  {"lat":36.18269,"lon":-94.516693,"city":"Siloam Springs","state":"AR","address":"2171 Ravenwood Plaza","name":""},
  {"lat":36.169935,"lon":-94.184169,"city":"Springdale","state":"AR","address":"1700 S. 48th Street","name":""},
  {"lat":35.4644,"lon":-94.3541,"city":"Van Buren","state":"AR","address":"1916 North 6th Street","name":""},
  {"lat":35.767936,"lon":-91.623024,"city":"Batesville","state":"AR","address":"2570 Harrison St.","name":""},
  {"lat":34.6225,"lon":-92.4987,"city":"Bryant","state":"AR","address":"307 Office Park Dr.","name":""},
  {"lat":34.976704,"lon":-92.035849,"city":"Cabot","state":"AR","address":"200 Home Depot Drive","name":""},
  {"lat":34.188854,"lon":-90.575798,"city":"Clarksdale","state":"MS","address":"15000 New Africa Road","name":""},
  {"lat":33.759451,"lon":-90.715964,"city":"Cleveland","state":"MS","address":"912 North Davis Highway 61 North","name":""},
  {"lat":35.110313,"lon":-92.435177,"city":"Conway","state":"AR","address":"2400 Sanders Rd.","name":""},
  {"lat":35.039341,"lon":-90.783125,"city":"Forrest City","state":"AR","address":"300 Holiday Drive","name":""},
  {"lat":35.809834,"lon":-90.671173,"city":"Jonesboro","state":"AR","address":"2900 Phillips Drive","name":""},
  {"lat":34.721624,"lon":-92.229003,"city":"Little Rock","state":"AR","address":"4400 E Roosevelt Rd","name":""},
  {"lat":34.746,"lon":-92.2661,"city":"Little Rock","state":"AR","address":"320 River Market Avenue","name":""},
  {"lat":34.741858,"lon":-92.394229,"city":"Little Rock","state":"AR","address":"1301 South Shackleford Road","name":""},
  {"lat":34.806142,"lon":-91.891573,"city":"Lonoke","state":"AR","address":"240 Brownsville Loop","name":""},
  {"lat":35.209023,"lon":-90.209137,"city":"Marion","state":"AR","address":"310 Angelo's Grove Road","name":""},
  {"lat":34.828486,"lon":-92.393134,"city":"Maumelle","state":"AR","address":"11920 Maumelle Boulevard","name":""},
  {"lat":35.140663,"lon":-90.053528,"city":"Memphis","state":"TN","address":"175 Peabody Place","name":""},
  {"lat":36.350816,"lon":-92.374004,"city":"Mountain Home","state":"AR","address":"995 Coley Drive","name":""},
  {"lat":34.793779,"lon":-92.230041,"city":"North Little Rock","state":"AR","address":"3629 McCain Boulevard","name":""},
  {"lat":36.014958,"lon":-90.529183,"city":"Paragould","state":"AR","address":"3810 Linwood Drive","name":""},
  {"lat":34.1807,"lon":-92.0056,"city":"Pine Bluff","state":"AR","address":"511 Mallard Loop","name":""},
  {"lat":35.245744,"lon":-91.693144,"city":"Searcy","state":"AR","address":"209 South Poplar St.","name":""},
  {"lat":38.825906,"lon":-94.516865,"city":"Belton","state":"MO","address":"16410 Cornerstone Drive","name":""},
  {"lat":39.029177,"lon":-94.273876,"city":"Blue Springs","state":"MO","address":"900 NW South Outer Road","name":""},
  {"lat":36.6815,"lon":-93.2307,"city":"Branson","state":"MO","address":"200 South Payne Stewart Drive","name":""},
  {"lat":36.648733,"lon":-93.289045,"city":"Branson","state":"MO","address":"3695 W. 76 Country Blvd","name":""},
  {"lat":38.3608,"lon":-93.7538,"city":"Clinton","state":"MO","address":"900 Kansas Avenue","name":""},
  {"lat":38.80991,"lon":-94.890002,"city":"Gardner","state":"KS","address":"151 S. Cedar Niles Rd.","name":""},
  {"lat":39.094866,"lon":-94.583053,"city":"Kansas City","state":"MO","address":"1571 Main Street","name":""},
  {"lat":39.0439,"lon":-94.5963,"city":"Kansas City","state":"MO","address":"4600 Summit","name":""},
  {"lat":39.170449,"lon":-94.494471,"city":"Kansas City","state":"MO","address":"4233 N. Corrington Ave.","name":""},
  {"lat":38.953165,"lon":-94.526502,"city":"Kansas City","state":"MO","address":"9484 Marion Ridge Drive","name":""},
  {"lat":39.117349,"lon":-94.819615,"city":"Kansas City","state":"KS","address":"1400 Village West Parkway","name":""},
  {"lat":39.297215,"lon":-94.682776,"city":"Kansas City","state":"MO","address":"11212 North Newark Circle","name":""},
  {"lat":39.2461,"lon":-94.4567,"city":"Kansas City","state":"MO","address":"8551 Church Rd.","name":""},
  {"lat":39.104282,"lon":-94.58152,"city":"Kansas City","state":"MO","address":"801 Walnut Street","name":""},
  {"lat":38.972698,"lon":-95.263672,"city":"Lawrence","state":"KS","address":"2300 W. 6th Street","name":""},
  {"lat":39.315985,"lon":-94.913835,"city":"Leavenworth","state":"KS","address":"405 Choctaw Street","name":""},
  {"lat":38.943465,"lon":-94.378023,"city":"Lee's Summit","state":"MO","address":"1751 NE Douglas Street","name":""},
  {"lat":38.995503,"lon":-94.696787,"city":"Merriam","state":"KS","address":"7400 West Frontage Road","name":""},
  {"lat":36.8716,"lon":-94.855,"city":"Miami","state":"OK","address":"115 Deacon Turner Road","name":""},
  {"lat":38.91014,"lon":-94.77228,"city":"Olathe","state":"KS","address":"12081 S. Strang Line Road","name":""},
  {"lat":38.883049,"lon":-94.673484,"city":"Overland Park","state":"KS","address":"7521 W 135th Street","name":""},
  {"lat":38.936077,"lon":-94.6651,"city":"Overland Park","state":"KS","address":"10591 Metcalf Frontage Road","name":""},
  {"lat":37.345082,"lon":-94.710672,"city":"Pittsburg","state":"KS","address":"1285 U.S. 69 HWY","name":""},
  {"lat":38.711024,"lon":-93.279279,"city":"Sedalia","state":"MO","address":"3909 West 9th Street","name":""},
  {"lat":38.999228,"lon":-94.778785,"city":"Shawnee","state":"KS","address":"16555 Midland Drive","name":""},
  {"lat":37.244556,"lon":-93.260657,"city":"Springfield","state":"MO","address":"2750 N. Glenstone Avenue","name":""},
  {"lat":37.15619,"lon":-93.262527,"city":"Springfield","state":"MO","address":"3232 S. Glenstone","name":""},
  {"lat":37.15529,"lon":-93.226112,"city":"Springfield","state":"MO","address":"3370 E. Montclair","name":""},
  {"lat":38.919,"lon":-90.162579,"city":"Alton","state":"IL","address":"1904 Homer M Adams Parkway","name":""},
  {"lat":38.66852,"lon":-90.603833,"city":"Chesterfield","state":"MO","address":"5 McBride and Son Center Dr","name":""},
  {"lat":38.65553,"lon":-90.562409,"city":"Chesterfield","state":"MO","address":"16201 Swingley Ridge Road","name":""},
  {"lat":38.654686,"lon":-90.338631,"city":"Clayton","state":"MO","address":"216 N Meramec Avenue","name":""},
  {"lat":38.683868,"lon":-90.012406,"city":"Collinsville","state":"IL","address":"7 Commerce Drive","name":""},
  {"lat":38.934046,"lon":-92.323753,"city":"Columbia","state":"MO","address":"1225 Fellow's Place Boulevard","name":""},
  {"lat":38.962608,"lon":-92.287224,"city":"Columbia","state":"MO","address":"3410 Clark Lane","name":""},
  {"lat":38.4436,"lon":-90.2166,"city":"Columbia","state":"IL","address":"165 Admiral Trost Dr.","name":""},
  {"lat":37.793401,"lon":-90.439143,"city":"Farmington","state":"MO","address":"850 Valley Creek Drive","name":""},
  {"lat":38.7509,"lon":-90.0061,"city":"Glen Carbon","state":"IL","address":"5723 Heritage Crossing Drive","name":""},
  {"lat":38.581809,"lon":-92.282526,"city":"Jefferson City","state":"MO","address":"4800 Country Club Drive","name":""},
  {"lat":37.651269,"lon":-92.668461,"city":"Lebanon","state":"MO","address":"930 Ivey Lane","name":""},
  {"lat":38.716509,"lon":-90.445836,"city":"Maryland Heights","state":"MO","address":"2454 Old Dorsett Rd.","name":""},
  {"lat":36.784039,"lon":-90.429383,"city":"Poplar Bluff","state":"MO","address":"2420 Crestwood Drive","name":""},
  {"lat":37.960825,"lon":-91.766172,"city":"Rolla","state":"MO","address":"2201 N. Bishop","name":""},
  {"lat":38.792454,"lon":-90.558701,"city":"Saint Charles","state":"MO","address":"3720 West Clay Street","name":""},
  {"lat":38.629807,"lon":-90.281288,"city":"Saint Louis","state":"MO","address":"5650 Oakland Ave.","name":""},
  {"lat":38.484325,"lon":-90.352798,"city":"Saint Louis","state":"MO","address":"4200 MidAmerica Lane","name":""},
  {"lat":38.735731,"lon":-90.359489,"city":"Saint Louis","state":"MO","address":"10350 Natural Bridge Rd","name":""},
  {"lat":38.629794,"lon":-90.186463,"city":"Saint Louis","state":"MO","address":"333 Washington Avenue","name":""},
  {"lat":37.824639,"lon":-92.149373,"city":"Saint Robert","state":"MO","address":"103 St. Robert Plaza","name":""},
  {"lat":38.768261,"lon":-90.490414,"city":"St. Charles","state":"MO","address":"1410 South 5th Street","name":""},
  {"lat":38.803287,"lon":-90.858697,"city":"Wentzville","state":"MO","address":"150 Wentzville Bluffs Dr","name":""},
  {"lat":36.715681,"lon":-91.867838,"city":"West Plains","state":"MO","address":"1064 London Lane","name":""},
  {"lat":41.140427,"lon":-95.963776,"city":"Bellevue","state":"NE","address":"3404 Samson Way","name":""},
  {"lat":44.310711,"lon":-96.755501,"city":"Brookings","state":"SD","address":"3017 Lefevre Drive","name":""},
  {"lat":41.277314,"lon":-95.916058,"city":"Carter Lake","state":"IA","address":"2020 Abbott Drive","name":""},
  {"lat":41.439019,"lon":-97.371554,"city":"Columbus","state":"NE","address":"3536 23rd Street","name":""},
  {"lat":41.240326,"lon":-95.907644,"city":"Council Bluffs","state":"IA","address":"2204 River Road","name":""},
  {"lat":40.888621,"lon":-98.38455,"city":"Grand Island","state":"NE","address":"3441 Innate Circle","name":""},
  {"lat":40.921707,"lon":-98.38461,"city":"Grand Island","state":"NE","address":"504 North Diers Avenue","name":""},
  {"lat":40.618303,"lon":-98.380083,"city":"Hastings","state":"NE","address":"215 E 31st Street","name":""},
  {"lat":40.673885,"lon":-99.089192,"city":"Kearney","state":"NE","address":"507 Talmadge Street","name":""},
  {"lat":41.181004,"lon":-96.103849,"city":"La Vista","state":"NE","address":"12331 Southport Parkway","name":""},
  {"lat":40.884816,"lon":-96.680377,"city":"Lincoln","state":"NE","address":"7343 Husker Circle","name":""},
  {"lat":40.813046,"lon":-96.706099,"city":"Lincoln","state":"NE","address":"1033 O Street","name":""},
  {"lat":40.755742,"lon":-96.640345,"city":"Lincoln","state":"NE","address":"5922 Vandervoort Drive","name":""},
  {"lat":40.844017,"lon":-96.736267,"city":"Lincoln","state":"NE","address":"1055 West Bond Street","name":""},
  {"lat":43.690926,"lon":-98.010429,"city":"Mitchell","state":"SD","address":"1920 Highland Way","name":""},
  {"lat":42.023109,"lon":-97.436284,"city":"Norfolk","state":"NE","address":"904 South 20th Street","name":""},
  {"lat":41.113063,"lon":-100.76252,"city":"North Platte","state":"NE","address":"200 Platte Oasis Parkway","name":""},
  {"lat":42.5248,"lon":-96.5021,"city":"North Sioux City","state":"SD","address":"101 S. Sodrac Dr.","name":""},
  {"lat":41.268586,"lon":-95.932785,"city":"Omaha","state":"NE","address":"1212 Cuming Street","name":""},
  {"lat":41.258527,"lon":-95.979199,"city":"Omaha","state":"NE","address":"4401 Douglas Street","name":""},
  {"lat":41.245631,"lon":-96.023153,"city":"Omaha","state":"NE","address":"1401 South 72nd Street","name":""},
  {"lat":41.236092,"lon":-96.190236,"city":"Omaha","state":"NE","address":"17606 Arbor Plaza","name":""},
  {"lat":41.261615,"lon":-96.086974,"city":"Omaha","state":"NE","address":"11201 Davenport Street","name":""},
  {"lat":42.997266,"lon":-96.044736,"city":"Orange City","state":"IA","address":"914 8th Street, SE","name":""},
  {"lat":42.447116,"lon":-96.334151,"city":"Sioux City","state":"IA","address":"5555 Sergeant Road","name":""},
  {"lat":43.490554,"lon":-96.770543,"city":"Sioux Falls","state":"SD","address":"3701 Avera Drive","name":""},
  {"lat":43.523663,"lon":-96.778543,"city":"Sioux Falls","state":"SD","address":"2417 S. Carolyn Avenue","name":""},
  {"lat":44.8897,"lon":-97.0704,"city":"Watertown","state":"SD","address":"2720 9th Avenue SE","name":""},
  {"lat":40.8246,"lon":-97.5966,"city":"York","state":"NE","address":"309 West David Drive","name":""},
  {"lat":41.664508,"lon":-93.467168,"city":"Altoona","state":"IA","address":"215 Adventureland Drive NW","name":""},
  {"lat":42.007759,"lon":-93.584763,"city":"Ames","state":"IA","address":"2100 Southeast 16th Street","name":""},
  {"lat":41.68158,"lon":-93.573463,"city":"Ankeny","state":"IA","address":"6210 SE Convenience Blvd","name":""},
  {"lat":41.5841,"lon":-93.6174,"city":"Des Moines","state":"IA","address":"120 SW Water Street","name":""},
  {"lat":41.538746,"lon":-93.644279,"city":"Des Moines","state":"IA","address":"5001 Fleur Drive","name":""},
  {"lat":42.0069,"lon":-92.9129,"city":"Marshalltown","state":"IA","address":"20 West Iowa Avenue","name":""},
  {"lat":39.776563,"lon":-94.798007,"city":"Saint Joseph","state":"MO","address":"3928 Frederick Avenue","name":""},
  {"lat":41.650468,"lon":-93.741161,"city":"Urbandale","state":"IA","address":"8811 Plum Dr.","name":""},
  {"lat":41.558629,"lon":-93.79357,"city":"West Des Moines","state":"IA","address":"6160 Mills Civic Parkway","name":""},
  {"lat":41.593216,"lon":-93.804306,"city":"West Des Moines","state":"IA","address":"7060 Lake Drive","name":""},
  {"lat":40.82356,"lon":-91.139433,"city":"Burlington","state":"IA","address":"3001 Winegard Dr., Suite 130","name":""},
  {"lat":42.030746,"lon":-91.650848,"city":"Cedar Rapids","state":"IA","address":"1130 Park Place NE","name":""},
  {"lat":41.944862,"lon":-91.675453,"city":"Cedar Rapids","state":"IA","address":"3265 6th Street, SW","name":""},
  {"lat":41.8189,"lon":-90.2489,"city":"Clinton","state":"IA","address":"2781 Wild Rose Circle South","name":""},
  {"lat":41.686799,"lon":-91.564469,"city":"Coralville","state":"IA","address":"1200 First Avenue","name":""},
  {"lat":41.573421,"lon":-90.515778,"city":"Davenport","state":"IA","address":"5290 Utica Ridge Road","name":""},
  {"lat":41.649145,"lon":-91.53993,"city":"Iowa City","state":"IA","address":"4 Sturgis Corner Drive","name":""},
  {"lat":39.721607,"lon":-90.261269,"city":"Jacksonville","state":"IL","address":"1725 West Morton Avenue","name":""},
  {"lat":40.416672,"lon":-91.404022,"city":"Keokuk","state":"IA","address":"3201 Main Street","name":""},
  {"lat":40.219525,"lon":-92.581571,"city":"Kirksville","state":"MO","address":"2604 N. Baltimore St.","name":""},
  {"lat":40.4587,"lon":-90.6471,"city":"Macomb","state":"IL","address":"1639 East Jackson Street","name":""},
  {"lat":41.455814,"lon":-90.502769,"city":"Moline","state":"IL","address":"2450 69th Avenue","name":""},
  {"lat":41.4621,"lon":-91.0159,"city":"Muscatine","state":"IA","address":"3303 North Port Drive","name":""},
  {"lat":41.014418,"lon":-92.438485,"city":"Ottumwa","state":"IA","address":"943 N Quincy Avenue","name":""},
  {"lat":44.85525,"lon":-93.351111,"city":"Bloomington","state":"MN","address":"5400 American Blvd. W.","name":""},
  {"lat":44.859614,"lon":-93.230958,"city":"Bloomington","state":"MN","address":"2860 Metro Drive","name":""},
  {"lat":44.743933,"lon":-93.281534,"city":"Burnsville","state":"MN","address":"14400 Nicollet Court","name":""},
  {"lat":44.8474,"lon":-93.1589,"city":"Eagan","state":"MN","address":"3000 Eagandale Place","name":""},
  {"lat":44.861655,"lon":-93.427196,"city":"Eden Prairie","state":"MN","address":"11825 Technology Drive","name":""},
  {"lat":43.677752,"lon":-94.450365,"city":"Fairmont","state":"MN","address":"100 Hampton Dr.","name":""},
  {"lat":44.646494,"lon":-93.299878,"city":"Lakeville","state":"MN","address":"20851 Keokuk Avenue","name":""},
  {"lat":43.146833,"lon":-93.233309,"city":"Mason City","state":"IA","address":"2111 4th Street SW","name":""},
  {"lat":44.971054,"lon":-93.216789,"city":"Minneapolis","state":"MN","address":"2812 University Avenue SE","name":""},
  {"lat":44.977757,"lon":-93.276941,"city":"Minneapolis","state":"MN","address":"19 North 8th Street","name":""},
  {"lat":44.973228,"lon":-93.414894,"city":"Minnetonka","state":"MN","address":"10600 Wayzata Boulevard","name":""},
  {"lat":44.953012,"lon":-92.937117,"city":"Oakdale","state":"MN","address":"436 Imperial Ave N","name":""},
  {"lat":44.780434,"lon":-93.467178,"city":"Shakopee","state":"MN","address":"4175 Dean Lakes Blvd.","name":""},
  {"lat":44.943753,"lon":-93.103247,"city":"St. Paul","state":"MN","address":"200 7th Street West","name":""},
  {"lat":44.92732,"lon":-92.969773,"city":"Woodbury","state":"MN","address":"1450 Weir Drive","name":""},
  {"lat":42.537959,"lon":-92.445816,"city":"Cedar Falls","state":"IA","address":"101 West 1st Street","name":""},
  {"lat":44.885275,"lon":-91.413654,"city":"Chippewa Falls","state":"WI","address":"12707 30th Avenue","name":""},
  {"lat":42.4907,"lon":-90.7194,"city":"Dubuque","state":"IA","address":"3434 Dodge Street","name":""},
  {"lat":44.791659,"lon":-91.519148,"city":"Eau Claire","state":"WI","address":"2622 Craig Road","name":""},
  {"lat":44.959314,"lon":-92.718422,"city":"Hudson","state":"WI","address":"2610 Pearson Drive","name":""},
  {"lat":43.817097,"lon":-91.250628,"city":"La Crosse","state":"WI","address":"511 3rd Street N.","name":""},
  {"lat":44.680465,"lon":-90.170493,"city":"Marshfield","state":"WI","address":"400 West Upham Street","name":""},
  {"lat":44.905665,"lon":-91.930369,"city":"Menomonie","state":"WI","address":"2017 Stout Street","name":""},
  {"lat":43.877697,"lon":-91.189186,"city":"Onalaska","state":"WI","address":"308 Hampton Court","name":""},
  {"lat":44.083912,"lon":-92.508202,"city":"Rochester","state":"MN","address":"2870 59th Street NW","name":""},
  {"lat":43.996387,"lon":-92.464134,"city":"Rochester","state":"MN","address":"1755 South Broadway","name":""},
  {"lat":44.016955,"lon":-90.509901,"city":"Tomah","state":"WI","address":"219 Buan Street","name":""},
  {"lat":42.4661,"lon":-92.3197,"city":"Waterloo","state":"IA","address":"2034 La Porte Road","name":""},
  {"lat":61.181812,"lon":-149.888,"city":"Anchorage","state":"AK","address":"4301 Credit Union Drive","name":""},
  {"lat":64.8581,"lon":-147.6957,"city":"Fairbanks","state":"AK","address":"433 Harold Bentley Avenue","name":""},
  {"lat":46.195007,"lon":-123.798889,"city":"Astoria","state":"OR","address":"201 39th Street","name":""},
  {"lat":47.61223,"lon":-122.187746,"city":"Bellevue","state":"WA","address":"11405 Northeast 2nd Place","name":""},
  {"lat":47.563894,"lon":-122.625094,"city":"Bremerton","state":"WA","address":"150 Washington Avenue","name":""},
  {"lat":45.408432,"lon":-122.570381,"city":"Clackamas","state":"OR","address":"9040 SE Adams","name":""},
  {"lat":47.094032,"lon":-122.624062,"city":"Dupont","state":"WA","address":"800 Station Drive","name":""},
  {"lat":47.3176,"lon":-122.2984,"city":"Federal Way","state":"WA","address":"31720 Gateway Center Boulevard S.","name":""},
  {"lat":45.5454,"lon":-122.8825,"city":"Hillsboro","state":"OR","address":"9399 NE Tanasbourne Drive","name":""},
  {"lat":45.711,"lon":-121.509587,"city":"Hood River","state":"OR","address":"1 Nichols Parkway","name":""},
  {"lat":47.4127,"lon":-122.2527,"city":"Kent","state":"WA","address":"21109 66th Avenue South","name":""},
  {"lat":47.047985,"lon":-122.829002,"city":"Olympia","state":"WA","address":"4301 Martin Way E","name":""},
  {"lat":45.525672,"lon":-122.679896,"city":"Portland","state":"OR","address":"354 NW 9th Avenue","name":""},
  {"lat":45.54512,"lon":-122.477859,"city":"Portland","state":"OR","address":"3039 NE 181st Ave.","name":""},
  {"lat":45.582753,"lon":-122.573701,"city":"Portland","state":"OR","address":"8633 NE Airport Way","name":""},
  {"lat":47.176815,"lon":-122.292831,"city":"Puyallup","state":"WA","address":"1515 South Meridian","name":""},
  {"lat":47.67392,"lon":-122.103088,"city":"Redmond","state":"WA","address":"17770 NE 78th Place","name":""},
  {"lat":47.503658,"lon":-122.199276,"city":"Renton","state":"WA","address":"1300 Lake Washington Blvd. North","name":""},
  {"lat":47.432957,"lon":-122.297356,"city":"SeaTac","state":"WA","address":"18850 28th Avenue South","name":""},
  {"lat":47.698919,"lon":-122.328062,"city":"Seattle","state":"WA","address":"9550 1st Ave NE","name":""},
  {"lat":47.625843,"lon":-122.346649,"city":"Seattle","state":"WA","address":"700 Fifth Avenue North","name":""},
  {"lat":47.428,"lon":-122.296,"city":"Seattle","state":"WA","address":"19445 International Boulevard","name":""},
  {"lat":45.360578,"lon":-122.855831,"city":"Sherwood","state":"OR","address":"22000 SW Meinecke Parkway","name":""},
  {"lat":47.1828,"lon":-122.4631,"city":"Tacoma","state":"WA","address":"8203 South Hosmer Street","name":""},
  {"lat":45.434843,"lon":-122.748105,"city":"Tigard","state":"OR","address":"11799 SW 69th Avenue","name":""},
  {"lat":47.463165,"lon":-122.244408,"city":"Tukwila","state":"WA","address":"7200 South 156th Street","name":""},
  {"lat":45.619,"lon":-122.525151,"city":"Vancouver","state":"WA","address":"315 SE Olympia Drive","name":""},
  {"lat":47.767272,"lon":-122.155327,"city":"Woodinville","state":"WA","address":"19211 Woodinville Snohomish Rd. NE","name":""},
  {"lat":47.0075,"lon":-120.5903,"city":"Ellensburg","state":"WA","address":"2705 Triple L Loop","name":""},
  {"lat":46.177028,"lon":-119.189797,"city":"Kennewick","state":"WA","address":"3715 Plaza Way","name":""},
  {"lat":47.598705,"lon":-120.644414,"city":"Leavenworth","state":"WA","address":"301 Ward Strasse","name":""},
  {"lat":46.270005,"lon":-119.180776,"city":"Pasco","state":"WA","address":"6826 Burden Boulevard","name":""},
  {"lat":45.661312,"lon":-118.785338,"city":"Pendleton","state":"OR","address":"101 SW Nye Avenue","name":""},
  {"lat":46.268812,"lon":-119.26837,"city":"Richland","state":"WA","address":"486 Bradley Boulevard","name":""},
  {"lat":46.045921,"lon":-118.356819,"city":"Walla Walla","state":"WA","address":"1531 Kelly Place","name":""},
  {"lat":48.788615,"lon":-122.509018,"city":"Bellingham","state":"WA","address":"1055 W Bakerview Rd.","name":""},
  {"lat":48.450478,"lon":-122.333763,"city":"Burlington","state":"WA","address":"1860 South Burlington Boulevard","name":""},
  {"lat":47.977903,"lon":-122.21403,"city":"Everett","state":"WA","address":"2931 West Marine View Drive","name":""},
  {"lat":47.823797,"lon":-122.2692,"city":"Lynnwood","state":"WA","address":"19324 Alderwood Mall Parkway","name":""},
  {"lat":45.975224,"lon":-112.508637,"city":"Butte","state":"MT","address":"3499 Harrison Avenue","name":""},
  {"lat":47.693417,"lon":-116.808243,"city":"Coeur d'Alene","state":"ID","address":"1500 Riverstone Dr.","name":""},
  {"lat":48.199735,"lon":-114.33292,"city":"Kalispell","state":"MT","address":"1140 Highway 2 West","name":""},
  {"lat":45.3316,"lon":-118.066074,"city":"La Grande","state":"OR","address":"2830 Mulholland Drive","name":""},
  {"lat":46.401123,"lon":-116.991517,"city":"Lewiston","state":"ID","address":"2701 Nez Perce Drive","name":""},
  {"lat":46.716061,"lon":-117.16697,"city":"Pullman","state":"WA","address":"1190 SE Bishop Blvd","name":""},
  {"lat":47.650025,"lon":-117.414722,"city":"Spokane","state":"WA","address":"675 S McClellan St","name":""},
  {"lat":47.636829,"lon":-117.477219,"city":"Spokane","state":"WA","address":"2010 S. Assembly Road","name":""},
  {"lat":47.675129,"lon":-117.180069,"city":"Spokane Valley","state":"WA","address":"16418 E. Indiana Avenue","name":""},