{"key":"hilton","displayName":"Hilton","category":"hotels","useLocationName":false,"locations":[
  {"lat":19.729482,"lon":-155.065305,"city":"Hilo","state":"HI","address":"93 Banyan Drive","name":""},
  {"lat":21.2857,"lon":-157.834,"city":"Honolulu","state":"HI","address":"1956 Ala Moana Boulevard","name":""},
  {"lat":21.27927,"lon":-157.831345,"city":"Honolulu","state":"HI","address":"201 Beachwalk Street","name":""},
  {"lat":21.278778,"lon":-157.825143,"city":"Honolulu","state":"HI","address":"2330 Kuhio Avenue","name":""},
  {"lat":21.2823,"lon":-157.838,"city":"Honolulu","state":"HI","address":"2003 Kalia Road","name":""},
  {"lat":21.2843,"lon":-157.837,"city":"Honolulu","state":"HI","address":"1811 Ala Moana Blvd.","name":""},
  {"lat":21.280046,"lon":-157.830276,"city":"Honolulu","state":"HI","address":"2181 Kalakaua Avenue","name":""},
  {"lat":21.282484,"lon":-157.83551,"city":"Honolulu","state":"HI","address":"2023 Kalia Road","name":""},
  {"lat":21.283987,"lon":-157.836029,"city":"Honolulu","state":"HI","address":"2005 Kalia Road","name":""},
  {"lat":21.285187,"lon":-157.839152,"city":"Honolulu","state":"HI","address":"1775 Ala Moana Blvd","name":""},
  {"lat":21.275255,"lon":-157.821869,"city":"Honolulu","state":"HI","address":"2500 Kuhio Ave.","name":""},
  {"lat":21.279538,"lon":-157.832268,"city":"Honolulu","state":"HI","address":"223 Saratoga Rd","name":""},
  {"lat":21.284,"lon":-157.831,"city":"Honolulu","state":"HI","address":"2040 Kuhio Ave","name":""},
  {"lat":20.94883,"lon":-156.690079,"city":"Kaanapali","state":"HI","address":"104 Ka'anapali Shores Place","name":""},
  {"lat":20.891,"lon":-156.471,"city":"Kahului","state":"HI","address":"130 West Kaahumanu Avenue","name":""},
  {"lat":20.891,"lon":-156.47,"city":"Kahului","state":"HI","address":"100 W Kaahumanu Ave","name":""},
  {"lat":19.638,"lon":-155.993,"city":"Kailua-Kona","state":"HI","address":"75-5739 Ali'i Drive","name":""},
  {"lat":22.042591,"lon":-159.337027,"city":"Kapaa","state":"HI","address":"3-5920 Kuhio Highway","name":""},
  {"lat":21.330469,"lon":-158.074882,"city":"Kapolei","state":"HI","address":"725 Manawai St.","name":""},
  {"lat":21.333385,"lon":-158.053261,"city":"Kapolei","state":"HI","address":"91-5431 Kapolei Parkway, Suite 900","name":""},
  {"lat":20.767625,"lon":-156.457537,"city":"Kihei","state":"HI","address":"575 South Kihei Road","name":""},
  {"lat":21.871388,"lon":-159.443633,"city":"Koloa","state":"HI","address":"1613 Pe'e Road","name":""},
  {"lat":19.925,"lon":-155.8662,"city":"Waikoloa","state":"HI","address":"69-699 Waikoloa Beach Drive","name":""},
  {"lat":19.922933,"lon":-155.877693,"city":"Waikoloa","state":"HI","address":"69-550 Waikoloa Beach Drive","name":""},
  {"lat":19.925337,"lon":-155.887332,"city":"Waikoloa","state":"HI","address":"69-425 Waikoloa Beach Drive","name":""},
  {"lat":19.924306,"lon":-155.887461,"city":"Waikoloa","state":"HI","address":"69-425 Waikoloa Beach Drive","name":""},
  {"lat":20.684615,"lon":-156.440895,"city":"Wailea","state":"HI","address":"3850 Wailea Alanui Drive","name":""},
  {"lat":20.683082,"lon":-156.43873,"city":"Wailea","state":"HI","address":"146 Ho olei Circle","name":""},
  {"lat":33.5804,"lon":-117.729437,"city":"Aliso Viejo","state":"CA","address":"110 Vantis Drive","name":""},
  {"lat":33.60574,"lon":-114.537788,"city":"Blythe","state":"CA","address":"2011 East Donlon Street","name":""},
  {"lat":33.45605,"lon":-112.51127,"city":"Buckeye","state":"AZ","address":"21245 W Roosevelt St","name":""},
  {"lat":33.438543,"lon":-112.555223,"city":"Buckeye","state":"AZ","address":"955 South Watson Road","name":""},
  {"lat":32.697,"lon":-115.5,"city":"Calexico","state":"CA","address":"2501 Scaroni Ave","name":""},
  {"lat":33.460061,"lon":-117.674342,"city":"Capistrano Beach","state":"CA","address":"34630 Pacific Coast Highway","name":""},
  {"lat":33.027539,"lon":-117.273806,"city":"Cardiff","state":"CA","address":"1661 Villa Cardiff Dr.","name":""},
  {"lat":33.098572,"lon":-117.315903,"city":"Carlsbad","state":"CA","address":"1 Ponto Road","name":""},
  {"lat":33.1251,"lon":-117.2749,"city":"Carlsbad","state":"CA","address":"2229 Palomar Airport Road","name":""},
  {"lat":33.121851,"lon":-117.32718,"city":"Carlsbad","state":"CA","address":"6450 Carlsbad Blvd","name":""},
  {"lat":33.131301,"lon":-117.311079,"city":"Carlsbad","state":"CA","address":"1594 MarBrisa Circle","name":""},
  {"lat":33.121264,"lon":-117.289213,"city":"Carlsbad","state":"CA","address":"1901 Wright Place","name":""},
  {"lat":33.1249,"lon":-117.2747,"city":"Carlsbad","state":"CA","address":"2223 Palomar Airport Road","name":""},
  {"lat":33.124,"lon":-117.31515,"city":"Carlsbad","state":"CA","address":"5805 Armada Dr","name":""},
  {"lat":32.652122,"lon":-116.957408,"city":"Chula Vista","state":"CA","address":"2424 Fenton St","name":""},
  {"lat":32.651602,"lon":-116.958439,"city":"Chula Vista","state":"CA","address":"2424 Fenton St","name":""},
  {"lat":32.680618,"lon":-117.177398,"city":"Coronado","state":"CA","address":"1277 R.H. Dana Place","name":""},
  {"lat":32.680618,"lon":-117.177398,"city":"Coronado","state":"CA","address":"1500 Orange Ave","name":""},
  {"lat":32.680618,"lon":-117.177398,"city":"Coronado","state":"CA","address":"1500 Orange Avenue","name":""},
  {"lat":33.6493,"lon":-117.91104,"city":"Costa Mesa","state":"CA","address":"2070 Newport Blvd","name":""},
  {"lat":33.683125,"lon":-117.884445,"city":"Costa Mesa","state":"CA","address":"3050 Bristol St.","name":""},
  {"lat":33.46378,"lon":-117.681244,"city":"Dana Point","state":"CA","address":"34402 Pacific Coast Highway","name":""},
  {"lat":33.4823,"lon":-117.715337,"city":"Dana Point","state":"CA","address":"1 Monarch Beach Resort","name":""},
  {"lat":32.9781,"lon":-117.2546,"city":"Del Mar","state":"CA","address":"15575 Jimmy Durante Blvd","name":""},
  {"lat":32.808079,"lon":-116.962648,"city":"El Cajon","state":"CA","address":"1025 N. Magnolia Avenue","name":""},
  {"lat":32.771314,"lon":-115.533727,"city":"El Centro","state":"CA","address":"598 E. Wake Ave.","name":""},
  {"lat":32.765405,"lon":-115.533497,"city":"El Centro","state":"CA","address":"3105 S Dogwood Rd","name":""},
  {"lat":33.672009,"lon":-117.657608,"city":"Foothill Ranch","state":"CA","address":"27102 Towne Centre Drive","name":""},
  {"lat":33.671967,"lon":-117.65847,"city":"Foothill Ranch","state":"CA","address":"27082 Towne Centre Drive","name":""},
  {"lat":33.747066,"lon":-117.011955,"city":"Hemet","state":"CA","address":"3700 West Florida Avenue","name":""},
  {"lat":33.653185,"lon":-117.99472,"city":"Huntington Beach","state":"CA","address":"21100 Pacific Coast Hwy","name":""},
  {"lat":32.583887,"lon":-117.116473,"city":"Imperial Beach","state":"CA","address":"771 Palm Avenue","name":""},
  {"lat":33.740406,"lon":-116.225542,"city":"Indio","state":"CA","address":"42261 Spectrum Street","name":""},
  {"lat":33.6579,"lon":-117.7558,"city":"Irvine","state":"CA","address":"90 Pacifica","name":""},
  {"lat":33.6844,"lon":-117.8501,"city":"Irvine","state":"CA","address":"2120 Main Street","name":""},
  {"lat":33.674998,"lon":-117.858509,"city":"Irvine","state":"CA","address":"2192 Dupont Drive","name":""},
  {"lat":33.680477,"lon":-117.84877,"city":"Irvine","state":"CA","address":"2381 Morse Avenue","name":""},
  {"lat":33.674686,"lon":-117.860695,"city":"Irvine","state":"CA","address":"18800 MacArthur Blvd.","name":""},
  {"lat":33.695262,"lon":-117.852901,"city":"Irvine","state":"CA","address":"17370 Red Hill Avenue","name":""},
  {"lat":32.901758,"lon":-117.242869,"city":"La Jolla","state":"CA","address":"10950 North Torrey Pines Road","name":""},
  {"lat":32.851147,"lon":-117.253429,"city":"La Jolla","state":"CA","address":"7955 La Jolla Shores Drive","name":""},
  {"lat":33.6787,"lon":-116.3027,"city":"La Quinta","state":"CA","address":"50-777 Santa Rosa Plaza","name":""},
  {"lat":33.7204,"lon":-116.2954,"city":"La Quinta","state":"CA","address":"45-200 Washington Street","name":""},
  {"lat":33.6879,"lon":-116.313455,"city":"La Quinta","state":"CA","address":"49-499 Eisenhower Drive","name":""},
  {"lat":33.628147,"lon":-117.717918,"city":"Lake Forest","state":"CA","address":"23021 Lake Center Drive B","name":""},
  {"lat":33.626343,"lon":-117.716985,"city":"Lake Forest","state":"CA","address":"23131 Lake Center Drive","name":""},
  {"lat":33.627797,"lon":-117.718089,"city":"Lake Forest","state":"CA","address":"23021 Lake Center Drive A","name":""},
  {"lat":33.546067,"lon":-117.670696,"city":"Mission Viejo","state":"CA","address":"28682 Marguerite Pkwy","name":""},
  {"lat":33.56726,"lon":-117.18201,"city":"Murrieta","state":"CA","address":"25140 Hancock Ave.","name":""},
  {"lat":33.193943,"lon":-117.378217,"city":"Oceanside","state":"CA","address":"133 South Coast Highway","name":""},
  {"lat":33.721537,"lon":-116.36107,"city":"Palm Desert","state":"CA","address":"74-700 Highway 111","name":""},
  {"lat":32.9386,"lon":-117.0284,"city":"Poway","state":"CA","address":"14068 Stowe Drive","name":""},
  {"lat":33.742815,"lon":-116.413547,"city":"Rancho Mirage","state":"CA","address":"71-700 Highway 111","name":""},
  {"lat":33.018951,"lon":-117.205169,"city":"Rancho Santa Fe","state":"CA","address":"5951 Linea Del Cielo","name":""},
  {"lat":33.410271,"lon":-117.599915,"city":"San Clemente","state":"CA","address":"2481 S. El Camino Real","name":""},
  {"lat":32.719741,"lon":-117.166714,"city":"San Diego","state":"CA","address":"401 W Ash Street","name":""},
  {"lat":32.9358,"lon":-117.2363,"city":"San Diego","state":"CA","address":"11915 El Camino Real","name":""},
  {"lat":32.758876,"lon":-117.17843,"city":"San Diego","state":"CA","address":"1515 Hotel Circle South","name":""},
  {"lat":32.769863,"lon":-117.160332,"city":"San Diego","state":"CA","address":"7450 Hazard Center Drive","name":""},
  {"lat":32.726448,"lon":-117.22354,"city":"San Diego","state":"CA","address":"4875 N Harbor Dr","name":""},
  {"lat":32.712025,"lon":-117.170486,"city":"San Diego","state":"CA","address":"601 Pacific Highway","name":""},
  {"lat":32.87458,"lon":-117.208603,"city":"San Diego","state":"CA","address":"4550 La Jolla Village Drive","name":""},
  {"lat":32.756005,"lon":-117.205988,"city":"San Diego","state":"CA","address":"3888 Greenwood St","name":""},
  {"lat":32.729875,"lon":-117.210957,"city":"San Diego","state":"CA","address":"2211 Lee Court","name":""},
  {"lat":32.721268,"lon":-117.170532,"city":"San Diego","state":"CA","address":"1531 Pacific Highway","name":""},
  {"lat":32.834133,"lon":-117.143181,"city":"San Diego","state":"CA","address":"5434 Kearny Mesa Road","name":""},
  {"lat":32.934902,"lon":-117.238464,"city":"San Diego","state":"CA","address":"11920 El Camino Real","name":""},
  {"lat":32.758,"lon":-117.1822,"city":"San Diego","state":"CA","address":"2151 Hotel Circle South","name":""},
  {"lat":32.9171,"lon":-117.2288,"city":"San Diego","state":"CA","address":"3939 Ocean Bluff Ave","name":""},
  {"lat":32.725906,"lon":-117.171778,"city":"San Diego","state":"CA","address":"2137 Pacific Highway Suite A","name":""},
  {"lat":32.811792,"lon":-117.115945,"city":"San Diego","state":"CA","address":"3805 Murphy Canyon Road","name":""},
  {"lat":32.75835,"lon":-117.198006,"city":"San Diego","state":"CA","address":"4200 Taylor Street","name":""},
  {"lat":33.026188,"lon":-117.074938,"city":"San Diego","state":"CA","address":"17240 Bernardo Center Drive","name":""},
  {"lat":32.724828,"lon":-117.208836,"city":"San Diego","state":"CA","address":"1960 Harbor Island Drive","name":""},
  {"lat":32.7044,"lon":-117.1592,"city":"San Diego","state":"CA","address":"1 Park Boulevard","name":""},
  {"lat":32.707897,"lon":-117.160561,"city":"San Diego","state":"CA","address":"401 K Street","name":""},
  {"lat":32.764217,"lon":-117.15394,"city":"San Diego","state":"CA","address":"901 Camino del Rio South","name":""},
  {"lat":32.719629,"lon":-117.159938,"city":"San Diego","state":"CA","address":"1357 5th Ave.","name":""},
  {"lat":32.728495,"lon":-117.218651,"city":"San Diego","state":"CA","address":"2576 Laning Road","name":""},
  {"lat":32.917586,"lon":-117.114307,"city":"San Diego","state":"CA","address":"9880 Mira Mesa Blvd","name":""},
  {"lat":32.726437,"lon":-117.171763,"city":"San Diego","state":"CA","address":"2137 Pacific Highway Suite B","name":""},
  {"lat":32.758877,"lon":-117.183162,"city":"San Diego","state":"CA","address":"2201 Hotel Circle South","name":""},
  {"lat":32.762317,"lon":-117.159674,"city":"San Diego","state":"CA","address":"445 Camino Del Rio South","name":""},
  {"lat":32.916523,"lon":-117.228813,"city":"San Diego","state":"CA","address":"11025 Vista Sorrento Parkway","name":""},
  {"lat":32.935024,"lon":-117.239948,"city":"San Diego","state":"CA","address":"3510 Valley Center Dr","name":""},
  {"lat":32.725616,"lon":-117.228166,"city":"San Diego","state":"CA","address":"1451 Rosecrans Street","name":""},
  {"lat":32.719629,"lon":-117.159938,"city":"San Diego","state":"CA","address":"1357 5th Ave.","name":""},
  {"lat":33.135693,"lon":-117.16299,"city":"San Marcos","state":"CA","address":"123 E. Carmel Street","name":""},
  {"lat":33.716793,"lon":-118.282806,"city":"San Pedro","state":"CA","address":"2800 Via Cabrillo Marina","name":""},
  {"lat":33.708937,"lon":-117.85356,"city":"Santa Ana","state":"CA","address":"1325 East Dyer Road","name":""},
  {"lat":33.7004,"lon":-117.8661,"city":"Santa Ana","state":"CA","address":"201 East MacArthur Blvd","name":""},
  {"lat":33.5018,"lon":-117.1494,"city":"Temecula","state":"CA","address":"29345 Rancho California Road","name":""},
  {"lat":33.501705,"lon":-117.154626,"city":"Temecula","state":"CA","address":"28190 Jefferson Avenue","name":""},
  {"lat":33.502098,"lon":-117.153994,"city":"Temecula","state":"CA","address":"28210 Jefferson Ave.","name":""},
  {"lat":33.497845,"lon":-117.160047,"city":"Temecula","state":"CA","address":"28400 Rancho California Road","name":""},
  {"lat":32.698716,"lon":-114.604298,"city":"Yuma","state":"AZ","address":"1600 East 16th Street","name":""},
  {"lat":32.7266,"lon":-114.6197,"city":"Yuma","state":"AZ","address":"310 N Madison Ave","name":""},
  {"lat":32.725621,"lon":-114.619178,"city":"Yuma","state":"AZ","address":"155 North Madison Avenue","name":""},
  {"lat":32.698094,"lon":-114.600593,"city":"Yuma","state":"AZ","address":"1955 East 16th Street","name":""},
  {"lat":40.9014,"lon":-124.0834,"city":"Arcata","state":"CA","address":"4750 Valley West Blvd","name":""},
  {"lat":40.788754,"lon":-124.180919,"city":"Eureka","state":"CA","address":"2112 Broadway","name":""},
  {"lat":35.61139,"lon":-121.141,"city":"San Simeon","state":"CA","address":"9070 Castillo Dr","name":""},
  {"lat":34.1456,"lon":-118.7823,"city":"Agoura Hills","state":"CA","address":"30255 Agoura Road","name":""},
  {"lat":34.146278,"lon":-118.755463,"city":"Agoura Hills","state":"CA","address":"28901 Canwood St.","name":""},
  {"lat":35.129024,"lon":-120.601131,"city":"Arroyo Grande","state":"CA","address":"1400 West Branch Street","name":""},
  {"lat":34.989158,"lon":-118.942593,"city":"Arvin","state":"CA","address":"5601 Outlets at Tejon Parkway","name":""},
  {"lat":35.515039,"lon":-120.698921,"city":"Atascadero","state":"CA","address":"1800 El Camino Real","name":""},
  {"lat":35.179398,"lon":-120.740139,"city":"Avila Beach","state":"CA","address":"3254 Avila Beach Drive","name":""},
  {"lat":35.382141,"lon":-119.046524,"city":"Bakersfield","state":"CA","address":"3100 Camino Del Rio Court","name":""},
  {"lat":35.368675,"lon":-119.045905,"city":"Bakersfield","state":"CA","address":"1401 Easton Drive","name":""},
  {"lat":35.4396,"lon":-119.0769,"city":"Bakersfield","state":"CA","address":"8818 Spectrum Park Way","name":""},
  {"lat":35.3544,"lon":-118.916,"city":"Bakersfield","state":"CA","address":"7941 East Brundage Lane","name":""},
  {"lat":35.380119,"lon":-119.048767,"city":"Bakersfield","state":"CA","address":"3625 Marriott Drive","name":""},
  {"lat":35.368066,"lon":-119.093448,"city":"Bakersfield","state":"CA","address":"8227 Brimhall Road","name":""},
  {"lat":35.341347,"lon":-119.098625,"city":"Bakersfield","state":"CA","address":"1505 Mill Rock Way","name":""},
  {"lat":35.3675,"lon":-119.039,"city":"Bakersfield","state":"CA","address":"1017 Oak Street","name":""},
  {"lat":34.066345,"lon":-118.413025,"city":"Beverly Hills","state":"CA","address":"9876 Wilshire Boulevard","name":""},
  {"lat":34.066878,"lon":-118.41113,"city":"Beverly Hills","state":"CA","address":"9850 Wilshire Blvd","name":""},
  {"lat":34.618195,"lon":-120.187342,"city":"Buellton","state":"CA","address":"600 McMurray Road","name":""},
  {"lat":34.206955,"lon":-118.342575,"city":"Burbank","state":"CA","address":"7501 North Glenoaks Boulevard","name":""},
  {"lat":34.178238,"lon":-118.305885,"city":"Burbank","state":"CA","address":"401 S. San Fernando Blvd","name":""},
  {"lat":34.151436,"lon":-118.64856,"city":"Calabasas","state":"CA","address":"24150 Park Sorrento","name":""},
  {"lat":34.22107,"lon":-119.07183,"city":"Camarillo","state":"CA","address":"50 W. Daily Drive","name":""},
  {"lat":34.218166,"lon":-119.066337,"city":"Camarillo","state":"CA","address":"623 E Ventura Blvd.","name":""},
  {"lat":33.831749,"lon":-118.26208,"city":"Carson","state":"CA","address":"2 Civic Plaza","name":""},
  {"lat":33.872383,"lon":-118.26286,"city":"Carson","state":"CA","address":"767 Albertoni St.","name":""},
  {"lat":34.248337,"lon":-118.606583,"city":"Chatsworth","state":"CA","address":"9777 Topanga Canyon Blvd","name":""},
  {"lat":34.004066,"lon":-118.151001,"city":"Commerce","state":"CA","address":"5757 Telegraph Road","name":""},
  {"lat":33.982627,"lon":-118.395681,"city":"Culver City","state":"CA","address":"6161 West Centinela Avenue","name":""},
  {"lat":33.943,"lon":-118.134,"city":"Downey","state":"CA","address":"8425 Firestone Boulevard","name":""},
  {"lat":33.919846,"lon":-118.391998,"city":"El Segundo","state":"CA","address":"1985 East Grand Ave.","name":""},
  {"lat":33.930573,"lon":-118.400742,"city":"El Segundo","state":"CA","address":"1440 East Imperial Avenue","name":""},
  {"lat":33.928251,"lon":-118.395887,"city":"El Segundo","state":"CA","address":"888 N. Pacific Coast Hwy","name":""},
  {"lat":33.9234,"lon":-118.3877,"city":"El Segundo","state":"CA","address":"2100 East Mariposa Avenue","name":""},
  {"lat":34.157749,"lon":-118.257675,"city":"Glendale","state":"CA","address":"800 North Central Avenue","name":""},
  {"lat":34.142373,"lon":-118.255718,"city":"Glendale","state":"CA","address":"114 W. Colorado","name":""},
  {"lat":34.158695,"lon":-118.256294,"city":"Glendale","state":"CA","address":"100 West Glenoaks Blvd","name":""},
  {"lat":34.434998,"lon":-119.822243,"city":"Goleta","state":"CA","address":"5665 Hollister Ave.","name":""},
  {"lat":34.43054,"lon":-119.868842,"city":"Goleta","state":"CA","address":"6878 Hollister Avenue","name":""},
  {"lat":34.4414,"lon":-119.82087,"city":"Goleta","state":"CA","address":"5650 Calle Real","name":""},
  {"lat":36.319756,"lon":-119.670851,"city":"Hanford","state":"CA","address":"1589 Glendale Avenue","name":""},
  {"lat":33.930752,"lon":-118.351051,"city":"Hawthorne","state":"CA","address":"11430 Acacia Ave.","name":""},
  {"lat":33.865953,"lon":-118.393305,"city":"Hermosa Beach","state":"CA","address":"1530 Pacific Coast Highway","name":""},
  {"lat":33.942755,"lon":-118.369601,"city":"Inglewood","state":"CA","address":"10300 La Cienega Boulevard","name":""},
  {"lat":33.944991,"lon":-118.342312,"city":"Inglewood","state":"CA","address":"3900 W Century Blvd","name":""},
  {"lat":34.7017,"lon":-118.1728,"city":"Lancaster","state":"CA","address":"2300 W. Double Play Way","name":""},
  {"lat":34.7017,"lon":-118.1747,"city":"Lancaster","state":"CA","address":"2320 Double Play Way","name":""},
  {"lat":34.655758,"lon":-120.458778,"city":"Lompoc","state":"CA","address":"1117 North H Street","name":""},
  {"lat":34.657416,"lon":-120.458826,"city":"Lompoc","state":"CA","address":"1201 North H Street","name":""},
  {"lat":33.827334,"lon":-118.143544,"city":"Long Beach","state":"CA","address":"3771 N Lakewood Blvd.","name":""},
  {"lat":33.7677,"lon":-118.1986,"city":"Long Beach","state":"CA","address":"701 West Ocean Boulevard","name":""},
  {"lat":33.827264,"lon":-118.143851,"city":"Long Beach","state":"CA","address":"3771 N Lakewood Blvd.","name":""},
  {"lat":34.055496,"lon":-118.398621,"city":"Los Angeles","state":"CA","address":"1224 Beverwil Dr","name":""},
  {"lat":34.055207,"lon":-118.248678,"city":"Los Angeles","state":"CA","address":"100 South Grand Ave.","name":""},
  {"lat":34.050587,"lon":-118.242638,"city":"Los Angeles","state":"CA","address":"120 South Los Angeles Street","name":""},
  {"lat":33.946953,"lon":-118.386505,"city":"Los Angeles","state":"CA","address":"9801 Airport Boulevard","name":""},
  {"lat":33.946079,"lon":-118.392727,"city":"Los Angeles","state":"CA","address":"6151 West Century Blvd.","name":""},
  {"lat":34.091823,"lon":-118.326845,"city":"Los Angeles","state":"CA","address":"1133 Vine Street","name":""},
  {"lat":34.049739,"lon":-118.25455,"city":"Los Angeles","state":"CA","address":"535 South Grand Avenue","name":""},
  {"lat":33.946,"lon":-118.372,"city":"Los Angeles","state":"CA","address":"5249 W Century Blvd","name":""},
  {"lat":34.106613,"lon":-118.337975,"city":"Los Angeles","state":"CA","address":"2005 N. Highland Avenue","name":""},
  {"lat":33.945437,"lon":-118.37926,"city":"Los Angeles","state":"CA","address":"5711 West Century Boulevard","name":""},
  {"lat":33.946197,"lon":-118.392791,"city":"Los Angeles","state":"CA","address":"6151 W. Century Blvd","name":""},
  {"lat":34.047,"lon":-118.261,"city":"Los Angeles","state":"CA","address":"813 S Flower Street","name":""},
  {"lat":33.900313,"lon":-118.396996,"city":"Manhattan Beach","state":"CA","address":"3501 N. Sepulveda Blvd.","name":""},
  {"lat":33.985229,"lon":-118.455185,"city":"Marina del Rey","state":"CA","address":"4200 Admiralty Way","name":""},
  {"lat":33.9861,"lon":-118.4425,"city":"Marina del Rey","state":"CA","address":"13480 Maxella Avenue","name":""},
  {"lat":33.982735,"lon":-118.457728,"city":"Marina del Rey","state":"CA","address":"4175 Admiralty Way","name":""},
  {"lat":34.026876,"lon":-118.13477,"city":"Montebello","state":"CA","address":"801 Via San Clemente","name":""},
  {"lat":34.029971,"lon":-118.130068,"city":"Montebello","state":"CA","address":"988 Bella Verde Drive","name":""},
  {"lat":35.380737,"lon":-120.856454,"city":"Morro Bay","state":"CA","address":"295 Atascadero Road","name":""},
  {"lat":34.171926,"lon":-118.377942,"city":"North Hollywood","state":"CA","address":"11350 Burbank Blvd","name":""},
  {"lat":34.172557,"lon":-119.225366,"city":"Oxnard","state":"CA","address":"3231 Peninsula Road","name":""},
  {"lat":34.221138,"lon":-119.144058,"city":"Oxnard","state":"CA","address":"2000 Solar Drive","name":""},
  {"lat":34.219405,"lon":-119.144868,"city":"Oxnard","state":"CA","address":"1950 Solar Drive","name":""},
  {"lat":34.178927,"lon":-119.235463,"city":"Oxnard","state":"CA","address":"2101 Mandalay Beach Road","name":""},
  {"lat":34.581212,"lon":-118.135222,"city":"Palmdale","state":"CA","address":"300 W Palmdale Blvd","name":""},
  {"lat":34.5974,"lon":-118.14,"city":"Palmdale","state":"CA","address":"39375 5th St. West","name":""},
  {"lat":34.59972,"lon":-118.142326,"city":"Palmdale","state":"CA","address":"39428 Trade Center Drive","name":""},
  {"lat":34.6085,"lon":-118.1546,"city":"Palmdale","state":"CA","address":"1309 W. Rancho Vista Blvd","name":""},
  {"lat":34.586693,"lon":-118.138256,"city":"Palmdale","state":"CA","address":"38750 5th Street West","name":""},
  {"lat":34.142746,"lon":-118.140785,"city":"Pasadena","state":"CA","address":"168 South Los Robles Avenue","name":""},
  {"lat":35.588342,"lon":-120.697465,"city":"Paso Robles","state":"CA","address":"206 Alexa Ct","name":""},
  {"lat":35.588583,"lon":-120.69763,"city":"Paso Robles","state":"CA","address":"212 Alexa Court","name":""},
  {"lat":35.624419,"lon":-120.688392,"city":"Paso Robles","state":"CA","address":"944 Pine Street","name":""},
  {"lat":35.136723,"lon":-120.620567,"city":"Pismo Beach","state":"CA","address":"601 James Way","name":""},
  {"lat":35.139495,"lon":-120.641845,"city":"Pismo Beach","state":"CA","address":"601 Cypress St","name":""},
  {"lat":34.274417,"lon":-118.574255,"city":"Porter Ranch","state":"CA","address":"20150 Rinaldi Street","name":""},
  {"lat":33.893848,"lon":-118.366566,"city":"Redondo Beach","state":"CA","address":"2410 Marine Avenue","name":""},
  {"lat":33.892156,"lon":-118.364219,"city":"Redondo Beach","state":"CA","address":"2430 Marine Avenue","name":""},
  {"lat":33.84674,"lon":-118.39336,"city":"Redondo Beach","state":"CA","address":"400 N Harbor Drive","name":""},
  {"lat":35.259108,"lon":-120.674716,"city":"San Luis Obispo","state":"CA","address":"333 Madonna Road","name":""},
  {"lat":35.245018,"lon":-120.683372,"city":"San Luis Obispo","state":"CA","address":"1530 Calle Joaquin","name":""},
  {"lat":35.289631,"lon":-120.65159,"city":"San Luis Obispo","state":"CA","address":"1800 Monterey Street","name":""},
  {"lat":34.416757,"lon":-119.676672,"city":"Santa Barbara","state":"CA","address":"633 East Cabrillo Boulevard","name":""},
  {"lat":34.41615,"lon":-119.69573,"city":"Santa Barbara","state":"CA","address":"17 W Haley","name":""},
  {"lat":34.441465,"lon":-118.593704,"city":"Santa Clarita","state":"CA","address":"28700 Newhall Ranch Rd","name":""},
  {"lat":34.377648,"lon":-118.5675,"city":"Santa Clarita","state":"CA","address":"25259 The Old Road","name":""},
  {"lat":34.441452,"lon":-118.593118,"city":"Santa Clarita","state":"CA","address":"28700 Newhall Ranch Road","name":""},
  {"lat":34.979871,"lon":-120.434677,"city":"Santa Maria","state":"CA","address":"2190 Preisker Lane","name":""},
  {"lat":34.9789,"lon":-120.43345,"city":"Santa Maria","state":"CA","address":"2100 North Broadway","name":""},
  {"lat":34.014878,"lon":-118.491075,"city":"Santa Monica","state":"CA","address":"501 Colorado Avenue","name":""},
  {"lat":34.011794,"lon":-118.489103,"city":"Santa Monica","state":"CA","address":"1707 Fourth Street","name":""},
  {"lat":34.021286,"lon":-118.505676,"city":"Santa Monica","state":"CA","address":"849 Ocean Ave","name":""},
  {"lat":34.1732,"lon":-118.4661,"city":"Sherman Oaks","state":"CA","address":"5638 Sepulveda Blvd.","name":""},
  {"lat":34.595253,"lon":-120.146188,"city":"Solvang","state":"CA","address":"1450 Mission Drive","name":""},
  {"lat":34.1864,"lon":-118.9104,"city":"Thousand Oaks","state":"CA","address":"510 North Ventu Park Road","name":""},
  {"lat":36.419769,"lon":-118.92093,"city":"Three Rivers","state":"CA","address":"40457 Sierra Dr","name":""},
  {"lat":33.834423,"lon":-118.354454,"city":"Torrance","state":"CA","address":"21333 Hawthorne Boulevard","name":""},
  {"lat":36.223904,"lon":-119.33625,"city":"Tulare","state":"CA","address":"1100 N. Cherry Street","name":""},
  {"lat":34.1386,"lon":-118.3613,"city":"Universal City","state":"CA","address":"555 Universal Hollywood Drive","name":""},
  {"lat":34.4426,"lon":-118.6004,"city":"Valencia","state":"CA","address":"28508 Westinghouse Place","name":""},
  {"lat":34.423958,"lon":-118.585,"city":"Valencia","state":"CA","address":"27710 The Old Road","name":""},
  {"lat":36.326515,"lon":-119.344238,"city":"Visalia","state":"CA","address":"4747 W. Noble Ave","name":""},
  {"lat":36.328516,"lon":-119.388658,"city":"Visalia","state":"CA","address":"8715 West Hillsdale Avenue","name":""},
  {"lat":34.186133,"lon":-118.597346,"city":"Woodland Hills","state":"CA","address":"6360 Canoga Avenue","name":""},
  {"lat":34.17885,"lon":-118.593377,"city":"Woodland Hills","state":"CA","address":"21110 Oxnard Street","name":""},
  {"lat":37.6729,"lon":-122.3884,"city":"Brisbane","state":"CA","address":"5000 Sierra Point Parkway","name":""},
  {"lat":37.673119,"lon":-122.38754,"city":"Brisbane","state":"CA","address":"2000 Shoreline Court","name":""},
  {"lat":37.590625,"lon":-122.350917,"city":"Burlingame","state":"CA","address":"835 Airport Blvd.","name":""},
  {"lat":37.59161,"lon":-122.348061,"city":"Burlingame","state":"CA","address":"150 Anza Boulevard","name":""},
  {"lat":37.601761,"lon":-122.371613,"city":"Burlingame","state":"CA","address":"1755 Bayshore Highway","name":""},
  {"lat":37.690972,"lon":-122.471055,"city":"Daly City","state":"CA","address":"2700 Junipero Serra Boulevard","name":""},
  {"lat":37.52198,"lon":-122.51362,"city":"Moss Beach","state":"CA","address":"221 Cypress Ave","name":""},
  {"lat":37.782434,"lon":-122.402136,"city":"San Francisco","state":"CA","address":"250 4th Street","name":""},
  {"lat":37.7819,"lon":-122.4077,"city":"San Francisco","state":"CA","address":"942 Mission Street","name":""},
  {"lat":37.7952,"lon":-122.4048,"city":"San Francisco","state":"CA","address":"750 Kearny Street","name":""},
  {"lat":37.786103,"lon":-122.410253,"city":"San Francisco","state":"CA","address":"333 O'Farrell Street","name":""},
  {"lat":37.79956,"lon":-122.43986,"city":"San Francisco","state":"CA","address":"2322 Lombard St","name":""},
  {"lat":37.784835,"lon":-122.408926,"city":"San Francisco","state":"CA","address":"55 Cyril Magnin Street","name":""},
  {"lat":37.7868,"lon":-122.40836,"city":"San Francisco","state":"CA","address":"225 Powell St","name":""},
  {"lat":37.783064,"lon":-122.409958,"city":"San Francisco","state":"CA","address":"33 Turk St","name":""},
  {"lat":37.646758,"lon":-122.404486,"city":"South","state":"CA","address":"275 South Airport Blvd","name":""},
  {"lat":37.655647,"lon":-122.401254,"city":"South","state":"CA","address":"250 Gateway Boulevard","name":""},
  {"lat":37.656154,"lon":-122.400598,"city":"South","state":"CA","address":"300 Gateway Blvd.","name":""},
  {"lat":37.657598,"lon":-122.397377,"city":"South","state":"CA","address":"670 Gateway Blvd","name":""},
  {"lat":37.657103,"lon":-122.399246,"city":"South","state":"CA","address":"550 Gateway Blvd","name":""},
  {"lat":37.724514,"lon":-122.242279,"city":"Alameda","state":"CA","address":"1700 Harbor Bay Parkway","name":""},
  {"lat":37.724798,"lon":-122.241886,"city":"Alameda","state":"CA","address":"1660 Harbor Bay Parkway","name":""},
  {"lat":36.979254,"lon":-121.910741,"city":"Aptos","state":"CA","address":"7500 Old Dominion Court","name":""},
  {"lat":37.525079,"lon":-122.267507,"city":"Belmont","state":"CA","address":"1201 Shoreway Rd","name":""},
  {"lat":37.8686,"lon":-122.3139,"city":"Berkeley","state":"CA","address":"200 Marina Blvd.","name":""},
  {"lat":37.867976,"lon":-122.256305,"city":"Berkeley","state":"CA","address":"2600 Durant Ave","name":""},
  {"lat":37.945637,"lon":-121.696762,"city":"Brentwood","state":"CA","address":"7605 Brentwood Boulevard","name":""},
  {"lat":37.5895,"lon":-122.3428,"city":"Burlingame","state":"CA","address":"600 Airport Blvd.","name":""},
  {"lat":37.2895,"lon":-121.9335,"city":"Campbell","state":"CA","address":"1995 South Bascom Avenue","name":""},
  {"lat":37.3342,"lon":-122.0147,"city":"Cupertino","state":"CA","address":"10741 North Wolfe Road","name":""},
  {"lat":37.321697,"lon":-122.031509,"city":"Cupertino","state":"CA","address":"10050 S. De Anza Boulevard","name":""},
  {"lat":37.838058,"lon":-122.297813,"city":"Emeryville","state":"CA","address":"1800 Powell Street","name":""},
  {"lat":37.484829,"lon":-121.940102,"city":"Fremont","state":"CA","address":"46500 Landing Parkway","name":""},
  {"lat":37.494642,"lon":-121.931637,"city":"Fremont","state":"CA","address":"45976 Warm Springs Blvd","name":""},
  {"lat":37.506277,"lon":-121.973202,"city":"Fremont","state":"CA","address":"43151 Christy Street","name":""},
  {"lat":36.98632,"lon":-121.556501,"city":"Gilroy","state":"CA","address":"5975 Travel Park Circle","name":""},
  {"lat":36.988434,"lon":-121.559555,"city":"Gilroy","state":"CA","address":"6070 Monterey Road","name":""},
  {"lat":37.66573,"lon":-122.079132,"city":"Hayward","state":"CA","address":"24137 Mission Boulevard","name":""},
  {"lat":37.659683,"lon":-122.11519,"city":"Hayward","state":"CA","address":"22101 Hesperian Blvd","name":""},
  {"lat":37.812458,"lon":-121.293312,"city":"Lathrop","state":"CA","address":"103 East Louise Avenue","name":""},
  {"lat":37.812386,"lon":-121.292712,"city":"Lathrop","state":"CA","address":"161 East Louise Ave","name":""},
  {"lat":37.70428,"lon":-121.73833,"city":"Livermore","state":"CA","address":"720 Las Flores Rd","name":""},
  {"lat":37.702663,"lon":-121.816582,"city":"Livermore","state":"CA","address":"2850 Constitution Drive","name":""},
  {"lat":37.701,"lon":-121.8172,"city":"Livermore","state":"CA","address":"2801 Constitution Drive","name":""},
  {"lat":37.701819,"lon":-121.813489,"city":"Livermore","state":"CA","address":"2625 Constitution Drive","name":""},
  {"lat":37.6988,"lon":-121.837649,"city":"Livermore","state":"CA","address":"5400 Wolf House Drive","name":""},
  {"lat":37.7805,"lon":-121.2224,"city":"Manteca","state":"CA","address":"1461 Bass Pro Drive","name":""},
  {"lat":37.799328,"lon":-121.192601,"city":"Manteca","state":"CA","address":"180 Northwoods Ave","name":""},
  {"lat":36.694868,"lon":-121.802992,"city":"Marina","state":"CA","address":"120 Reservation Rd","name":""},
  {"lat":36.665226,"lon":-121.807599,"city":"Marina","state":"CA","address":"225 10th Street","name":""},
  {"lat":37.434776,"lon":-121.892044,"city":"Milpitas","state":"CA","address":"901 East Calaveras Boulevard","name":""},
  {"lat":37.423374,"lon":-121.919884,"city":"Milpitas","state":"CA","address":"215 Barber Court","name":""},
  {"lat":37.425172,"lon":-121.922885,"city":"Milpitas","state":"CA","address":"30 Ranch Drive","name":""},
  {"lat":37.641586,"lon":-121.002625,"city":"Modesto","state":"CA","address":"1150 Ninth Street","name":""},
  {"lat":37.64517,"lon":-121.01378,"city":"Modesto","state":"CA","address":"500 Kansas Ave","name":""},
  {"lat":36.605761,"lon":-121.86004,"city":"Monterey","state":"CA","address":"2401 Del Monte Avenue","name":""},
  {"lat":36.59051,"lon":-121.87975,"city":"Monterey","state":"CA","address":"1000 Aguajito Road","name":""},
  {"lat":37.121067,"lon":-121.624229,"city":"Morgan Hill","state":"CA","address":"16115 Condit Road","name":""},
  {"lat":37.39892,"lon":-122.075086,"city":"Mountain View","state":"CA","address":"390 Moffett Blvd.","name":""},
  {"lat":37.521999,"lon":-121.990837,"city":"Newark","state":"CA","address":"39900 Balentine Drive","name":""},
  {"lat":37.522789,"lon":-122.00324,"city":"Newark","state":"CA","address":"39270 Cedar Boulevard","name":""},
  {"lat":37.8017,"lon":-122.270568,"city":"Oakland","state":"CA","address":"378 11th Street","name":""},
  {"lat":37.7881,"lon":-122.2519,"city":"Oakland","state":"CA","address":"1103 Embarcadero","name":""},
  {"lat":37.448008,"lon":-122.159237,"city":"Palo Alto","state":"CA","address":"488 University Ave","name":""},
  {"lat":37.409182,"lon":-122.122719,"city":"Palo Alto","state":"CA","address":"4216 El Camino Real","name":""},
  {"lat":37.405647,"lon":-122.118248,"city":"Palo Alto","state":"CA","address":"4329 El Camino Real","name":""},
  {"lat":37.465203,"lon":-121.16712,"city":"Patterson","state":"CA","address":"2467 Sperry Avenue","name":""},
  {"lat":37.96184,"lon":-122.054533,"city":"Pleasant Hill","state":"CA","address":"650 Ellinwood Way","name":""},
  {"lat":37.7012,"lon":-121.9177,"city":"Pleasanton","state":"CA","address":"7050 Johnson Drive","name":""},
  {"lat":37.70021,"lon":-121.06919,"city":"Salida","state":"CA","address":"4921 Sisk Road","name":""},
  {"lat":36.6702,"lon":-121.6416,"city":"Salinas","state":"CA","address":"523 Work Street","name":""},
  {"lat":37.371635,"lon":-121.92276,"city":"San Jose","state":"CA","address":"2050 Gateway Place","name":""},
  {"lat":37.376209,"lon":-121.919772,"city":"San Jose","state":"CA","address":"2088 North First Street","name":""},
  {"lat":37.25708,"lon":-121.8709,"city":"San Jose","state":"CA","address":"5190 Cherry Ave","name":""},
  {"lat":37.26266,"lon":-121.820747,"city":"San Jose","state":"CA","address":"200 Edenvale Avenue","name":""},
  {"lat":37.363167,"lon":-121.908117,"city":"San Jose","state":"CA","address":"101 E Gish Rd","name":""},
  {"lat":37.3294,"lon":-121.8908,"city":"San Jose","state":"CA","address":"300 Almaden Boulevard","name":""},
  {"lat":37.258808,"lon":-121.784704,"city":"San Jose","state":"CA","address":"5952 Silver Creek Valley Rd","name":""},
  {"lat":37.385796,"lon":-121.92778,"city":"San Jose","state":"CA","address":"10 West Trimble Road","name":""},
  {"lat":37.420514,"lon":-121.96273,"city":"San Jose","state":"CA","address":"4315 N. First Street","name":""},
  {"lat":37.333093,"lon":-121.888657,"city":"San Jose","state":"CA","address":"170 S Market St","name":""},
  {"lat":37.378595,"lon":-121.938791,"city":"San Jose","state":"CA","address":"2585 Seaboard Ave","name":""},
  {"lat":37.686463,"lon":-122.13351,"city":"San Leandro","state":"CA","address":"510 Lewelling Boulevard","name":""},
  {"lat":37.543918,"lon":-122.285767,"city":"San Mateo","state":"CA","address":"2940 S. Norfolk Street","name":""},
  {"lat":37.563491,"lon":-122.28182,"city":"San Mateo","state":"CA","address":"2000 Bridgepointe Circle","name":""},
  {"lat":37.39162,"lon":-121.977183,"city":"Santa Clara","state":"CA","address":"4200 Great America Pkwy","name":""},
  {"lat":37.3834,"lon":-121.9794,"city":"Santa Clara","state":"CA","address":"2885 Lakeside Drive","name":""},
  {"lat":37.402729,"lon":-121.977604,"city":"Santa Clara","state":"CA","address":"4949 Great America Parkway","name":""},
  {"lat":36.985138,"lon":-122.023666,"city":"Santa Cruz","state":"CA","address":"1505 Ocean Street","name":""},
  {"lat":36.960943,"lon":-122.049069,"city":"Santa Cruz","state":"CA","address":"2424 Mission Street","name":""},
  {"lat":37.036,"lon":-122.0234,"city":"Santa Cruz","state":"CA","address":"6001 La Madrona Drive","name":""},
  {"lat":37.112295,"lon":-121.015144,"city":"Santa Nella","state":"CA","address":"28976 Plaza Drive","name":""},
  {"lat":37.257863,"lon":-122.034419,"city":"Saratoga","state":"CA","address":"20645 Fourth Street","name":""},
  {"lat":36.606642,"lon":-121.855668,"city":"Seaside","state":"CA","address":"1441 Canyon Del Rey","name":""},
  {"lat":37.905889,"lon":-121.219746,"city":"Stockton","state":"CA","address":"3651 Arch Rd.","name":""},
  {"lat":37.354254,"lon":-122.014928,"city":"Sunnyvale","state":"CA","address":"861 E. El Camino Real","name":""},
  {"lat":37.394735,"lon":-122.029552,"city":"Sunnyvale","state":"CA","address":"767 N. Mathilda","name":""},
  {"lat":37.355397,"lon":-122.017786,"city":"Sunnyvale","state":"CA","address":"830 E. El Camino Real","name":""},
  {"lat":37.75639,"lon":-121.46135,"city":"Tracy","state":"CA","address":"2400 Naglee Road","name":""},
  {"lat":37.754299,"lon":-121.453792,"city":"Tracy","state":"CA","address":"2025 W Grant Line Road","name":""},
  {"lat":37.597428,"lon":-122.070006,"city":"Union City","state":"CA","address":"31040 Alvarado-Niles Road","name":""},
  {"lat":37.927189,"lon":-122.058037,"city":"Walnut Creek","state":"CA","address":"1345 Treat Boulevard","name":""},
  {"lat":37.914235,"lon":-122.064275,"city":"Walnut Creek","state":"CA","address":"490 Lawrence Way","name":""},
  {"lat":36.895433,"lon":-121.778612,"city":"Watsonville","state":"CA","address":"75 Lee Road","name":""},
  {"lat":38.496239,"lon":-123.008583,"city":"Guerneville","state":"CA","address":"14120 Old Cazadero Rd","name":""},
  {"lat":38.499833,"lon":-122.988781,"city":"Guerneville","state":"CA","address":"13555 Highway 116","name":""},
  {"lat":38.62537,"lon":-122.87646,"city":"Healdsburg","state":"CA","address":"1261 Grove Street","name":""},
  {"lat":38.236008,"lon":-122.631374,"city":"Petaluma","state":"CA","address":"450 Jefferson St","name":""},
  {"lat":38.271773,"lon":-122.668092,"city":"Petaluma","state":"CA","address":"1205 Redwood Way","name":""},
  {"lat":38.23546,"lon":-122.6424,"city":"Petaluma","state":"CA","address":"205 Kentucky Street","name":""},
  {"lat":38.3655,"lon":-122.7078,"city":"Rohnert Park","state":"CA","address":"One Doubletree Drive","name":""},
  {"lat":38.3495,"lon":-122.7169,"city":"Rohnert Park","state":"CA","address":"6248 Redwood Drive","name":""},
  {"lat":38.346659,"lon":-122.715205,"city":"Rohnert Park","state":"CA","address":"6490 Redwood Dr","name":""},
  {"lat":38.351651,"lon":-122.720732,"city":"Rohnert Park","state":"CA","address":"5870 Labath Ave","name":""},
  {"lat":38.005007,"lon":-122.53249,"city":"San Rafael","state":"CA","address":"101 McInnis Parkway","name":""},
  {"lat":38.451273,"lon":-122.688417,"city":"Santa Rosa","state":"CA","address":"2777 4th Street","name":""},
  {"lat":38.481863,"lon":-122.738303,"city":"Santa Rosa","state":"CA","address":"3815 Airway Dr.","name":""},
  {"lat":38.513382,"lon":-122.781937,"city":"Santa Rosa","state":"CA","address":"417 Aviation Blvd","name":""},
  {"lat":38.29153,"lon":-122.46115,"city":"Sonoma","state":"CA","address":"550 2nd Street West","name":""},
  {"lat":39.135,"lon":-123.1988,"city":"Ukiah","state":"CA","address":"1160 Airport Park Boulevard","name":""},
  {"lat":38.548865,"lon":-122.807921,"city":"Windsor","state":"CA","address":"8937 Brooks Road South","name":""},
  {"lat":38.1729,"lon":-122.2526,"city":"American Canyon","state":"CA","address":"3600 Broadway Street","name":""},
  {"lat":38.176034,"lon":-122.253714,"city":"American Canyon","state":"CA","address":"3701 Main Street","name":""},
  {"lat":37.97024,"lon":-122.046067,"city":"Concord","state":"CA","address":"1785 Pine Street","name":""},
  {"lat":37.971325,"lon":-122.054306,"city":"Concord","state":"CA","address":"1970 Diamond Blvd","name":""},
  {"lat":38.542579,"lon":-121.739601,"city":"Davis","state":"CA","address":"110 F St.","name":""},
  {"lat":38.426792,"lon":-121.48214,"city":"Elk Grove","state":"CA","address":"2305 Longport Ct","name":""},
  {"lat":38.422581,"lon":-121.397583,"city":"Elk Grove","state":"CA","address":"9241 Laguna Springs Drive","name":""},
  {"lat":38.259835,"lon":-122.06002,"city":"Fairfield","state":"CA","address":"2200 Gateway Court","name":""},
  {"lat":38.220371,"lon":-122.137009,"city":"Fairfield","state":"CA","address":"4755 Business Center Drive","name":""},
  {"lat":38.6446,"lon":-121.1116,"city":"Folsom","state":"CA","address":"155 Placerville Road","name":""},
  {"lat":38.6419,"lon":-121.1861,"city":"Folsom","state":"CA","address":"221 Iron Point Road","name":""},
  {"lat":38.117393,"lon":-121.255379,"city":"Lodi","state":"CA","address":"1337 South Beckman Road","name":""},
  {"lat":38.1171,"lon":-121.24953,"city":"Lodi","state":"CA","address":"1337 E Kettleman Lane","name":""},
  {"lat":38.255832,"lon":-122.335077,"city":"Napa","state":"CA","address":"4048 Sonoma Highway","name":""},
  {"lat":38.3001,"lon":-122.3006,"city":"Napa","state":"CA","address":"1075 California Boulevard","name":""},
  {"lat":38.3001,"lon":-122.3006,"city":"Napa","state":"CA","address":"1075 California Boulevard","name":""},
  {"lat":38.282076,"lon":-122.281339,"city":"Napa","state":"CA","address":"945 Hartle Court","name":""},
  {"lat":38.32352,"lon":-122.31184,"city":"Napa","state":"CA","address":"3585 Solano Avenue","name":""},
  {"lat":38.287348,"lon":-122.27445,"city":"Napa","state":"CA","address":"320 Soscol Ave","name":""},
  {"lat":38.013641,"lon":-121.869911,"city":"Pittsburg","state":"CA","address":"1201 California Avenue","name":""},
  {"lat":38.59087,"lon":-121.28566,"city":"Rancho Cordova","state":"CA","address":"10755 Gold Center Drive","name":""},
  {"lat":38.58701,"lon":-121.289277,"city":"Rancho Cordova","state":"CA","address":"10700 White Rock Road","name":""},
  {"lat":38.763641,"lon":-121.256706,"city":"Roseville","state":"CA","address":"1951 Taylor Road","name":""},
  {"lat":38.794461,"lon":-121.299764,"city":"Roseville","state":"CA","address":"1900 Freedom Way","name":""},
  {"lat":38.7727,"lon":-121.26,"city":"Roseville","state":"CA","address":"401 Creekside Ridge Court","name":""},
  {"lat":38.600986,"lon":-121.433098,"city":"Sacramento","state":"CA","address":"2001 Point West Way","name":""},
  {"lat":38.5798,"lon":-121.5068,"city":"Sacramento","state":"CA","address":"100 Capitol Mall","name":""},
  {"lat":38.551724,"lon":-121.42529,"city":"Sacramento","state":"CA","address":"1875 65th Street","name":""},
  {"lat":38.653946,"lon":-121.530235,"city":"Sacramento","state":"CA","address":"3021 Advantage Way","name":""},
  {"lat":38.624729,"lon":-121.412987,"city":"Sacramento","state":"CA","address":"2230 Auburn Blvd.","name":""},
  {"lat":38.650652,"lon":-121.529083,"city":"Sacramento","state":"CA","address":"20 Advantage Ct.","name":""},
  {"lat":38.611715,"lon":-121.51556,"city":"Sacramento","state":"CA","address":"2540 Venture Oaks Way","name":""},
  {"lat":38.606332,"lon":-121.43544,"city":"Sacramento","state":"CA","address":"2200 Harvard St","name":""},
  {"lat":38.551811,"lon":-121.426147,"city":"Sacramento","state":"CA","address":"1865 65th St","name":""},
  {"lat":38.654812,"lon":-121.530045,"city":"Sacramento","state":"CA","address":"3001 Advantage Way","name":""},
  {"lat":38.582132,"lon":-121.501765,"city":"Sacramento","state":"CA","address":"1006 4th Street","name":""},
  {"lat":38.570345,"lon":-121.47097,"city":"Sacramento","state":"CA","address":"1308 28th St","name":""},
  {"lat":37.984596,"lon":-121.336174,"city":"Stockton","state":"CA","address":"2323 Grand Canal Blvd","name":""},
  {"lat":38.242117,"lon":-122.039383,"city":"Suisun City","state":"CA","address":"2 Harbor Center","name":""},
  {"lat":38.1436,"lon":-122.23374,"city":"Vallejo","state":"CA","address":"1596 Fairgrounds Dr","name":""},
  {"lat":38.5906,"lon":-121.5566,"city":"West","state":"CA","address":"800 Stillwater Road","name":""},
  {"lat":38.582241,"lon":-121.521627,"city":"West","state":"CA","address":"1020 West Capitol Ave","name":""},
  {"lat":39.15707,"lon":-122.14183,"city":"Williams","state":"CA","address":"374 Ruggieri Way","name":""},
  {"lat":38.675064,"lon":-121.726646,"city":"Woodland","state":"CA","address":"2060 Freeway Drive","name":""},
  {"lat":38.676232,"lon":-121.730722,"city":"Woodland","state":"CA","address":"441 Douglas Lane","name":""},
  {"lat":39.136169,"lon":-121.637192,"city":"Yuba City","state":"CA","address":"1375 Sunsweet Blvd","name":""},
  {"lat":39.1992,"lon":-119.7774,"city":"Carson City","state":"NV","address":"10 Hospitality Way","name":""},
  {"lat":36.801846,"lon":-119.698706,"city":"Clovis","state":"CA","address":"855 Gettysburg Avenue","name":""},
  {"lat":36.8083,"lon":-119.7213,"city":"Clovis","state":"CA","address":"520 West Shaw Ave","name":""},
  {"lat":36.803667,"lon":-119.69961,"city":"Clovis","state":"CA","address":"810 Santa Ana Ave","name":""},
  {"lat":36.802255,"lon":-119.699215,"city":"Clovis","state":"CA","address":"835 Gettysburg Ave","name":""},
  {"lat":36.732292,"lon":-119.783744,"city":"Fresno","state":"CA","address":"2233 Cesar Chavez","name":""},
  {"lat":36.838566,"lon":-119.782722,"city":"Fresno","state":"CA","address":"327 E. Fir Avenue","name":""},
  {"lat":36.833714,"lon":-119.917557,"city":"Fresno","state":"CA","address":"7194 Kathryn Avenue","name":""},
  {"lat":36.763503,"lon":-119.720308,"city":"Fresno","state":"CA","address":"1515 N Peach Ave","name":""},
  {"lat":36.83577,"lon":-119.91553,"city":"Fresno","state":"CA","address":"6965 W. Farrington Avenue","name":""},
  {"lat":36.8362,"lon":-119.78,"city":"Fresno","state":"CA","address":"6820 North Fresno Street","name":""},
  {"lat":38.34807,"lon":-120.77349,"city":"Jackson","state":"CA","address":"2 Water St.","name":""},
  {"lat":36.995922,"lon":-120.110527,"city":"Madera","state":"CA","address":"3254 Airport Dr","name":""},
  {"lat":37.28582,"lon":-120.452621,"city":"Merced","state":"CA","address":"225 South Parsons Avenue","name":""},
  {"lat":37.273726,"lon":-120.434511,"city":"Merced","state":"CA","address":"1001 S Coffee Street","name":""},
  {"lat":37.543591,"lon":-119.921219,"city":"Midpines","state":"CA","address":"6323 CA-140","name":""},
  {"lat":37.339461,"lon":-119.644411,"city":"Oakhurst","state":"CA","address":"40740 Highway 41","name":""},
  {"lat":36.580842,"lon":-119.635671,"city":"Selma","state":"CA","address":"3410 Floral Avenue","name":""},
  {"lat":38.951461,"lon":-119.950276,"city":"South Lake Tahoe","state":"CA","address":"3838 Lake Tahoe Blvd","name":""},
  {"lat":38.949613,"lon":-119.957004,"city":"South Lake Tahoe","state":"CA","address":"901 Ski Run Boulevard","name":""},
  {"lat":38.938572,"lon":-119.938135,"city":"South Lake Tahoe","state":"CA","address":"3901 Saddle Road","name":""},
  {"lat":39.3164,"lon":-120.1522,"city":"Truckee","state":"CA","address":"11951 State Highway 267","name":""},
  {"lat":37.476114,"lon":-120.850695,"city":"Turlock","state":"CA","address":"1821 Lander Ave","name":""},
  {"lat":37.47579,"lon":-120.851299,"city":"Turlock","state":"CA","address":"1831 Lander Ave","name":""},
  {"lat":33.796681,"lon":-117.915261,"city":"Anaheim","state":"CA","address":"2085 South Harbor Blvd.","name":""},
  {"lat":33.846263,"lon":-117.85433,"city":"Anaheim","state":"CA","address":"3100 East Frontera","name":""},
  {"lat":33.803037,"lon":-117.907046,"city":"Anaheim","state":"CA","address":"100 W. Katella Avenue","name":""},
  {"lat":33.8003,"lon":-117.9184,"city":"Anaheim","state":"CA","address":"777 W Convention Way","name":""},
  {"lat":33.811727,"lon":-117.912614,"city":"Anaheim","state":"CA","address":"1441 S Manchester Ave","name":""},
  {"lat":33.811733,"lon":-117.912619,"city":"Anaheim","state":"CA","address":"1441 S Manchester Ave","name":""},
  {"lat":33.798356,"lon":-117.914666,"city":"Anaheim","state":"CA","address":"2010 S. Harbor Blvd.","name":""},
  {"lat":33.807666,"lon":-117.908932,"city":"Anaheim","state":"CA","address":"1640 South Clementine St","name":""},
  {"lat":34.140187,"lon":-118.02663,"city":"Arcadia","state":"CA","address":"211 East Huntington Drive","name":""},
  {"lat":34.141323,"lon":-118.023438,"city":"Arcadia","state":"CA","address":"311 E. Huntington Drive","name":""},
  {"lat":34.14,"lon":-118.037,"city":"Arcadia","state":"CA","address":"123 W. Huntington Drive","name":""},
  {"lat":34.141727,"lon":-118.026115,"city":"Arcadia","state":"CA","address":"199 North Second Avenue","name":""},
  {"lat":34.118542,"lon":-117.908421,"city":"Azusa","state":"CA","address":"229 S Azusa Ave","name":""},
  {"lat":33.927925,"lon":-116.943199,"city":"Banning","state":"CA","address":"6071 Joshua Palmer Way","name":""},
  {"lat":34.84507,"lon":-117.08345,"city":"Barstow","state":"CA","address":"2710 Lenwood Road","name":""},
  {"lat":34.856026,"lon":-117.083282,"city":"Barstow","state":"CA","address":"2570 Fisher Blvd","name":""},
  {"lat":34.244303,"lon":-116.889791,"city":"Big Bear","state":"CA","address":"41820 Big Bear Boulevard","name":""},
  {"lat":34.244056,"lon":-116.889789,"city":"Big Bear","state":"CA","address":"41820 Big Bear Boulevard","name":""},
  {"lat":33.917381,"lon":-117.887497,"city":"Brea","state":"CA","address":"900 East Birch Street","name":""},
  {"lat":33.857691,"lon":-117.997499,"city":"Buena Park","state":"CA","address":"7000 Beach Blvd","name":""},
  {"lat":33.873756,"lon":-118.005211,"city":"Buena Park","state":"CA","address":"7307 Artesia Blvd.","name":""},
  {"lat":33.859,"lon":-117.996,"city":"Buena Park","state":"CA","address":"6979 Brenner Avenue","name":""},
  {"lat":33.843702,"lon":-116.477741,"city":"Cathedral City","state":"CA","address":"67967 Vista Chino","name":""},
  {"lat":33.786,"lon":-116.459,"city":"Cathedral City","state":"CA","address":"36101 Date Palm Dr.","name":""},
  {"lat":33.827,"lon":-116.48,"city":"Cathedral City","state":"CA","address":"67711 30th Avenue","name":""},
  {"lat":34.0105,"lon":-117.7374,"city":"Chino Hills","state":"CA","address":"3150 Chino Avenue","name":""},
  {"lat":34.107777,"lon":-117.723778,"city":"Claremont","state":"CA","address":"555 W. Foothill Blvd.","name":""},
  {"lat":33.819,"lon":-117.518,"city":"Corona","state":"CA","address":"3989 Bedford Canyon Road","name":""},
  {"lat":33.81025,"lon":-117.505,"city":"Corona","state":"CA","address":"4556 Temescal Canyon Road","name":""},
  {"lat":33.803977,"lon":-118.016331,"city":"Cypress","state":"CA","address":"10900 Yamaha Way","name":""},
  {"lat":33.803325,"lon":-118.042658,"city":"Cypress","state":"CA","address":"5233 Katella Ave Cypress","name":""},
  {"lat":34.062206,"lon":-117.434334,"city":"Fontana","state":"CA","address":"10543 Sierra Avenue","name":""},
  {"lat":33.87714,"lon":-117.879395,"city":"Fullerton","state":"CA","address":"2932 Nutwood Avenue","name":""},
  {"lat":33.79106,"lon":-117.916489,"city":"Garden Grove","state":"CA","address":"11767 Harbor Boulevard","name":""},
  {"lat":33.792399,"lon":-117.91526,"city":"Garden Grove","state":"CA","address":"11747 Harbor Blvd.","name":""},
  {"lat":33.7905,"lon":-117.915,"city":"Garden Grove","state":"CA","address":"11777 Harbor Blvd","name":""},
  {"lat":33.764923,"lon":-117.91991,"city":"Garden Grove","state":"CA","address":"13650 Harbor Blvd","name":""},
  {"lat":33.788609,"lon":-117.91516,"city":"Garden Grove","state":"CA","address":"12005 Harbor Boulevard","name":""},
  {"lat":34.138549,"lon":-116.306216,"city":"Joshua Tree","state":"CA","address":"62209 Verbena Rd","name":""},
  {"lat":34.139751,"lon":-118.019142,"city":"Monrovia","state":"CA","address":"924 West Huntington Drive","name":""},
  {"lat":33.936079,"lon":-117.274085,"city":"Moreno Valley","state":"CA","address":"12611 Memorial Way","name":""},
  {"lat":33.90377,"lon":-117.563271,"city":"Norco","state":"CA","address":"1530 Hamner Ave.","name":""},
  {"lat":33.93248,"lon":-117.55764,"city":"Norco","state":"CA","address":"3481 Hamner Ave","name":""},
  {"lat":33.911545,"lon":-118.070786,"city":"Norwalk","state":"CA","address":"13111 Sycamore Drive","name":""},
  {"lat":34.06508,"lon":-117.610946,"city":"Ontario","state":"CA","address":"222 North Vineyard Avenue","name":""},
  {"lat":34.065483,"lon":-117.572906,"city":"Ontario","state":"CA","address":"3663 East Guasti Road","name":""},
  {"lat":34.0706,"lon":-117.5516,"city":"Ontario","state":"CA","address":"4500 East Mills Circle","name":""},
  {"lat":34.066,"lon":-117.585,"city":"Ontario","state":"CA","address":"535 N. TURNER AVENUE","name":""},
  {"lat":34.066,"lon":-117.585,"city":"Ontario","state":"CA","address":"535 N. TURNER AVENUE","name":""},
  {"lat":33.79438,"lon":-117.890114,"city":"Orange","state":"CA","address":"400 N. State College Boulevard","name":""},
  {"lat":33.789163,"lon":-117.89036,"city":"Orange","state":"CA","address":"100 The City Drive S","name":""},
  {"lat":33.783121,"lon":-116.35682,"city":"Palm Desert","state":"CA","address":"74900 Gerald Ford Drive","name":""},
  {"lat":33.760122,"lon":-116.361612,"city":"Palm Desert","state":"CA","address":"1 Willow Ridge","name":""},
  {"lat":33.7777,"lon":-116.3567,"city":"Palm Desert","state":"CA","address":"36999 Cook Street","name":""},
  {"lat":33.824001,"lon":-116.54277,"city":"Palm Springs","state":"CA","address":"400 East Tahquitz Canyon Way","name":""},
  {"lat":33.781674,"lon":-116.543845,"city":"Palm Springs","state":"CA","address":"2800 South Palm Canyon Drive","name":""},
  {"lat":34.044364,"lon":-117.803339,"city":"Pomona","state":"CA","address":"3101 W. Temple Avenue","name":""},
  {"lat":34.035179,"lon":-117.760478,"city":"Pomona","state":"CA","address":"2027 Rancho Valley Drive","name":""},
  {"lat":34.10588,"lon":-117.550348,"city":"Rancho Cucamonga","state":"CA","address":"11669 Foothill Blvd.","name":""},
  {"lat":34.078754,"lon":-117.554474,"city":"Rancho Cucamonga","state":"CA","address":"11481 Mission Vista Drive","name":""},
  {"lat":34.078732,"lon":-117.555565,"city":"Rancho Cucamonga","state":"CA","address":"11433 Mission Vista Drive","name":""},
  {"lat":34.121328,"lon":-117.539082,"city":"Rancho Cucamonga","state":"CA","address":"12255 Base Line Road","name":""},
  {"lat":34.064721,"lon":-117.201541,"city":"Redlands","state":"CA","address":"1342 Industrial Park Ave","name":""},
  {"lat":34.065578,"lon":-117.209329,"city":"Redlands","state":"CA","address":"1650 Industrial Park Avenue","name":""},
  {"lat":35.641502,"lon":-117.667526,"city":"Ridgecrest","state":"CA","address":"104 East Sydnor Avenue","name":""},
  {"lat":33.9042,"lon":-117.495,"city":"Riverside","state":"CA","address":"4250 Riverwalk Parkway","name":""},
  {"lat":33.985298,"lon":-117.374344,"city":"Riverside","state":"CA","address":"3505 Market Street","name":""},
  {"lat":33.889576,"lon":-117.27554,"city":"Riverside","state":"CA","address":"22440 Van Buren Blvd","name":""},
  {"lat":33.985768,"lon":-117.374718,"city":"Riverside","state":"CA","address":"3870 5th Street","name":""},
  {"lat":33.889222,"lon":-117.273238,"city":"Riverside","state":"CA","address":"22440 Van Buren Blvd","name":""},
  {"lat":34.0404,"lon":-118.0818,"city":"Rosemead","state":"CA","address":"888 Montebello Blvd.","name":""},
  {"lat":34.0653,"lon":-117.280039,"city":"San Bernardino","state":"CA","address":"285 East Hospitality Lane","name":""},
  {"lat":34.0692,"lon":-117.2663,"city":"San Bernardino","state":"CA","address":"895 East Hospitality Lane","name":""},
  {"lat":34.069416,"lon":-117.27813,"city":"San Bernardino","state":"CA","address":"1755 S Waterman Ave","name":""},
  {"lat":34.071315,"lon":-117.268473,"city":"San Bernardino","state":"CA","address":"837 E. Brier Drive","name":""},
  {"lat":34.06798,"lon":-117.266724,"city":"San Bernardino","state":"CA","address":"885 East Hospitality Lane","name":""},
  {"lat":34.080578,"lon":-118.102158,"city":"San Gabriel","state":"CA","address":"225 West Valley Boulevard","name":""},
  {"lat":34.079917,"lon":-118.099947,"city":"San Gabriel","state":"CA","address":"111 West Valley Blvd","name":""},
  {"lat":33.7594,"lon":-118.078,"city":"Seal Beach","state":"CA","address":"2401 Seal Beach Blvd","name":""},
  {"lat":34.479141,"lon":-117.337227,"city":"Victorville","state":"CA","address":"12603 Mariposa Road","name":""},
  {"lat":34.484025,"lon":-117.337531,"city":"Victorville","state":"CA","address":"12792 Amargosa Rd.","name":""},
  {"lat":34.072614,"lon":-117.8795,"city":"West Covina","state":"CA","address":"3145 E. Garvey Ave. N.","name":""},
  {"lat":33.974712,"lon":-118.037034,"city":"Whittier","state":"CA","address":"7320 Greenleaf Ave","name":""},
  {"lat":34.11998,"lon":-116.430519,"city":"Yucca Valley","state":"CA","address":"56525 29 Palms Hwy","name":""},
  {"lat":35.9969,"lon":-115.126,"city":"Henderson","state":"NV","address":"3245 St. Rose Parkway","name":""},
  {"lat":36.056972,"lon":-115.039609,"city":"Henderson","state":"NV","address":"421 Astaire Drive","name":""},
  {"lat":36.0569,"lon":-115.043,"city":"Henderson","state":"NV","address":"1340 West Warm Springs Road","name":""},
  {"lat":36.102,"lon":-114.9319,"city":"Henderson","state":"NV","address":"1610 Lake Las Vegas Parkway","name":""},
  {"lat":36.001907,"lon":-115.105782,"city":"Henderson","state":"NV","address":"10450 South Eastern Avenue","name":""},
  {"lat":35.22266,"lon":-114.037209,"city":"Kingman","state":"AZ","address":"1791 Sycamore Avenue","name":""},
  {"lat":35.215261,"lon":-114.039675,"city":"Kingman","state":"AZ","address":"1121 Sunrise Avenue","name":""},
  {"lat":34.478653,"lon":-114.351112,"city":"Lake Havasu City","state":"AZ","address":"245 London Bridge Road","name":""},
  {"lat":34.46457,"lon":-114.33784,"city":"Lake Havasu City","state":"AZ","address":"120 Park Avenue","name":""},
  {"lat":36.134628,"lon":-115.165591,"city":"Las Vegas","state":"NV","address":"111 Resorts World Avenue","name":""},
  {"lat":36.134826,"lon":-115.165817,"city":"Las Vegas","state":"NV","address":"333 West Resorts World Avenue","name":""},
  {"lat":36.0586,"lon":-115.1449,"city":"Las Vegas","state":"NV","address":"7250 Pollock Drive","name":""},
  {"lat":36.11567,"lon":-115.15121,"city":"Las Vegas","state":"NV","address":"4055 Palos Verdes St","name":""},
  {"lat":36.123966,"lon":-115.153893,"city":"Las Vegas","state":"NV","address":"3600 Paradise Road","name":""},
  {"lat":36.11087,"lon":-115.151382,"city":"Las Vegas","state":"NV","address":"4315 University Center Drive","name":""},
  {"lat":36.0702,"lon":-115.1187,"city":"Las Vegas","state":"NV","address":"6575 South Eastern Avenue","name":""},
  {"lat":36.126585,"lon":-115.146646,"city":"Las Vegas","state":"NV","address":"755 Sierra Vista Dr.","name":""},
  {"lat":36.1131,"lon":-115.304,"city":"Las Vegas","state":"NV","address":"4280 South Grand Canyon Dr","name":""},
  {"lat":36.046475,"lon":-115.169807,"city":"Las Vegas","state":"NV","address":"7850 Giles Street","name":""},
  {"lat":36.214555,"lon":-115.25023,"city":"Las Vegas","state":"NV","address":"7100 Cascade Valley Court","name":""},
  {"lat":36.099374,"lon":-115.182155,"city":"Las Vegas","state":"NV","address":"4975 S. Dean Martin Dr.","name":""},
  {"lat":36.108531,"lon":-115.168744,"city":"Las Vegas","state":"NV","address":"80 East Harmon Avenue","name":""},
  {"lat":36.105506,"lon":-115.182081,"city":"Las Vegas","state":"NV","address":"4655 Dean Martin Dr.","name":""},
  {"lat":36.047134,"lon":-115.170647,"city":"Las Vegas","state":"NV","address":"7830 South Las Vegas Boulevard","name":""},
  {"lat":36.108531,"lon":-115.168744,"city":"Las Vegas","state":"NV","address":"80 East Harmon Avenue","name":""},
  {"lat":36.1166,"lon":-115.1688,"city":"Las Vegas","state":"NV","address":"3575 Las Vegas Boulevard South","name":""},
  {"lat":36.139938,"lon":-115.16097,"city":"Las Vegas","state":"NV","address":"2650 Las Vegas Boulevard South","name":""},
  {"lat":36.140096,"lon":-115.15382,"city":"Las Vegas","state":"NV","address":"455 Karen Avenue","name":""},
  {"lat":36.03814,"lon":-115.173186,"city":"Las Vegas","state":"NV","address":"8335 Las Vegas Blvd. South","name":""},
  {"lat":36.095892,"lon":-115.208509,"city":"Las Vegas","state":"NV","address":"5165 S Decatur Boulevard","name":""},
  {"lat":36.106256,"lon":-115.17089,"city":"Las Vegas","state":"NV","address":"3745 Las Vegas Boulevard South","name":""},
  {"lat":36.126585,"lon":-115.146646,"city":"Las Vegas","state":"NV","address":"755 Sierra Vista Dr.","name":""},
  {"lat":36.071279,"lon":-115.276547,"city":"Las Vegas","state":"NV","address":"8470 W. Sunset Road","name":""},
  {"lat":36.240084,"lon":-115.078856,"city":"Las Vegas","state":"NV","address":"4365 E Craig Rd","name":""},
  {"lat":36.28465,"lon":-115.287981,"city":"Las Vegas","state":"NV","address":"8906 W Deer Springs Way","name":""},
  {"lat":36.100365,"lon":-115.182682,"city":"Las Vegas","state":"NV","address":"4940 Dean Martin Drive","name":""},
  {"lat":36.04827,"lon":-115.17086,"city":"Las Vegas","state":"NV","address":"7740 Las Vegas Blvd South","name":""},
  {"lat":36.064842,"lon":-115.161766,"city":"Las Vegas","state":"NV","address":"230 Hidden Well Rd","name":""},
  {"lat":36.106065,"lon":-115.181933,"city":"Las Vegas","state":"NV","address":"4625 Dean Martin Drive","name":""},
  {"lat":36.135263,"lon":-115.166925,"city":"Las Vegas","state":"NV","address":"999 Resorts World Avenue","name":""},
  {"lat":36.065647,"lon":-115.162947,"city":"Las Vegas","state":"NV","address":"6840 Gilespie Street","name":""},
  {"lat":36.064647,"lon":-115.162563,"city":"Las Vegas","state":"NV","address":"6862 Gilespie Street","name":""},
  {"lat":36.108794,"lon":-115.15376,"city":"Las Vegas","state":"NV","address":"4455 Paradise Road","name":""},
  {"lat":36.106113,"lon":-115.174042,"city":"Las Vegas","state":"NV","address":"3752 Las Vegas Blvd S","name":""},
  {"lat":34.84822,"lon":-114.615665,"city":"Needles","state":"CA","address":"1803 Needles Hwy","name":""},
  {"lat":36.24118,"lon":-115.110229,"city":"North Las Vegas","state":"NV","address":"2852 East Craig Road","name":""},
  {"lat":36.240787,"lon":-115.123644,"city":"North Las Vegas","state":"NV","address":"1590 E. Craig Road","name":""},
  {"lat":34.150026,"lon":-114.285958,"city":"Parker","state":"AZ","address":"1110 S Geronimo Ave","name":""},
  {"lat":37.70514,"lon":-112.849808,"city":"Brian Head","state":"UT","address":"223 Hunter Ridge Road","name":""},
  {"lat":37.676988,"lon":-113.062034,"city":"Cedar City","state":"UT","address":"60 South Main St.","name":""},
  {"lat":37.661003,"lon":-113.08199,"city":"Cedar City","state":"UT","address":"1145 S. Bentley Boulevard","name":""},
  {"lat":37.661003,"lon":-113.08199,"city":"Cedar City","state":"UT","address":"1145 S. Bentley Boulevard","name":""},
  {"lat":37.046711,"lon":-112.525965,"city":"Kanab","state":"UT","address":"98 S 100 E","name":""},
  {"lat":36.80744,"lon":-114.10385,"city":"Mesquite","state":"NV","address":"1030 W Pioneer Blvd","name":""},
  {"lat":37.076838,"lon":-113.583499,"city":"St. George","state":"UT","address":"1731 South Convention Center Drive","name":""},
  {"lat":37.197197,"lon":-112.991662,"city":"Springdale","state":"UT","address":"281 Zion Park Blvd","name":""},
  {"lat":37.189472,"lon":-112.996201,"city":"Springdale","state":"UT","address":"1127 Zion Park Boulevard","name":""},
  {"lat":37.167612,"lon":-113.014251,"city":"Springdale","state":"UT","address":"2400 Zion Park Blvd","name":""},
  {"lat":37.030092,"lon":-113.609633,"city":"St. George","state":"UT","address":"1250 West SunRiver Parkway","name":""},
  {"lat":37.1094,"lon":-113.5546,"city":"St. George","state":"UT","address":"53 North River Road","name":""},
  {"lat":37.086476,"lon":-113.57937,"city":"St. George","state":"UT","address":"1251 South Sunland Drive","name":""},
  {"lat":37.202201,"lon":-113.185422,"city":"Virgin","state":"UT","address":"1322 East State Route 9","name":""},
  {"lat":44.044217,"lon":-121.318154,"city":"Bend","state":"OR","address":"730 SW Columbia Street","name":""},
  {"lat":44.045586,"lon":-121.314072,"city":"Bend","state":"OR","address":"425 SW Bluff Drive","name":""},
  {"lat":44.053171,"lon":-121.26217,"city":"Bend","state":"OR","address":"21241 NE Livingston Dr.","name":""},
  {"lat":44.0565,"lon":-121.3111,"city":"Bend","state":"OR","address":"300 NW Franklin Avenue","name":""},
  {"lat":39.752005,"lon":-121.844375,"city":"Chico","state":"CA","address":"685 Manzanita Court","name":""},
  {"lat":39.729867,"lon":-121.809335,"city":"Chico","state":"CA","address":"1651 Springfield Drive","name":""},
  {"lat":44.55808,"lon":-123.279199,"city":"Corvallis","state":"OR","address":"2500 SW Western Boulevard","name":""},
  {"lat":44.05277,"lon":-123.092,"city":"Eugene","state":"OR","address":"66 E 6th Ave","name":""},
  {"lat":44.047226,"lon":-123.150772,"city":"Eugene","state":"OR","address":"3780 W. 11th Avenue","name":""},
  {"lat":44.047556,"lon":-123.09449,"city":"Eugene","state":"OR","address":"102 W 11th Avenue","name":""},
  {"lat":44.044187,"lon":-123.047674,"city":"Eugene","state":"OR","address":"3111 Franklin Blvd.","name":""},
  {"lat":42.463247,"lon":-123.321818,"city":"Grants Pass","state":"OR","address":"110 NE Morgan Lane","name":""},
  {"lat":42.3468,"lon":-122.872,"city":"Medford","state":"OR","address":"1122 Morrow Road","name":""},
  {"lat":42.314141,"lon":-122.846503,"city":"Medford","state":"OR","address":"1000 Welcome Way","name":""},
  {"lat":42.313301,"lon":-122.846566,"city":"Medford","state":"OR","address":"2010 Hospitality Way","name":""},
  {"lat":39.49957,"lon":-121.56994,"city":"Oroville","state":"CA","address":"2355 Feather River Blvd","name":""},
  {"lat":40.189854,"lon":-122.237625,"city":"Red Bluff","state":"CA","address":"520 Adobe Road","name":""},
  {"lat":40.577343,"lon":-122.355797,"city":"Redding","state":"CA","address":"2160 Larkspur Lane","name":""},
  {"lat":40.537804,"lon":-122.3517,"city":"Redding","state":"CA","address":"5050 Bechelli Lane","name":""},
  {"lat":40.627136,"lon":-122.369104,"city":"Redding","state":"CA","address":"5184 Caterpillar Road","name":""},
  {"lat":44.240074,"lon":-121.193773,"city":"Redmond","state":"OR","address":"3901 SW 21st Street","name":""},
  {"lat":39.4269,"lon":-119.7525,"city":"Reno","state":"NV","address":"10599 Professional Circle","name":""},
  {"lat":39.517325,"lon":-119.888509,"city":"Reno","state":"NV","address":"900 Ambassador Drive","name":""},
  {"lat":39.4401,"lon":-119.7588,"city":"Reno","state":"NV","address":"9920 Double R Boulevard","name":""},
  {"lat":39.476291,"lon":-119.786735,"city":"Reno","state":"NV","address":"1111 Meadowood Mall Link","name":""},
  {"lat":39.465832,"lon":-119.789795,"city":"Reno","state":"NV","address":"5450 Kietzke Lane","name":""},
  {"lat":39.52792,"lon":-119.81414,"city":"Reno","state":"NV","address":"255 N Virginia St","name":""},
  {"lat":43.229096,"lon":-123.360232,"city":"Roseburg","state":"OR","address":"1620 NW Mulholland Dr","name":""},
  {"lat":44.9495,"lon":-122.9913,"city":"Salem","state":"OR","address":"1590 Weston Court NE","name":""},
  {"lat":44.925012,"lon":-122.994076,"city":"Salem","state":"OR","address":"510 Hawthorne Avenue SE","name":""},
  {"lat":44.939772,"lon":-123.041217,"city":"Salem","state":"OR","address":"195 Commercial St. SE","name":""},
  {"lat":44.925075,"lon":-122.993469,"city":"Salem","state":"OR","address":"390 Hawthorne Ave Se","name":""},
  {"lat":39.532369,"lon":-119.723866,"city":"Sparks","state":"NV","address":"200 Legends Bay Drive","name":""},
  {"lat":44.085096,"lon":-123.041796,"city":"Springfield","state":"OR","address":"3528 Gateway Street","name":""},
  {"lat":44.081792,"lon":-123.040917,"city":"Springfield","state":"OR","address":"3315 Gateway St","name":""},
  {"lat":43.612326,"lon":-116.205332,"city":"Boise","state":"ID","address":"495 S Capitol Blvd.","name":""},
  {"lat":43.589443,"lon":-116.275124,"city":"Boise","state":"ID","address":"7499 West Overland Road","name":""},
  {"lat":43.572662,"lon":-116.217674,"city":"Boise","state":"ID","address":"3270 South Shoshone","name":""},
  {"lat":43.616357,"lon":-116.210466,"city":"Boise","state":"ID","address":"348 S. 13th. Street","name":""},
  {"lat":43.587563,"lon":-116.2752,"city":"Boise","state":"ID","address":"7699 West Spectrum Street","name":""},
  {"lat":43.613145,"lon":-116.202329,"city":"Boise","state":"ID","address":"202 South 6th Street","name":""},
  {"lat":43.586719,"lon":-116.280943,"city":"Boise","state":"ID","address":"7957 West Spectrum Way","name":""},
  {"lat":42.548273,"lon":-113.80072,"city":"Burley","state":"ID","address":"560 Hampton Drive","name":""},
  {"lat":44.519789,"lon":-116.043993,"city":"Cascade","state":"ID","address":"500 N Main St","name":""},
  {"lat":43.687183,"lon":-116.35382,"city":"Eagle","state":"ID","address":"145 E. Riverside Drive","name":""},
  {"lat":43.689352,"lon":-116.34495,"city":"Eagle","state":"ID","address":"710 E. Riverside Drive","name":""},
  {"lat":40.831682,"lon":-115.78311,"city":"Elko","state":"NV","address":"674 Cimarron Way","name":""},
  {"lat":40.853777,"lon":-115.74984,"city":"Elko","state":"NV","address":"2572 East Jennings Way","name":""},
  {"lat":43.597473,"lon":-116.358253,"city":"Meridian","state":"ID","address":"875 South Allen Street","name":""},
  {"lat":43.592234,"lon":-116.355126,"city":"Meridian","state":"ID","address":"1401 South Eagle Road","name":""},
  {"lat":43.14108,"lon":-115.658958,"city":"Mountain Home","state":"ID","address":"3175 NE Foothills Avenue","name":""},
  {"lat":43.605137,"lon":-116.5077,"city":"Nampa","state":"ID","address":"5750 East Franklin Road","name":""},
  {"lat":43.605573,"lon":-116.511717,"city":"Nampa","state":"ID","address":"5860 East Franklin Road","name":""},
  {"lat":42.591744,"lon":-114.464868,"city":"Twin Falls","state":"ID","address":"1658 Fillmore Street North","name":""},
  {"lat":42.592785,"lon":-114.47097,"city":"Twin Falls","state":"ID","address":"1741 Harrison Street North","name":""},
  {"lat":41.097852,"lon":-114.961384,"city":"Wells","state":"NV","address":"1091 Cobre St","name":""},
  {"lat":33.457645,"lon":-112.304936,"city":"Avondale","state":"AZ","address":"11460 West Hilton Way","name":""},
  {"lat":33.462892,"lon":-112.280898,"city":"Avondale","state":"AZ","address":"10275 W. McDowell Road","name":""},
  {"lat":33.4576,"lon":-112.3025,"city":"Avondale","state":"AZ","address":"11450 West Hilton Way","name":""},
  {"lat":33.304284,"lon":-111.97021,"city":"Chandler","state":"AZ","address":"7475 West Chandler Blvd","name":""},
  {"lat":33.287,"lon":-111.8906,"city":"Chandler","state":"AZ","address":"1231 South Spectrum Boulevard","name":""},
  {"lat":33.306587,"lon":-111.968422,"city":"Chandler","state":"AZ","address":"7333 W. Detroit Street","name":""},
  {"lat":33.301649,"lon":-111.841528,"city":"Chandler","state":"AZ","address":"150 South Arizona Avenue","name":""},
  {"lat":33.2985,"lon":-111.8931,"city":"Chandler","state":"AZ","address":"2929 W Frye Road","name":""},
  {"lat":33.26244,"lon":-111.884016,"city":"Chandler","state":"AZ","address":"2490 W. Queen Creek Rd.","name":""},
  {"lat":33.287024,"lon":-111.887362,"city":"Chandler","state":"AZ","address":"1221 S. Spectrum Blvd.","name":""},
  {"lat":33.306484,"lon":-111.969421,"city":"Chandler","state":"AZ","address":"7373 West Detroit Street","name":""},
  {"lat":32.273977,"lon":-107.718754,"city":"Deming","state":"NM","address":"3751 E Cedar Street","name":""},
  {"lat":33.572044,"lon":-111.713851,"city":"Fountain Hills","state":"AZ","address":"17105 E Shea Blvd","name":""},
  {"lat":33.310565,"lon":-111.747201,"city":"Gilbert","state":"AZ","address":"1800 South SanTan Village Parkway","name":""},
  {"lat":33.383023,"lon":-111.718685,"city":"Gilbert","state":"AZ","address":"1825 N. Higley Road","name":""},
  {"lat":33.2922,"lon":-111.7545,"city":"Gilbert","state":"AZ","address":"3265 South Market Street","name":""},
  {"lat":33.29188,"lon":-111.753424,"city":"Gilbert","state":"AZ","address":"3333 S. Market Street","name":""},
  {"lat":33.28465,"lon":-111.75372,"city":"Gilbert","state":"AZ","address":"3623 S Val Vista Dr","name":""},
  {"lat":33.314991,"lon":-111.744165,"city":"Gilbert","state":"AZ","address":"1950 S Santan Village Parkway","name":""},
  {"lat":33.5318,"lon":-112.2649,"city":"Glendale","state":"AZ","address":"6630 North 95th Avenue","name":""},
  {"lat":33.531384,"lon":-112.266052,"city":"Glendale","state":"AZ","address":"6620 N. 95th Avenue","name":""},
  {"lat":33.63826,"lon":-112.17896,"city":"Glendale","state":"AZ","address":"5511 W Bell Road","name":""},
  {"lat":33.530879,"lon":-112.265498,"city":"Glendale","state":"AZ","address":"6610 N. 95th Ave","name":""},
  {"lat":33.4677,"lon":-112.3586,"city":"Goodyear","state":"AZ","address":"2000 N. Litchfield Road","name":""},
  {"lat":33.467958,"lon":-112.360079,"city":"Goodyear","state":"AZ","address":"1950 N Litchfield Rd","name":""},
  {"lat":33.462626,"lon":-112.376882,"city":"Goodyear","state":"AZ","address":"1430 N Bullard Ave","name":""},
  {"lat":32.345854,"lon":-108.715774,"city":"Lordsburg","state":"NM","address":"412 Wabash","name":""},
  {"lat":33.387379,"lon":-111.853813,"city":"Mesa","state":"AZ","address":"1011 West Holmes Avenue","name":""},
  {"lat":33.472284,"lon":-111.706469,"city":"Mesa","state":"AZ","address":"5643 East Longbow Pkwy","name":""},
  {"lat":33.334849,"lon":-111.687786,"city":"Mesa","state":"AZ","address":"4470 S Power Rd","name":""},
  {"lat":33.635592,"lon":-112.23554,"city":"Peoria","state":"AZ","address":"8408 W. Paradise Lane","name":""},
  {"lat":33.52408,"lon":-112.02285,"city":"Phoenix","state":"AZ","address":"2400 East Missouri Avenue","name":""},
  {"lat":33.492974,"lon":-112.075438,"city":"Phoenix","state":"AZ","address":"4000 N. Central Avenue","name":""},
  {"lat":33.5791,"lon":-112.12,"city":"Phoenix","state":"AZ","address":"10220 North Metro Parkway East","name":""},
  {"lat":33.451843,"lon":-111.988731,"city":"Phoenix","state":"AZ","address":"320 North 44th St.","name":""},
  {"lat":33.509695,"lon":-112.024837,"city":"Phoenix","state":"AZ","address":"2630 East Camelback Road","name":""},
  {"lat":33.480798,"lon":-112.072371,"city":"Phoenix","state":"AZ","address":"10 East Thomas Road","name":""},
  {"lat":33.598778,"lon":-111.98774,"city":"Phoenix","state":"AZ","address":"4415 E. Paradise Village Pkwy South","name":""},
  {"lat":33.45213,"lon":-112.072922,"city":"Phoenix","state":"AZ","address":"77 E Polk St","name":""},
  {"lat":33.707143,"lon":-112.114685,"city":"Phoenix","state":"AZ","address":"2550 West Charlotte Drive","name":""},
  {"lat":33.454838,"lon":-111.987017,"city":"Phoenix","state":"AZ","address":"601 North 44th Street","name":""},
  {"lat":33.50634,"lon":-112.032028,"city":"Phoenix","state":"AZ","address":"2310 East Highland Avenue","name":""},
  {"lat":33.482341,"lon":-112.07578,"city":"Phoenix","state":"AZ","address":"160 W. Catalina Drive","name":""},
  {"lat":33.6739,"lon":-111.9829,"city":"Phoenix","state":"AZ","address":"4425 East Irma Lane","name":""},
  {"lat":33.414803,"lon":-112.00851,"city":"Phoenix","state":"AZ","address":"3422 E. Elwood St","name":""},
  {"lat":33.451603,"lon":-111.997429,"city":"Phoenix","state":"AZ","address":"3838 East Van Buren Street","name":""},
  {"lat":33.450179,"lon":-112.073453,"city":"Phoenix","state":"AZ","address":"15 East Monroe Street","name":""},
  {"lat":33.699615,"lon":-112.101448,"city":"Phoenix","state":"AZ","address":"1940 West Pinnacle Peak Road","name":""},
  {"lat":33.424791,"lon":-111.97866,"city":"Phoenix","state":"AZ","address":"2435 South 47th Street","name":""},
  {"lat":33.548374,"lon":-112.04775,"city":"Phoenix","state":"AZ","address":"7677 North 16th Street","name":""},
  {"lat":33.5928,"lon":-112.06381,"city":"Phoenix","state":"AZ","address":"11111 North 7th Street","name":""},
  {"lat":33.457231,"lon":-111.987693,"city":"Phoenix","state":"AZ","address":"888 North 44th Street","name":""},
  {"lat":33.406447,"lon":-111.979805,"city":"Phoenix","state":"AZ","address":"4725 E Broadway Road","name":""},
  {"lat":33.444959,"lon":-112.071656,"city":"Phoenix","state":"AZ","address":"125 E Jackson St","name":""},
  {"lat":33.484703,"lon":-112.074256,"city":"Phoenix","state":"AZ","address":"3150 N Central Ave","name":""},
  {"lat":33.710417,"lon":-112.104762,"city":"Phoenix","state":"AZ","address":"2107 W Whispering Wind Drive","name":""},
  {"lat":33.4037,"lon":-111.9795,"city":"Phoenix","state":"AZ","address":"4750 East Cotton Center Boulevard","name":""},
  {"lat":33.706943,"lon":-112.113575,"city":"Phoenix","state":"AZ","address":"2470 West Charlotte Drive","name":""},
  {"lat":33.505135,"lon":-112.03801,"city":"Phoenix","state":"AZ","address":"2001 E. Highland Avenue","name":""},
  {"lat":33.4851,"lon":-112.074403,"city":"Phoenix","state":"AZ","address":"3150 N Central Avenue","name":""},
  {"lat":33.254674,"lon":-111.635362,"city":"Queen Creek","state":"AZ","address":"20768 E. Maya Road","name":""},
  {"lat":33.505,"lon":-111.929,"city":"Scottsdale","state":"AZ","address":"4747 N Goldwater Blvd","name":""},
  {"lat":33.492452,"lon":-111.928116,"city":"Scottsdale","state":"AZ","address":"7142 East 1st St","name":""},
  {"lat":33.515615,"lon":-111.92573,"city":"Scottsdale","state":"AZ","address":"5401 N. Scottsdale Rd.","name":""},
  {"lat":33.510086,"lon":-111.925618,"city":"Scottsdale","state":"AZ","address":"5001 N. Scottsdale Road","name":""},
  {"lat":33.637191,"lon":-111.927503,"city":"Scottsdale","state":"AZ","address":"16620 North Scottsdale Road","name":""},
  {"lat":33.57711,"lon":-111.925423,"city":"Scottsdale","state":"AZ","address":"10101 North Scottsdale Road","name":""},
  {"lat":33.539752,"lon":-111.87726,"city":"Scottsdale","state":"AZ","address":"9550 E. Talking Stick Way","name":""},
  {"lat":33.646057,"lon":-111.896469,"city":"Scottsdale","state":"AZ","address":"8550 East Princess Drive","name":""},
  {"lat":33.495537,"lon":-111.923386,"city":"Scottsdale","state":"AZ","address":"7324 East Indian School Road","name":""},
  {"lat":33.656718,"lon":-111.909766,"city":"Scottsdale","state":"AZ","address":"7965 E. Cavasson Boulevard","name":""},
  {"lat":33.5313,"lon":-111.9254,"city":"Scottsdale","state":"AZ","address":"6333 North Scottsdale Road","name":""},
  {"lat":33.639526,"lon":-111.89837,"city":"Scottsdale","state":"AZ","address":"16858 N Perimeter Drive","name":""},
  {"lat":33.647753,"lon":-111.91161,"city":"Scottsdale","state":"AZ","address":"7887 East Princess Boulevard","name":""},
  {"lat":33.66621,"lon":-111.9237,"city":"Scottsdale","state":"AZ","address":"20001 N. Scottsdale Road","name":""},
  {"lat":33.484571,"lon":-111.925149,"city":"Scottsdale","state":"AZ","address":"3131 N Scottsdale Road","name":""},
  {"lat":33.556674,"lon":-111.882103,"city":"Scottsdale","state":"AZ","address":"8401 N Pima Center Pkwy","name":""},
  {"lat":33.501912,"lon":-111.920058,"city":"Scottsdale","state":"AZ","address":"7501 E Camelback Road","name":""},
  {"lat":33.54846,"lon":-111.91624,"city":"Scottsdale","state":"AZ","address":"7700 E McCormick Pkwy","name":""},
  {"lat":33.556249,"lon":-111.881936,"city":"Scottsdale","state":"AZ","address":"8401 N Pima Center Pkwy","name":""},
  {"lat":31.539513,"lon":-110.256378,"city":"Sierra Vista","state":"AZ","address":"4100 Snyder Boulevard","name":""},
  {"lat":33.658203,"lon":-112.37738,"city":"Surprise","state":"AZ","address":"14783 West Grand Avenue","name":""},
  {"lat":33.63548,"lon":-112.378603,"city":"Surprise","state":"AZ","address":"16601 North Stadium Way","name":""},
  {"lat":33.422088,"lon":-111.938144,"city":"Tempe","state":"AZ","address":"108 E. University Drive","name":""},
  {"lat":33.406364,"lon":-111.96241,"city":"Tempe","state":"AZ","address":"2100 South Priest Drive","name":""},
  {"lat":33.384354,"lon":-111.927956,"city":"Tempe","state":"AZ","address":"4400 South Rural Road","name":""},
  {"lat":33.414263,"lon":-111.936262,"city":"Tempe","state":"AZ","address":"225 E. Apache Blvd","name":""},
  {"lat":33.444619,"lon":-111.926254,"city":"Tempe","state":"AZ","address":"1415 N. Scottsdale Road","name":""},
  {"lat":33.412113,"lon":-111.97006,"city":"Tempe","state":"AZ","address":"1550 S. 52nd Street","name":""},
  {"lat":33.354298,"lon":-111.895183,"city":"Tempe","state":"AZ","address":"7290 Price Road","name":""},
  {"lat":33.43016,"lon":-111.89821,"city":"Tempe","state":"AZ","address":"86 S Rockford Dr.","name":""},
  {"lat":33.353943,"lon":-111.89522,"city":"Tempe","state":"AZ","address":"7290 Price Road","name":""},
  {"lat":33.431487,"lon":-111.898098,"city":"Tempe","state":"AZ","address":"66 S. Rockford Dr.","name":""},
  {"lat":33.410233,"lon":-111.969223,"city":"Tempe","state":"AZ","address":"1625 South 52nd Street","name":""},
  {"lat":32.215278,"lon":-110.909492,"city":"Tucson","state":"AZ","address":"445 S. Alvernon Way","name":""},
  {"lat":32.218102,"lon":-110.973927,"city":"Tucson","state":"AZ","address":"280 S. Church Avenue","name":""},
  {"lat":32.222572,"lon":-110.878342,"city":"Tucson","state":"AZ","address":"5335 East Broadway","name":""},
  {"lat":32.123833,"lon":-110.933426,"city":"Tucson","state":"AZ","address":"7051 South Tucson Blvd.","name":""},
  {"lat":32.3862,"lon":-110.9581,"city":"Tucson","state":"AZ","address":"10000 North Oracle Road","name":""},
  {"lat":32.236054,"lon":-110.853565,"city":"Tucson","state":"AZ","address":"6555 E Speedway Blvd","name":""},
  {"lat":32.321777,"lon":-110.92708,"city":"Tucson","state":"AZ","address":"3110 East Skyline Drive","name":""},
  {"lat":32.23287,"lon":-110.95769,"city":"Tucson","state":"AZ","address":"930 E 2nd St.","name":""},
  {"lat":32.2183,"lon":-110.8574,"city":"Tucson","state":"AZ","address":"251 South Wilmot Road","name":""},
  {"lat":32.37799,"lon":-111.099715,"city":"Tucson","state":"AZ","address":"6300 W Marana Center Blvd","name":""},
  {"lat":32.086969,"lon":-110.803724,"city":"Tucson","state":"AZ","address":"9095 S Rita Rd","name":""},
  {"lat":32.314682,"lon":-110.976265,"city":"Tucson","state":"AZ","address":"5950 North Oracle Road","name":""},
  {"lat":32.21941,"lon":-110.97057,"city":"Tucson","state":"AZ","address":"141 South Stone Ave.","name":""},
  {"lat":32.125313,"lon":-110.933739,"city":"Tucson","state":"AZ","address":"6971 S. Tucson Boulevard","name":""},
  {"lat":32.132996,"lon":-110.92514,"city":"Tucson","state":"AZ","address":"6575 South Country Club Road","name":""},
  {"lat":32.2201,"lon":-110.83,"city":"Tucson","state":"AZ","address":"7600 East Broadway Blvd.","name":""},
  {"lat":32.237063,"lon":-110.910461,"city":"Tucson","state":"AZ","address":"3855 Speedway Blvd","name":""},
  {"lat":32.133749,"lon":-110.929666,"city":"Tucson","state":"AZ","address":"6555 South Bay Colony Drive","name":""},
  {"lat":32.21977,"lon":-110.97069,"city":"Tucson","state":"AZ","address":"141 South Stone Ave","name":""},
  {"lat":32.285238,"lon":-110.942133,"city":"Tucson","state":"AZ","address":"4250 North Campbell Avenue","name":""},
  {"lat":32.1264,"lon":-110.9332,"city":"Tucson","state":"AZ","address":"6935 S Tucson Blvd","name":""},
  {"lat":32.223844,"lon":-110.908475,"city":"Tucson","state":"AZ","address":"102 N. Alvernon Way","name":""},
  {"lat":32.290997,"lon":-110.942317,"city":"Tucson","state":"AZ","address":"4626 N Campbell Ave","name":""},
  {"lat":32.875011,"lon":-105.960915,"city":"Alamogordo","state":"NM","address":"1295 Hamilton Road","name":""},
  {"lat":32.933627,"lon":-105.973429,"city":"Alamogordo","state":"NM","address":"3450 Mesa Village Drive","name":""},
  {"lat":30.351,"lon":-103.6908,"city":"Alpine","state":"TX","address":"2607 West Highway 90","name":""},
  {"lat":32.845621,"lon":-104.428148,"city":"Artesia","state":"NM","address":"2501 South Permian Pavilion Loop","name":""},
  {"lat":32.8438,"lon":-104.3984,"city":"Artesia","state":"NM","address":"203 North 2nd St","name":""},
  {"lat":32.2622,"lon":-101.492,"city":"Big Spring","state":"TX","address":"805 West I-20 Highway","name":""},
  {"lat":32.262239,"lon":-101.492853,"city":"Big Spring","state":"TX","address":"809 West Interstate 20","name":""},
  {"lat":32.3953,"lon":-104.2223,"city":"Carlsbad","state":"NM","address":"120 Esperanza Circle","name":""},
  {"lat":32.380961,"lon":-104.225182,"city":"Carlsbad","state":"NM","address":"3500 National Parks Highway","name":""},
  {"lat":31.7606,"lon":-106.4913,"city":"El Paso","state":"TX","address":"600 N. El Paso Street","name":""},
  {"lat":31.780754,"lon":-106.409671,"city":"El Paso","state":"TX","address":"6100 Gateway East","name":""},
  {"lat":31.8833,"lon":-106.5828,"city":"El Paso","state":"TX","address":"6411 South Desert Boulevard","name":""},
  {"lat":31.780976,"lon":-106.39595,"city":"El Paso","state":"TX","address":"6635 Gateway Blvd. West","name":""},
  {"lat":31.72044,"lon":-106.302502,"city":"El Paso","state":"TX","address":"12055 Gateway West Boulevard","name":""},
  {"lat":31.77269,"lon":-106.501009,"city":"El Paso","state":"TX","address":"111 West University Avenue","name":""},
  {"lat":31.779447,"lon":-106.39543,"city":"El Paso","state":"TX","address":"6650 Gateway Blvd East","name":""},
  {"lat":31.787369,"lon":-106.408554,"city":"El Paso","state":"TX","address":"6308 Montana Avenue","name":""},
  {"lat":31.796,"lon":-106.267,"city":"El Paso","state":"TX","address":"3450 Joe Battle Blvd","name":""},
  {"lat":31.779129,"lon":-106.395889,"city":"El Paso","state":"TX","address":"6656 Gateway Blvd. East","name":""},
  {"lat":31.816,"lon":-106.552,"city":"El Paso","state":"TX","address":"953 Sunland Park Dr","name":""},
  {"lat":31.787,"lon":-106.41,"city":"El Paso","state":"TX","address":"6210 Montana Ave.","name":""},
  {"lat":31.800173,"lon":-106.266492,"city":"El Paso","state":"TX","address":"3620 Joe Battle Blvd","name":""},
  {"lat":30.9039,"lon":-102.903,"city":"Fort Stockton","state":"TX","address":"2271 West Interstate 10","name":""},
  {"lat":30.894,"lon":-102.919,"city":"Fort Stockton","state":"TX","address":"3401 W. Dickinson Blvd","name":""},
  {"lat":32.757005,"lon":-103.17698,"city":"Hobbs","state":"NM","address":"5420 Lovington Highway","name":""},
  {"lat":32.752289,"lon":-103.17141,"city":"Hobbs","state":"NM","address":"4620 Lovington Highway","name":""},
  {"lat":32.738969,"lon":-103.146401,"city":"Hobbs","state":"NM","address":"825 W. Joe Harvey Blvd.","name":""},
  {"lat":32.292108,"lon":-106.793094,"city":"Las Cruces","state":"NM","address":"1641 Hickory Loop","name":""},
  {"lat":32.3172,"lon":-106.7511,"city":"Las Cruces","state":"NM","address":"2350 East Griggs Avenue","name":""},
  {"lat":32.288822,"lon":-106.737663,"city":"Las Cruces","state":"NM","address":"2550 Don Roser Drive","name":""},
  {"lat":32.335126,"lon":-106.759394,"city":"Las Cruces","state":"NM","address":"1120 North Telshor Blvd","name":""},
  {"lat":33.590507,"lon":-101.854824,"city":"Lubbock","state":"TX","address":"505 Avenue Q","name":""},
  {"lat":33.534828,"lon":-101.924767,"city":"Lubbock","state":"TX","address":"5215 South Loop 289","name":""},
  {"lat":33.543015,"lon":-101.938004,"city":"Lubbock","state":"TX","address":"5614 Englewood Avenue","name":""},
  {"lat":33.593156,"lon":-101.878841,"city":"Lubbock","state":"TX","address":"2828 Marsha Sharp Freeway","name":""},
  {"lat":33.528282,"lon":-101.89855,"city":"Lubbock","state":"TX","address":"4003 South Loop 289","name":""},
  {"lat":33.552811,"lon":-101.946033,"city":"Lubbock","state":"TX","address":"6027 45th Street","name":""},
  {"lat":33.551626,"lon":-101.945366,"city":"Lubbock","state":"TX","address":"6004 Marsha Sharp Freeway","name":""},
  {"lat":33.594,"lon":-101.856,"city":"Lubbock","state":"TX","address":"1704 Marsha Sharp Fwy","name":""},
  {"lat":33.547321,"lon":-101.93709,"city":"Lubbock","state":"TX","address":"5320 West Loop 289","name":""},
  {"lat":33.537362,"lon":-101.956481,"city":"Lubbock","state":"TX","address":"6407 62nd Street","name":""},
  {"lat":31.99486,"lon":-102.155103,"city":"Midland","state":"TX","address":"1403 N Loop 250 West","name":""},
  {"lat":31.974722,"lon":-102.077512,"city":"Midland","state":"TX","address":"2201 Camp Street","name":""},
  {"lat":31.991,"lon":-102.16,"city":"Midland","state":"TX","address":"1107 Windhaven Drive","name":""},
  {"lat":31.993,"lon":-102.153275,"city":"Midland","state":"TX","address":"1301 N Loop 250 W","name":""},
  {"lat":31.993107,"lon":-102.16105,"city":"Midland","state":"TX","address":"1401 Catalina Drive","name":""},
  {"lat":32.038249,"lon":-102.085058,"city":"Midland","state":"TX","address":"4104 N. Big Spring St.","name":""},
  {"lat":31.99258,"lon":-102.157494,"city":"Midland","state":"TX","address":"1401 Tradewinds Blvd","name":""},
  {"lat":31.975,"lon":-102.067,"city":"Midland","state":"TX","address":"309 E Interstate 20","name":""},
  {"lat":31.990461,"lon":-102.158682,"city":"Midland","state":"TX","address":"1101 Windhaven Dr","name":""},
  {"lat":32.038282,"lon":-102.086063,"city":"Midland","state":"TX","address":"4100 North Big Spring Street","name":""},
  {"lat":31.572405,"lon":-102.896929,"city":"Monahans","state":"TX","address":"2021 South Ilda Avenue","name":""},
  {"lat":31.888047,"lon":-102.3328,"city":"Odessa","state":"TX","address":"3923 John Ben Sheppard Pkwy","name":""},
  {"lat":31.9032,"lon":-102.3377,"city":"Odessa","state":"TX","address":"5221 JBS Parkway","name":""},
  {"lat":31.911468,"lon":-102.295811,"city":"Odessa","state":"TX","address":"4015 Billy Hext Rd","name":""},
  {"lat":31.908,"lon":-102.298476,"city":"Odessa","state":"TX","address":"7221 Tres Hermanas Boulevard","name":""},
  {"lat":31.397403,"lon":-103.517786,"city":"Pecos","state":"TX","address":"215 South Frontage Road","name":""},
  {"lat":31.399032,"lon":-103.512935,"city":"Pecos","state":"TX","address":"2400 S. Texas St.","name":""},
  {"lat":31.409,"lon":-103.486,"city":"Pecos","state":"TX","address":"1900 S Cedar Rd","name":""},
  {"lat":33.444272,"lon":-104.52294,"city":"Roswell","state":"NM","address":"3607 North Main","name":""},
  {"lat":33.400046,"lon":-104.521232,"city":"Roswell","state":"NM","address":"700 N Virginia Avenue","name":""},
  {"lat":33.325946,"lon":-105.62304,"city":"Ruidoso Downs","state":"NM","address":"26141 US Hwy 70 E","name":""},
  {"lat":31.0346,"lon":-104.8618,"city":"Van Horn","state":"TX","address":"1921 SW Frontage Road","name":""},
  {"lat":27.769864,"lon":-98.039308,"city":"Alice","state":"TX","address":"3135 East Main Street","name":""},
  {"lat":25.959592,"lon":-97.5081,"city":"Brownsville","state":"TX","address":"3000 N. Expressway","name":""},
  {"lat":25.964075,"lon":-97.507261,"city":"Brownsville","state":"TX","address":"747 Springmart Blvd","name":""},
  {"lat":25.9568,"lon":-97.507932,"city":"Brownsville","state":"TX","address":"3759 N. Expressway","name":""},
  {"lat":27.819397,"lon":-97.390462,"city":"Corpus Christi","state":"TX","address":"3200 E. Surfside Blvd","name":""},
  {"lat":27.717622,"lon":-97.390585,"city":"Corpus Christi","state":"TX","address":"4337 South Padre Island Drive","name":""},
  {"lat":27.703021,"lon":-97.366093,"city":"Corpus Christi","state":"TX","address":"5879 South Padre Island Drive","name":""},
  {"lat":27.8033,"lon":-97.4536,"city":"Corpus Christi","state":"TX","address":"917 North Navigation Boulevard","name":""},
  {"lat":27.85009,"lon":-97.584121,"city":"Corpus Christi","state":"TX","address":"11233 Interstate Highway 37","name":""},
  {"lat":27.695929,"lon":-97.350929,"city":"Corpus Christi","state":"TX","address":"6717 South Padre Island Drive","name":""},
  {"lat":27.713362,"lon":-97.375548,"city":"Corpus Christi","state":"TX","address":"5274 South Padre Island Dr.","name":""},
  {"lat":27.736241,"lon":-97.433757,"city":"Corpus Christi","state":"TX","address":"5201 Crosstown SH 286","name":""},
  {"lat":27.795,"lon":-97.395,"city":"Corpus Christi","state":"TX","address":"402 Lomax Street","name":""},
  {"lat":27.709,"lon":-97.378,"city":"Corpus Christi","state":"TX","address":"5209 Blanche Moore Dr","name":""},
  {"lat":27.718195,"lon":-97.393598,"city":"Corpus Christi","state":"TX","address":"4325 S Padre Island Drive","name":""},
  {"lat":26.2636,"lon":-98.171965,"city":"Edinburg","state":"TX","address":"411 W Trenton","name":""},
  {"lat":26.263179,"lon":-98.172013,"city":"Edinburg","state":"TX","address":"407 West Trenton Rd.","name":""},
  {"lat":26.168924,"lon":-97.675875,"city":"Harlingen","state":"TX","address":"1202 Ed Carey Drive","name":""},
  {"lat":26.199424,"lon":-97.724214,"city":"Harlingen","state":"TX","address":"751 Harlingen Heights Dr.","name":""},
  {"lat":26.165559,"lon":-97.680679,"city":"Harlingen","state":"TX","address":"603 Sesame Drive E","name":""},
  {"lat":27.4948,"lon":-97.846,"city":"Kingsville","state":"TX","address":"2489 South U.S. Hwy 77","name":""},
  {"lat":27.522,"lon":-99.504,"city":"Laredo","state":"TX","address":"800 Garden Street","name":""},
  {"lat":27.555109,"lon":-99.494919,"city":"Laredo","state":"TX","address":"110 Calle Del Norte","name":""},
  {"lat":27.5734,"lon":-99.501344,"city":"Laredo","state":"TX","address":"7903 San Dario","name":""},
  {"lat":27.560442,"lon":-99.44664,"city":"Laredo","state":"TX","address":"7120 Rosson Ln","name":""},
  {"lat":27.606,"lon":-99.483,"city":"Laredo","state":"TX","address":"1420 Hospitality Drive","name":""},
  {"lat":27.555771,"lon":-99.49527,"city":"Laredo","state":"TX","address":"98 Calle del Norte","name":""},
  {"lat":27.56013,"lon":-99.447191,"city":"Laredo","state":"TX","address":"7120 Rosson Ln","name":""},
  {"lat":26.1852,"lon":-98.2241,"city":"McAllen","state":"TX","address":"1800 S 2nd Street","name":""},
  {"lat":26.198733,"lon":-98.260722,"city":"McAllen","state":"TX","address":"800 Convention Center Blvd.","name":""},
  {"lat":26.188414,"lon":-98.221547,"city":"McAllen","state":"TX","address":"10 West Expressway 83","name":""},
  {"lat":26.188771,"lon":-98.228909,"city":"McAllen","state":"TX","address":"617 West Expressway 83","name":""},
  {"lat":26.20141,"lon":-98.261815,"city":"McAllen","state":"TX","address":"525 South Ware Road","name":""},
  {"lat":26.192921,"lon":-98.265289,"city":"McAllen","state":"TX","address":"3801 Expressway 83","name":""},
  {"lat":26.1983,"lon":-98.2819,"city":"Mission","state":"TX","address":"2505 Victoria Drive","name":""},
  {"lat":26.2335,"lon":-98.1792,"city":"Pharr","state":"TX","address":"300 West Nolana Loop","name":""},
  {"lat":27.816671,"lon":-97.076408,"city":"Port Aransas","state":"TX","address":"2208 Highway 361","name":""},
  {"lat":27.894055,"lon":-97.310986,"city":"Portland","state":"TX","address":"1801 Highway 181","name":""},
  {"lat":27.897585,"lon":-97.309516,"city":"Portland","state":"TX","address":"139 Buddy Ganem Drive","name":""},
  {"lat":28.067869,"lon":-97.0419,"city":"Rockport","state":"TX","address":"3677 Highway 35 North","name":""},
  {"lat":26.192,"lon":-98.137,"city":"San Juan","state":"TX","address":"1003 E. Carroll Rd","name":""},
  {"lat":26.142,"lon":-97.1721,"city":"South Padre Island","state":"TX","address":"7010 Padre Boulevard","name":""},
  {"lat":26.097,"lon":-97.167,"city":"South Padre Island","state":"TX","address":"1709 Padre Blvd","name":""},
  {"lat":26.171385,"lon":-98.013286,"city":"Weslaco","state":"TX","address":"1004 Fairfield Blvd","name":""},
  {"lat":29.777367,"lon":-98.73584,"city":"Boerne","state":"TX","address":"34935 IH-10 West","name":""},
  {"lat":29.775143,"lon":-98.72726,"city":"Boerne","state":"TX","address":"101 Herff Road","name":""},
  {"lat":28.545955,"lon":-99.843714,"city":"Carrizo Springs","state":"TX","address":"2651 North US HIghway 83","name":""},
  {"lat":28.443893,"lon":-99.243684,"city":"Cotulla","state":"TX","address":"659 North Baylor Avenue","name":""},
  {"lat":29.392458,"lon":-100.900772,"city":"Del Rio","state":"TX","address":"2219 Bedell Avenue","name":""},
  {"lat":29.384529,"lon":-100.9036,"city":"Del Rio","state":"TX","address":"122 Lowe Drive","name":""},
  {"lat":28.710501,"lon":-100.462396,"city":"Eagle Pass","state":"TX","address":"3301 E. Main Street","name":""},
  {"lat":30.27004,"lon":-98.86507,"city":"Fredericksburg","state":"TX","address":"515 East Main Street","name":""},
  {"lat":30.068177,"lon":-99.114407,"city":"Kerrville","state":"TX","address":"2038 Sidney Baker Street","name":""},
  {"lat":30.706901,"lon":-101.205171,"city":"Ozona","state":"TX","address":"816 14th Street","name":""},
  {"lat":28.941465,"lon":-98.510886,"city":"Pleasanton","state":"TX","address":"2057 West Oaklawn Road","name":""},
  {"lat":29.424826,"lon":-98.491657,"city":"San Antonio","state":"TX","address":"123 N. Saint Marys St.","name":""},
  {"lat":29.422025,"lon":-98.503701,"city":"San Antonio","state":"TX","address":"502 W. Cesar E. Chavez","name":""},
  {"lat":29.521494,"lon":-98.502615,"city":"San Antonio","state":"TX","address":"611 NW Loop 410","name":""},
  {"lat":29.589792,"lon":-98.622422,"city":"San Antonio","state":"TX","address":"6809 North Loop 1604 W","name":""},
  {"lat":29.530274,"lon":-98.483695,"city":"San Antonio","state":"TX","address":"10110 US-281","name":""},
  {"lat":29.349761,"lon":-98.446432,"city":"San Antonio","state":"TX","address":"7610 South New Braunfels","name":""},
  {"lat":29.587663,"lon":-98.594966,"city":"San Antonio","state":"TX","address":"5615 Landmark Parkway","name":""},
  {"lat":29.426895,"lon":-98.492897,"city":"San Antonio","state":"TX","address":"125 E. Houston Street","name":""},
  {"lat":29.5213,"lon":-98.4912,"city":"San Antonio","state":"TX","address":"37 NE Loop 410 at McCullough","name":""},
  {"lat":29.434677,"lon":-98.653747,"city":"San Antonio","state":"TX","address":"1719 Cable Ranch Road","name":""},
  {"lat":29.547564,"lon":-98.58546,"city":"San Antonio","state":"TX","address":"11426 IH-10 West","name":""},
  {"lat":29.425646,"lon":-98.492929,"city":"San Antonio","state":"TX","address":"118 Soledad Street","name":""},
  {"lat":29.522135,"lon":-98.483398,"city":"San Antonio","state":"TX","address":"8902 Jones Maltsberger Rd.","name":""},