{"key":"hilton","displayName":"Hilton","category":"hotels","useLocationName":false,"locations":[
  {"lat":21.283987,"lon":-157.836029,"city":"Honolulu","state":"HI","address":"2005 Kalia Road","name":""},
  {"lat":21.275255,"lon":-157.821869,"city":"Honolulu","state":"HI","address":"2500 Kuhio Ave.","name":""},
  {"lat":19.924306,"lon":-155.887461,"city":"Waikoloa","state":"HI","address":"69-425 Waikoloa Beach Drive","name":""},
  {"lat":33.098572,"lon":-117.315903,"city":"Carlsbad","state":"CA","address":"1 Ponto Road","name":""},
  {"lat":33.683125,"lon":-117.884445,"city":"Costa Mesa","state":"CA","address":"3050 Bristol St.","name":""},
  {"lat":32.9781,"lon":-117.2546,"city":"Del Mar","state":"CA","address":"15575 Jimmy Durante Blvd","name":""},
  {"lat":33.653185,"lon":-117.99472,"city":"Huntington Beach","state":"CA","address":"21100 Pacific Coast Hwy","name":""},
  {"lat":33.674686,"lon":-117.860695,"city":"Irvine","state":"CA","address":"18800 MacArthur Blvd.","name":""},
  {"lat":32.901758,"lon":-117.242869,"city":"La Jolla","state":"CA","address":"10950 North Torrey Pines Road","name":""},
  {"lat":32.724828,"lon":-117.208836,"city":"San Diego","state":"CA","address":"1960 Harbor Island Drive","name":""},
  {"lat":32.7044,"lon":-117.1592,"city":"San Diego","state":"CA","address":"1 Park Boulevard","name":""},
  {"lat":32.707897,"lon":-117.160561,"city":"San Diego","state":"CA","address":"401 K Street","name":""},
  {"lat":32.764217,"lon":-117.15394,"city":"San Diego","state":"CA","address":"901 Camino del Rio South","name":""},
  {"lat":34.066345,"lon":-118.413025,"city":"Beverly Hills","state":"CA","address":"9876 Wilshire Boulevard","name":""},
  {"lat":33.982627,"lon":-118.395681,"city":"Culver City","state":"CA","address":"6161 West Centinela Avenue","name":""},
  {"lat":34.158695,"lon":-118.256294,"city":"Glendale","state":"CA","address":"100 West Glenoaks Blvd","name":""},
  {"lat":33.7677,"lon":-118.1986,"city":"Long Beach","state":"CA","address":"701 West Ocean Boulevard","name":""},
  {"lat":34.049739,"lon":-118.25455,"city":"Los Angeles","state":"CA","address":"535 South Grand Avenue","name":""},
  {"lat":33.945437,"lon":-118.37926,"city":"Los Angeles","state":"CA","address":"5711 West Century Boulevard","name":""},
  {"lat":34.142746,"lon":-118.140785,"city":"Pasadena","state":"CA","address":"168 South Los Robles Avenue","name":""},
  {"lat":34.416757,"lon":-119.676672,"city":"Santa Barbara","state":"CA","address":"633 East Cabrillo Boulevard","name":""},
  {"lat":34.011794,"lon":-118.489103,"city":"Santa Monica","state":"CA","address":"1707 Fourth Street","name":""},
  {"lat":34.1386,"lon":-118.3613,"city":"Universal City","state":"CA","address":"555 Universal Hollywood Drive","name":""},
  {"lat":34.186133,"lon":-118.597346,"city":"Woodland Hills","state":"CA","address":"6360 Canoga Avenue","name":""},
  {"lat":37.7952,"lon":-122.4048,"city":"San Francisco","state":"CA","address":"750 Kearny Street","name":""},
  {"lat":37.786103,"lon":-122.410253,"city":"San Francisco","state":"CA","address":"333 O'Farrell Street","name":""},
  {"lat":37.784835,"lon":-122.408926,"city":"San Francisco","state":"CA","address":"55 Cyril Magnin Street","name":""},
  {"lat":37.5895,"lon":-122.3428,"city":"Burlingame","state":"CA","address":"600 Airport Blvd.","name":""},
  {"lat":37.3294,"lon":-121.8908,"city":"San Jose","state":"CA","address":"300 Almaden Boulevard","name":""},
  {"lat":37.402729,"lon":-121.977604,"city":"Santa Clara","state":"CA","address":"4949 Great America Parkway","name":""},
  {"lat":37.036,"lon":-122.0234,"city":"Santa Cruz","state":"CA","address":"6001 La Madrona Drive","name":""},
  {"lat":37.971325,"lon":-122.054306,"city":"Concord","state":"CA","address":"1970 Diamond Blvd","name":""},
  {"lat":38.606332,"lon":-121.43544,"city":"Sacramento","state":"CA","address":"2200 Harvard St","name":""},
  {"lat":37.984596,"lon":-121.336174,"city":"Stockton","state":"CA","address":"2323 Grand Canal Blvd","name":""},
  {"lat":33.8003,"lon":-117.9184,"city":"Anaheim","state":"CA","address":"777 W Convention Way","name":""},
  {"lat":34.14,"lon":-118.037,"city":"Arcadia","state":"CA","address":"123 W. Huntington Drive","name":""},
  {"lat":33.859,"lon":-117.996,"city":"Buena Park","state":"CA","address":"6979 Brenner Avenue","name":""},
  {"lat":33.824001,"lon":-116.54277,"city":"Palm Springs","state":"CA","address":"400 East Tahquitz Canyon Way","name":""},
  {"lat":34.080578,"lon":-118.102158,"city":"San Gabriel","state":"CA","address":"225 West Valley Boulevard","name":""},
  {"lat":36.102,"lon":-114.9319,"city":"Henderson","state":"NV","address":"1610 Lake Las Vegas Parkway","name":""},
  {"lat":36.135263,"lon":-115.166925,"city":"Las Vegas","state":"NV","address":"999 Resorts World Avenue","name":""},
  {"lat":33.2985,"lon":-111.8931,"city":"Chandler","state":"AZ","address":"2929 W Frye Road","name":""},
  {"lat":33.424791,"lon":-111.97866,"city":"Phoenix","state":"AZ","address":"2435 South 47th Street","name":""},
  {"lat":33.548374,"lon":-112.04775,"city":"Phoenix","state":"AZ","address":"7677 North 16th Street","name":""},
  {"lat":33.5928,"lon":-112.06381,"city":"Phoenix","state":"AZ","address":"11111 North 7th Street","name":""},
  {"lat":33.505,"lon":-111.929,"city":"Scottsdale","state":"AZ","address":"4747 N Goldwater Blvd","name":""},
  {"lat":33.656718,"lon":-111.909766,"city":"Scottsdale","state":"AZ","address":"7965 E. Cavasson Boulevard","name":""},
  {"lat":33.5313,"lon":-111.9254,"city":"Scottsdale","state":"AZ","address":"6333 North Scottsdale Road","name":""},
  {"lat":32.3862,"lon":-110.9581,"city":"Tucson","state":"AZ","address":"10000 North Oracle Road","name":""},
  {"lat":32.2201,"lon":-110.83,"city":"Tucson","state":"AZ","address":"7600 East Broadway Blvd.","name":""},
  {"lat":29.42238,"lon":-98.487823,"city":"San Antonio","state":"TX","address":"200 South Alamo Street","name":""},
  {"lat":29.465218,"lon":-98.686829,"city":"San Antonio","state":"TX","address":"9800 Westover Hills Blvd.","name":""},
  {"lat":30.215,"lon":-97.751,"city":"Austin","state":"TX","address":"4140 Governor's Row","name":""},
  {"lat":30.264994,"lon":-97.738803,"city":"Austin","state":"TX","address":"500 East 4th Street","name":""},
  {"lat":30.2132,"lon":-97.6675,"city":"Austin","state":"TX","address":"9515 Hotel Drive","name":""},
  {"lat":30.635385,"lon":-96.326595,"city":"College Station","state":"TX","address":"801 University Drive East","name":""},
  {"lat":31.559,"lon":-97.1284,"city":"Waco","state":"TX","address":"113 South University Parks Drive","name":""},
  {"lat":32.7618,"lon":-97.0676,"city":"Arlington","state":"TX","address":"2401 East Lamar Boulevard","name":""},
  {"lat":32.752735,"lon":-97.329285,"city":"Fort Worth","state":"TX","address":"815 Main St","name":""},
  {"lat":32.959417,"lon":-97.046009,"city":"Grapevine","state":"TX","address":"1800 Highway 26E","name":""},
  {"lat":32.9477,"lon":-97.1301,"city":"Southlake","state":"TX","address":"1400 Plaza Place","name":""},
  {"lat":32.8002,"lon":-96.8279,"city":"Dallas","state":"TX","address":"2201 N Stemmons Fwy","name":""},
  {"lat":32.925363,"lon":-96.815949,"city":"Dallas","state":"TX","address":"5410 LBJ Freeway","name":""},
  {"lat":32.863232,"lon":-96.809738,"city":"Dallas","state":"TX","address":"5954 Luther Lane","name":""},
  {"lat":32.976,"lon":-96.714,"city":"Richardson","state":"TX","address":"701 E Campbell Rd","name":""},
  {"lat":32.8893,"lon":-96.4811,"city":"Rockwall","state":"TX","address":"2055 Summer Lee Drive","name":""},
  {"lat":33.0883,"lon":-96.8212,"city":"Plano","state":"TX","address":"5805 Granite Parkway","name":""},
  {"lat":29.271045,"lon":-94.819025,"city":"Galveston","state":"TX","address":"5400 Seawall Boulevard","name":""},
  {"lat":29.751556,"lon":-95.360619,"city":"Houston","state":"TX","address":"1600 Lamar","name":""},
  {"lat":29.557545,"lon":-95.075104,"city":"Houston","state":"TX","address":"3000 Nasa Pkwy","name":""},
  {"lat":29.946747,"lon":-95.407433,"city":"Houston","state":"TX","address":"12400 Greenspoint Drive","name":""},
  {"lat":29.709904,"lon":-95.403275,"city":"Houston","state":"TX","address":"6633 Travis Street","name":""},
  {"lat":29.745876,"lon":-95.459854,"city":"Houston","state":"TX","address":"2001 Post Oak Blvd.","name":""},
  {"lat":29.736282,"lon":-95.546036,"city":"Houston","state":"TX","address":"9999 Westheimer Road","name":""},
  {"lat":29.718964,"lon":-95.341163,"city":"Houston","state":"TX","address":"4450 University Drive","name":""},
  {"lat":30.4486,"lon":-91.1892,"city":"Baton Rouge","state":"LA","address":"201 Lafayette Street","name":""},
  {"lat":29.982302,"lon":-90.25768,"city":"Kenner","state":"LA","address":"901 Airline Drive","name":""},
  {"lat":29.947841,"lon":-90.063397,"city":"New Orleans","state":"LA","address":"Two Poydras Street","name":""},
  {"lat":29.950739,"lon":-90.070648,"city":"New Orleans","state":"LA","address":"333 St. Charles Avenue","name":""},
  {"lat":32.518546,"lon":-93.751977,"city":"Shreveport","state":"LA","address":"104 Market Street","name":""},
  {"lat":32.399811,"lon":-90.142884,"city":"Jackson","state":"MS","address":"1001 East County Line Road","name":""},
  {"lat":34.7736,"lon":-111.7656,"city":"Sedona","state":"AZ","address":"90 Ridge Trail Drive","name":""},
  {"lat":35.8596,"lon":-105.9967,"city":"Santa Fe","state":"NM","address":"20 Buffalo Thunder Trail","name":""},
  {"lat":35.687453,"lon":-105.94275,"city":"Santa Fe","state":"NM","address":"100 Sandoval St","name":""},
  {"lat":40.763623,"lon":-111.89382,"city":"Salt Lake City","state":"UT","address":"255 South West Temple","name":""},
  {"lat":39.747126,"lon":-104.990149,"city":"Denver","state":"CO","address":"1701 California Street","name":""},
  {"lat":39.570401,"lon":-104.867418,"city":"Englewood","state":"CO","address":"200 Inverness Drive West","name":""},
  {"lat":40.567096,"lon":-105.082895,"city":"Fort Collins","state":"CO","address":"425 West Prospect Road","name":""},
  {"lat":35.468792,"lon":-97.514036,"city":"Oklahoma City","state":"OK","address":"One Park Avenue","name":""},
  {"lat":36.643704,"lon":-93.215639,"city":"Branson","state":"MO","address":"200 East Main Street","name":""},
  {"lat":36.644722,"lon":-93.214567,"city":"Branson","state":"MO","address":"3 Branson Landing","name":""},
  {"lat":39.295322,"lon":-94.68241,"city":"Kansas City","state":"MO","address":"8801 NW 112th Street","name":""},
  {"lat":39.042878,"lon":-94.595854,"city":"Kansas City","state":"MO","address":"770 W 47th Street","name":""},
  {"lat":39.0982,"lon":-94.5843,"city":"Kansas City","state":"MO","address":"1329 Baltimore","name":""},
  {"lat":38.6273,"lon":-90.1879,"city":"Saint Louis","state":"MO","address":"400 Olive St.","name":""},
  {"lat":38.736862,"lon":-90.358803,"city":"Saint Louis","state":"MO","address":"10330 Natural Bridge Road","name":""},
  {"lat":38.6253,"lon":-90.1908,"city":"Saint Louis","state":"MO","address":"1 South Broadway","name":""},
  {"lat":38.63422,"lon":-90.40712,"city":"Saint Louis","state":"MO","address":"1335 South Lindbergh Blvd.","name":""},
  {"lat":41.2637,"lon":-95.9305,"city":"Omaha","state":"NE","address":"1001 Cass Street","name":""},
  {"lat":41.590709,"lon":-93.624079,"city":"Des Moines","state":"IA","address":"435 Park Street","name":""},
  {"lat":44.859,"lon":-93.2187,"city":"Bloomington","state":"MN","address":"3800 American Blvd E","name":""},
  {"lat":44.856468,"lon":-93.330299,"city":"Bloomington","state":"MN","address":"3900 American Blvd West","name":""},
  {"lat":44.972826,"lon":-93.273591,"city":"Minneapolis","state":"MN","address":"1001 Marquette Avenue South","name":""},
  {"lat":44.02321,"lon":-92.462733,"city":"Rochester","state":"MN","address":"10 East Center Street","name":""},
  {"lat":61.219261,"lon":-149.892456,"city":"Anchorage","state":"AK","address":"500 West Third Avenue","name":""},
  {"lat":47.607243,"lon":-122.189362,"city":"Bellevue","state":"WA","address":"300 112th Avenue SE","name":""},
  {"lat":45.517551,"lon":-122.680016,"city":"Portland","state":"OR","address":"921 SW Sixth Avenue","name":""},
  {"lat":45.517903,"lon":-122.678962,"city":"Portland","state":"OR","address":"545 SW Taylor","name":""},
  {"lat":47.610038,"lon":-122.335532,"city":"Seattle","state":"WA","address":"1415 5th Avenue","name":""},
  {"lat":47.444084,"lon":-122.29622,"city":"Seattle","state":"WA","address":"17620 International Blvd","name":""},
  {"lat":45.625627,"lon":-122.674005,"city":"Vancouver","state":"WA","address":"301 W. 6th Street","name":""},
  {"lat":27.978889,"lon":-82.828545,"city":"Clearwater","state":"FL","address":"400 Mandalay Avenue","name":""},
  {"lat":25.921766,"lon":-81.727974,"city":"Marco Island","state":"FL","address":"560 South Collier Boulevard","name":""},
  {"lat":26.20941,"lon":-81.801422,"city":"Naples","state":"FL","address":"5111 Tamiami Trail North","name":""},
  {"lat":27.7701,"lon":-82.634,"city":"Saint Petersburg","state":"FL","address":"333 1st St SE","name":""},
  {"lat":27.889576,"lon":-82.666922,"city":"Saint Petersburg","state":"FL","address":"950 Lake Carillon Drive","name":""},
  {"lat":27.962517,"lon":-82.512779,"city":"Tampa","state":"FL","address":"2225 N Lois Ave","name":""},
  {"lat":27.9456,"lon":-82.4575,"city":"Tampa","state":"FL","address":"211 North Tampa Street","name":""},
  {"lat":26.367849,"lon":-80.16845,"city":"Boca Raton","state":"FL","address":"7920 Glades Road","name":""},
  {"lat":25.782413,"lon":-80.280585,"city":"Miami","state":"FL","address":"5101 Blue Lagoon Drive","name":""},
  {"lat":25.686852,"lon":-80.341933,"city":"Miami","state":"FL","address":"9100 North Kendall Drive","name":""},
  {"lat":25.790674,"lon":-80.188469,"city":"Miami","state":"FL","address":"1601 Biscayne Blvd","name":""},
  {"lat":25.953391,"lon":-80.143906,"city":"Aventura","state":"FL","address":"2885 NE 191st Street","name":""},
  {"lat":26.129482,"lon":-80.103684,"city":"Fort Lauderdale","state":"FL","address":"505 N. Ft. Lauderdale Beach Blvd","name":""},
  {"lat":26.101446,"lon":-80.120979,"city":"Fort Lauderdale","state":"FL","address":"1881 SE 17th Street","name":""},
  {"lat":25.76955,"lon":-80.132216,"city":"Miami Beach","state":"FL","address":"101 Ocean Drive","name":""},
  {"lat":25.844233,"lon":-80.120026,"city":"Miami Beach","state":"FL","address":"6261 Collins Avenue","name":""},
  {"lat":25.796656,"lon":-80.131345,"city":"Miami Beach","state":"FL","address":"2000 Park Avenue","name":""},
  {"lat":26.6793,"lon":-80.0745,"city":"West Palm Beach","state":"FL","address":"150 Australian Avenue","name":""},
  {"lat":26.705607,"lon":-80.057529,"city":"West Palm Beach","state":"FL","address":"600 Okeechobee Boulevard","name":""},
  {"lat":28.090076,"lon":-80.625992,"city":"Melbourne","state":"FL","address":"200 Rialto Place","name":""},
  {"lat":30.250821,"lon":-87.665275,"city":"Gulf Shores","state":"AL","address":"21196 East Beach Blvd","name":""},
  {"lat":30.369635,"lon":-86.327219,"city":"Miramar Beach","state":"FL","address":"4000 Sandestin Boulevard South","name":""},
  {"lat":30.332792,"lon":-87.137028,"city":"Pensacola Beach","state":"FL","address":"12 Via de Luna Drive","name":""},
  {"lat":33.503913,"lon":-86.798846,"city":"Birmingham","state":"AL","address":"808 20th Street South","name":""},
  {"lat":33.6592,"lon":-84.42475,"city":"Hapeville","state":"GA","address":"1031 Virginia Avenue","name":""},
  {"lat":33.404731,"lon":-84.576052,"city":"Peachtree City","state":"GA","address":"2443 HWY 54 West","name":""},
  {"lat":29.639799,"lon":-82.372696,"city":"Gainesville","state":"FL","address":"1714 SW 34th Street","name":""},
  {"lat":29.14881,"lon":-82.183238,"city":"Ocala","state":"FL","address":"3600 Southwest 36th Ave","name":""},
  {"lat":28.6569,"lon":-81.3861,"city":"Altamonte Springs","state":"FL","address":"350 Northlake Blvd","name":""},
  {"lat":28.338618,"lon":-80.607773,"city":"Cocoa Beach","state":"FL","address":"1550 North Atlantic Ave","name":""},
  {"lat":29.229702,"lon":-81.00898,"city":"Daytona Beach","state":"FL","address":"100 North Atlantic Avenue","name":""},
  {"lat":28.37672,"lon":-81.515137,"city":"Lake Buena Vista","state":"FL","address":"1900 E. Buena Vista Drive","name":""},
  {"lat":28.3731,"lon":-81.5127,"city":"Lake Buena Vista","state":"FL","address":"1751 Hotel Plaza Boulevard","name":""},
  {"lat":28.133766,"lon":-80.579402,"city":"Melbourne","state":"FL","address":"3003 North Highway A1A","name":""},
  {"lat":28.425,"lon":-81.4578,"city":"Orlando","state":"FL","address":"6001 Destination Parkway","name":""},
  {"lat":30.26131,"lon":-81.44287,"city":"Jacksonville","state":"FL","address":"4745 Transformation Way","name":""},
  {"lat":29.894255,"lon":-81.311409,"city":"Saint Augustine","state":"FL","address":"32 Avenida Menendez","name":""},
  {"lat":32.166628,"lon":-80.716698,"city":"Hilton Head Island","state":"SC","address":"One Hotel Circle","name":""},
  {"lat":35.107498,"lon":-89.868075,"city":"Memphis","state":"TN","address":"939 Ridge Lake Boulevard","name":""},
  {"lat":33.76165,"lon":-84.3838,"city":"Atlanta","state":"GA","address":"255 Courtland Street NE","name":""},
  {"lat":33.942412,"lon":-84.55194,"city":"Marietta","state":"GA","address":"500 Powder Springs St","name":""},
  {"lat":36.032738,"lon":-86.780815,"city":"Brentwood","state":"TN","address":"9000 Overlook Boulevard","name":""},
  {"lat":35.94817,"lon":-86.80992,"city":"Franklin","state":"TN","address":"601 Corporate Centre Drive","name":""},
  {"lat":36.131582,"lon":-86.668052,"city":"Nashville","state":"TN","address":"2 Terminal Drive","name":""},
  {"lat":36.159527,"lon":-86.777046,"city":"Nashville","state":"TN","address":"121 Fourth Avenue South","name":""},
  {"lat":36.10925,"lon":-86.818546,"city":"Nashville","state":"TN","address":"3801 Cleghorn Avenue","name":""},
  {"lat":39.101025,"lon":-84.513573,"city":"Cincinnati","state":"OH","address":"35 West Fifth Street","name":""},
  {"lat":39.015152,"lon":-84.6328,"city":"Florence","state":"KY","address":"7373 Turfway Road","name":""},
  {"lat":38.048342,"lon":-84.500541,"city":"Lexington","state":"KY","address":"369 West Vine Street","name":""},
  {"lat":38.249654,"lon":-85.758108,"city":"Louisville","state":"KY","address":"500 S 4TH Street","name":""},
  {"lat":34.08762,"lon":-84.258144,"city":"Alpharetta","state":"GA","address":"5775 Windward Parkway","name":""},
  {"lat":33.919651,"lon":-84.351464,"city":"Atlanta","state":"GA","address":"6120 Peachtree Dunwoody Rd.","name":""},
  {"lat":33.95291,"lon":-84.228895,"city":"Peachtree Corners","state":"GA","address":"5993 Peachtree Industrial Blvd.","name":""},
  {"lat":34.856323,"lon":-82.33683,"city":"Greenville","state":"SC","address":"45 West Orchard Park Drive","name":""},
  {"lat":35.802224,"lon":-83.988614,"city":"Alcoa","state":"TN","address":"2001 Alcoa Highway","name":""},
  {"lat":35.962692,"lon":-83.920029,"city":"Knoxville","state":"TN","address":"501 West Church Avenue","name":""},
  {"lat":35.4863,"lon":-82.5537,"city":"Asheville","state":"NC","address":"43 Town Square Blvd","name":""},
  {"lat":33.998535,"lon":-81.036828,"city":"Columbia","state":"SC","address":"924 Senate Street","name":""},
  {"lat":33.769135,"lon":-78.775333,"city":"Myrtle Beach","state":"SC","address":"10000 Beach Club Drive","name":""},
  {"lat":33.769135,"lon":-78.775333,"city":"Myrtle Beach","state":"SC","address":"10000 Beach Club Drive","name":""},
  {"lat":35.188624,"lon":-80.915191,"city":"Charlotte","state":"NC","address":"2800 Coliseum Centre Dr.","name":""},
  {"lat":35.311035,"lon":-80.747827,"city":"Charlotte","state":"NC","address":"8629 JM Keynes Drive","name":""},
  {"lat":35.223885,"lon":-80.843796,"city":"Charlotte","state":"NC","address":"222 East Third Street","name":""},
  {"lat":36.024262,"lon":-78.95644,"city":"Durham","state":"NC","address":"3800 Hillsborough Road","name":""},
  {"lat":41.872524,"lon":-87.624786,"city":"Chicago","state":"IL","address":"720 South Michigan Avenue","name":""},
  {"lat":41.976633,"lon":-87.905212,"city":"Chicago","state":"IL","address":"O'Hare International Airport","name":""},
  {"lat":41.899517,"lon":-87.622253,"city":"Chicago","state":"IL","address":"198 E. Delaware Place","name":""},
  {"lat":41.8806,"lon":-87.6269,"city":"Chicago","state":"IL","address":"17 East Monroe Street","name":""},
  {"lat":41.9003,"lon":-87.6234,"city":"Chicago","state":"IL","address":"140 East Walton Place","name":""},
  {"lat":41.886,"lon":-87.6276,"city":"Chicago","state":"IL","address":"201 N. State Street","name":""},
  {"lat":42.049248,"lon":-87.680748,"city":"Evanston","state":"IL","address":"1710 Orrington Avenue","name":""},
  {"lat":42.102929,"lon":-87.885464,"city":"Northbrook","state":"IL","address":"2855 Milwaukee Ave","name":""},
  {"lat":41.821489,"lon":-87.972714,"city":"Oak Brook","state":"IL","address":"3500 Midwest Road","name":""},
  {"lat":41.722691,"lon":-87.738708,"city":"Oak Lawn","state":"IL","address":"9333 South Cicero Avenue","name":""},
  {"lat":41.8608,"lon":-87.9585,"city":"Oakbrook Terrace","state":"IL","address":"10 Drury Lane","name":""},
  {"lat":41.980007,"lon":-87.863274,"city":"Rosemont","state":"IL","address":"5550 N. River Road","name":""},
  {"lat":39.768963,"lon":-86.160622,"city":"Indianapolis","state":"IN","address":"120 West Market Street","name":""},
  {"lat":41.0767,"lon":-85.1392,"city":"Fort Wayne","state":"IN","address":"1020 South Calhoun Street","name":""},
  {"lat":44.261582,"lon":-88.409382,"city":"Appleton","state":"WI","address":"333 W College Avenue","name":""},
  {"lat":43.072653,"lon":-89.381046,"city":"Madison","state":"WI","address":"9 East Wilson Street","name":""},
  {"lat":43.038449,"lon":-87.917593,"city":"Milwaukee","state":"WI","address":"509 W. Wisconsin Avenue","name":""},
  {"lat":39.970537,"lon":-83.001483,"city":"Columbus","state":"OH","address":"402 North High Street","name":""},
  {"lat":40.143185,"lon":-82.974792,"city":"Columbus","state":"OH","address":"8700 Lyra Drive","name":""},
  {"lat":40.04907,"lon":-82.912123,"city":"Columbus","state":"OH","address":"3900 Chagrin Drive","name":""},
  {"lat":41.502817,"lon":-81.696039,"city":"Cleveland","state":"OH","address":"100 Lakeside Avenue East","name":""},
  {"lat":35.574242,"lon":-77.389637,"city":"Greenville","state":"NC","address":"207 SW Greenville Blvd","name":""},
  {"lat":35.82987,"lon":-78.620476,"city":"Raleigh","state":"NC","address":"3415 Wake Forest Road","name":""},
  {"lat":37.542217,"lon":-77.437471,"city":"Richmond","state":"VA","address":"501 East Broad Street","name":""},
  {"lat":37.6601,"lon":-77.6298,"city":"Richmond","state":"VA","address":"12042 West Broad Street","name":""},
  {"lat":36.846239,"lon":-76.291454,"city":"Norfolk","state":"VA","address":"100 East Main Street","name":""},
  {"lat":36.858906,"lon":-75.977707,"city":"Virginia Beach","state":"VA","address":"3001 Atlantic Avenue","name":""},
  {"lat":38.85751,"lon":-77.38648,"city":"Fairfax","state":"VA","address":"12777 Fair Lakes Circle","name":""},
  {"lat":38.932598,"lon":-77.427956,"city":"Herndon","state":"VA","address":"13869 Park Center Road","name":""},
  {"lat":38.83297,"lon":-77.11744,"city":"Alexandria","state":"VA","address":"5000 Seminary Road","name":""},
  {"lat":38.80681,"lon":-77.05971,"city":"Alexandria","state":"VA","address":"1767 King Street","name":""},
  {"lat":38.881966,"lon":-77.110552,"city":"Arlington","state":"VA","address":"950 North Stafford Street","name":""},
  {"lat":38.8526,"lon":-77.0522,"city":"Arlington","state":"VA","address":"2399 Richmond Highway","name":""},
  {"lat":38.897701,"lon":-77.07297,"city":"Arlington","state":"VA","address":"1900 Fort Myer Drive","name":""},
  {"lat":39.2859,"lon":-76.6213,"city":"Baltimore","state":"MD","address":"401 West Pratt Street","name":""},
  {"lat":39.195732,"lon":-76.680824,"city":"Linthicum Heights","state":"MD","address":"1739 West Nursery Road","name":""},
  {"lat":38.926704,"lon":-77.218163,"city":"McLean","state":"VA","address":"7920 Jones Branch Drive","name":""},
  {"lat":39.061092,"lon":-77.122603,"city":"Rockville","state":"MD","address":"1750 Rockville Pike","name":""},
  {"lat":38.903178,"lon":-77.036444,"city":"Washington","state":"DC","address":"1001 16th Street NW","name":""},
  {"lat":38.883736,"lon":-77.024469,"city":"Washington","state":"DC","address":"480 L'Enfant Plaza SW","name":""},
  {"lat":38.916245,"lon":-77.045265,"city":"Washington","state":"DC","address":"1919 Connecticut Ave., NW","name":""},
  {"lat":38.896839,"lon":-77.010963,"city":"Washington, DC","state":"DC","address":"525 New Jersey Ave NW","name":""},
  {"lat":38.3609,"lon":-75.0719,"city":"Ocean City","state":"MD","address":"3200 North Baltimore","name":""},
  {"lat":40.260307,"lon":-76.881851,"city":"Harrisburg","state":"PA","address":"One North Second Street","name":""},
  {"lat":39.686648,"lon":-75.660877,"city":"Newark","state":"DE","address":"100 Continental Drive","name":""},
  {"lat":39.945179,"lon":-75.14135,"city":"Philadelphia","state":"PA","address":"201 S. Christopher Columbus Blvd.","name":""},
  {"lat":40.0048,"lon":-75.2185,"city":"Philadelphia","state":"PA","address":"4200 City Avenue","name":""},
  {"lat":39.9539,"lon":-75.1956,"city":"Philadelphia","state":"PA","address":"3600 Sansom Street","name":""},
  {"lat":40.689622,"lon":-73.988209,"city":"Brooklyn","state":"NY","address":"140 Schermerhorn St.","name":""},
  {"lat":40.480041,"lon":-74.408844,"city":"East Brunswick","state":"NJ","address":"3 Tower Center Boulevard","name":""},
  {"lat":40.68675,"lon":-74.19328,"city":"Elizabeth","state":"NJ","address":"1170 Spring Street","name":""},
  {"lat":40.761131,"lon":-73.422705,"city":"Melville","state":"NY","address":"598 Broad Hollow Road","name":""},
  {"lat":40.7458,"lon":-73.9938,"city":"New York","state":"NY","address":"152 West 26th Street","name":""},
  {"lat":40.756359,"lon":-73.989052,"city":"New York","state":"NY","address":"234 West 42nd Street","name":""},
  {"lat":40.750562,"lon":-73.969543,"city":"New York","state":"NY","address":"One UN Plaza","name":""},
  {"lat":40.7617,"lon":-73.979,"city":"New York","state":"NY","address":"1335 Avenue of the Americas","name":""},
  {"lat":40.74259,"lon":-74.36658,"city":"Short Hills","state":"NJ","address":"41 John F. Kennedy Parkway","name":""},
  {"lat":41.405969,"lon":-75.663498,"city":"Scranton","state":"PA","address":"100 Adams Avenue","name":""},
  {"lat":40.871601,"lon":-74.062042,"city":"Hasbrouck Heights","state":"NJ","address":"650 Terrace Avenue","name":""},
  {"lat":40.841,"lon":-74.4546,"city":"Parsippany","state":"NJ","address":"1 Hilton Ct","name":""},
  {"lat":41.048418,"lon":-74.002447,"city":"Pearl River","state":"NY","address":"500 Veterans Memorial Drive","name":""},
  {"lat":42.6507,"lon":-73.7533,"city":"Albany","state":"NY","address":"40 Lodge Street","name":""},
  {"lat":43.0852,"lon":-73.784,"city":"Saratoga Springs","state":"NY","address":"534 Broadway","name":""},
  {"lat":41.373581,"lon":-71.958898,"city":"Mystic","state":"CT","address":"20 Coogan Boulevard","name":""},
  {"lat":41.822738,"lon":-71.418774,"city":"Providence","state":"RI","address":"21 Atwells Avenue","name":""},
  {"lat":42.346439,"lon":-71.085274,"city":"Boston","state":"MA","address":"40 Dalton St","name":""},
  {"lat":42.367439,"lon":-71.023457,"city":"Boston","state":"MA","address":"One Hotel Drive","name":""},
  {"lat":42.351225,"lon":-71.069683,"city":"Boston","state":"MA","address":"50 Park Plaza","name":""},
  {"lat":42.22562,"lon":-71.169716,"city":"Dedham","state":"MA","address":"25 Allied Drive","name":""},
  {"lat":42.49638,"lon":-71.120834,"city":"Woburn","state":"MA","address":"2 Forbes Road","name":""}]}