{"key":"hyatt_centric","displayName":"Hyatt Centric","category":"hotels","useLocationName":false,"locations":[
  {"lat":34.0106414,"lon":-118.485422,"city":"Delfina Santa Monica","state":"CA","address":"","name":"Hyatt Centric Delfina Santa Monica"},
  {"lat":38.5795383,"lon":-121.4985526,"city":"Sacramento","state":"CA","address":"","name":"Hyatt Centric Downtown Sacramento"},
  {"lat":37.4037146,"lon":-122.1099399,"city":"Mountain View","state":"CA","address":"","name":"Hyatt Centric Mountain View"},
  {"lat":37.386644,"lon":-121.9834059,"city":"Santa Clara Silicon Valley","state":"CA","address":"","name":"Hyatt Centric Santa Clara Silicon Valley"},
  {"lat":33.7649694,"lon":-118.1946809,"city":"The Pike Long Beach","state":"CA","address":"","name":"Hyatt Centric The Pike Long Beach"},
  {"lat":39.7480312,"lon":-104.9914806,"city":"Denver","state":"CO","address":"","name":"Hyatt Centric Downtown Denver"},
  {"lat":25.7610141,"lon":-80.1906291,"city":"Miami","state":"FL","address":"","name":"Hyatt Centric Brickell Miami"},
  {"lat":25.7893993,"lon":-80.1307242,"city":"Miami Beach","state":"FL","address":"","name":"Hyatt Centric South Beach Miami"},
  {"lat":33.8438488,"lon":-84.3622754,"city":"Atlanta","state":"GA","address":"","name":"Hyatt Centric Buckhead Atlanta"},
  {"lat":33.7814211,"lon":-84.3829521,"city":"Atlanta","state":"GA","address":"","name":"Hyatt Centric Midtown Atlanta"},
  {"lat":41.8937576,"lon":-87.6223591,"city":"Chicago","state":"IL","address":"","name":"Hyatt Centric Chicago Magnificent Mile"},
  {"lat":41.8809261,"lon":-87.6311731,"city":"Chicago","state":"IL","address":"","name":"Hyatt Centric The Loop Chicago"},
  {"lat":29.9546929,"lon":-90.0693646,"city":"New Orleans","state":"LA","address":"","name":"Hyatt Centric French Quarter New Orleans"},
  {"lat":44.976019,"lon":-93.2688937,"city":"Minneapolis","state":"MN","address":"","name":"Hyatt Centric Downtown Minneapolis"},
  {"lat":40.757572,"lon":-73.9840223,"city":"New York City","state":"NY","address":"","name":"Hyatt Centric Times Square New York"},
  {"lat":40.7050392,"lon":-74.0078925,"city":"New York City","state":"NY","address":"","name":"Hyatt Centric Wall Street New York"},
  {"lat":35.1505496,"lon":-80.8265891,"city":"Charlotte","state":"NC","address":"","name":"Hyatt Centric Charlotte SouthPark"},
  {"lat":45.5208334,"lon":-122.6832169,"city":"Portland","state":"OR","address":"","name":"Hyatt Centric Downtown Portland"},
  {"lat":39.9492302,"lon":-75.1687187,"city":"Philadelphia","state":"PA","address":"","name":"Hyatt Centric Center City Philadelphia"},
  {"lat":30.1634197,"lon":-95.4646753,"city":"The Woodlands","state":"TX","address":"","name":"Hyatt Centric The Woodlands"},
  {"lat":40.6824247,"lon":-111.5573268,"city":"Park City","state":"UT","address":"","name":"Hyatt Centric Park City"},
  {"lat":38.89514,"lon":-77.0727473,"city":"Arlington","state":"VA","address":"","name":"Hyatt Centric Arlington"}]}