{"key":"hyatt_regency","displayName":"Hyatt Regency","category":"hotels","useLocationName":false,"locations":[
  {"lat":51.0461771,"lon":-114.0626121,"city":"Calgary","state":"AB","address":"","name":"Hyatt Regency Calgary"},
  {"lat":49.2851852,"lon":-123.120638,"city":"Vancouver","state":"BC","address":"","name":"Hyatt Regency Vancouver"},
  {"lat":43.6464543,"lon":-79.3918088,"city":"Toronto","state":"ON","address":"","name":"Hyatt Regency Toronto"},
  {"lat":33.3797658,"lon":-86.8076127,"city":"Birmingham","state":"AL","address":"","name":"Hyatt Regency Birmingham - The Wynfrey Hotel"},
  {"lat":33.4498525,"lon":-112.0718447,"city":"Phoenix","state":"AZ","address":"","name":"Hyatt Regency Phoenix"},
  {"lat":32.8707939,"lon":-117.2254819,"city":"La Jolla At Aventine","state":"CA","address":"","name":"Hyatt Regency La Jolla at Aventine"},
  {"lat":33.7631581,"lon":-118.1909521,"city":"Long Beach","state":"CA","address":"","name":"Hyatt Regency Long Beach"},
  {"lat":33.9459969,"lon":-118.3951358,"city":"Los Angeles","state":"CA","address":"","name":"Hyatt Regency Los Angeles International Airport"},
  {"lat":32.7649055,"lon":-117.2403432,"city":"Mission Bay Spa And Marina","state":"CA","address":"","name":"Hyatt Regency Mission Bay Spa and Marina"},
  {"lat":33.6177949,"lon":-117.8886902,"city":"Newport Beach","state":"CA","address":"","name":"Hyatt Regency Newport Beach"},
  {"lat":33.7895774,"lon":-117.9168452,"city":"Garden Grove","state":"CA","address":"","name":"Hyatt Regency Orange County"},
  {"lat":38.5777012,"lon":-121.4910356,"city":"Sacramento","state":"CA","address":"","name":"Hyatt Regency Sacramento"},
  {"lat":37.7942471,"lon":-122.3959003,"city":"San Francisco","state":"CA","address":"","name":"Hyatt Regency San Francisco"},
  {"lat":37.5937773,"lon":-122.3653352,"city":"Burlingame","state":"CA","address":"","name":"Hyatt Regency San Francisco Airport"},
  {"lat":37.7865463,"lon":-122.4030879,"city":"San Francisco Downtown Soma","state":"CA","address":"","name":"Hyatt Regency San Francisco Downtown SOMA"},
  {"lat":37.405031,"lon":-121.9763853,"city":"Santa Clara","state":"CA","address":"","name":"Hyatt Regency Santa Clara"},
  {"lat":38.4357828,"lon":-122.7185364,"city":"Sonoma Wine Country","state":"CA","address":"","name":"Hyatt Regency Sonoma Wine Country"},
  {"lat":34.4172048,"lon":-118.5626164,"city":"Valencia","state":"CA","address":"","name":"Hyatt Regency Valencia"},
  {"lat":34.1552334,"lon":-118.8253011,"city":"Westlake","state":"CA","address":"","name":"Hyatt Regency Westlake"},
  {"lat":39.7373641,"lon":-104.8351314,"city":"Aurora","state":"CO","address":"","name":"Hyatt Regency Aurora-Denver Conference Center"},
  {"lat":39.7434046,"lon":-104.9936464,"city":"Denver","state":"CO","address":"","name":"Hyatt Regency Denver at Colorado Convention Center"},
  {"lat":39.6303735,"lon":-104.8989443,"city":"Denver","state":"CO","address":"","name":"Hyatt Regency Denver Tech Center"},
  {"lat":41.0472199,"lon":-73.5674384,"city":"Greenwich","state":"CT","address":"","name":"Hyatt Regency Greenwich"},
  {"lat":38.8955157,"lon":-77.0117536,"city":"Washington On Capitol Hill","state":"DC","address":"","name":"Hyatt Regency Washington on Capitol Hill"},
  {"lat":25.7518791,"lon":-80.2554995,"city":"Coral Gables","state":"FL","address":"","name":"Hyatt Regency Coral Gables"},
  {"lat":30.3243709,"lon":-81.6559505,"city":"Jacksonville","state":"FL","address":"","name":"Hyatt Regency Jacksonville Riverfront"},
  {"lat":25.7706845,"lon":-80.19052,"city":"Miami","state":"FL","address":"","name":"Hyatt Regency Miami"},
  {"lat":28.4270775,"lon":-81.4666092,"city":"Orlando","state":"FL","address":"","name":"Hyatt Regency Orlando"},
  {"lat":28.431332,"lon":-81.3062854,"city":"Orlando","state":"FL","address":"","name":"Hyatt Regency Orlando International Airport"},
  {"lat":33.7616304,"lon":-84.3866362,"city":"Atlanta","state":"GA","address":"","name":"Hyatt Regency Atlanta"},
  {"lat":32.0817732,"lon":-81.0915678,"city":"Savannah","state":"GA","address":"","name":"Hyatt Regency Savannah"},
  {"lat":41.8874806,"lon":-87.6228364,"city":"Chicago","state":"IL","address":"","name":"Hyatt Regency Chicago"},
  {"lat":42.1539383,"lon":-87.8707412,"city":"Deerfield","state":"IL","address":"","name":"Hyatt Regency Deerfield"},
  {"lat":39.7664704,"lon":-86.1608191,"city":"Indianapolis","state":"IN","address":"","name":"Hyatt Regency Indianapolis"},
  {"lat":37.6827664,"lon":-97.34136,"city":"Wichita","state":"KS","address":"","name":"Hyatt Regency Wichita"},
  {"lat":38.0482876,"lon":-84.5018047,"city":"Lexington","state":"KY","address":"","name":"Hyatt Regency Lexington"},
  {"lat":38.2533997,"lon":-85.7564471,"city":"Louisville","state":"KY","address":"","name":"Hyatt Regency Louisville"},
  {"lat":29.9495472,"lon":-90.0772736,"city":"New Orleans","state":"LA","address":"","name":"Hyatt Regency New Orleans"},
  {"lat":39.2848961,"lon":-76.6141138,"city":"Baltimore","state":"MD","address":"","name":"Hyatt Regency Baltimore Inner Harbor"},
  {"lat":38.9850791,"lon":-77.0952986,"city":"Bethesda","state":"MD","address":"","name":"Hyatt Regency Bethesda"},
  {"lat":42.3538346,"lon":-71.0603394,"city":"Boston","state":"MA","address":"","name":"Hyatt Regency Boston"},
  {"lat":42.3540964,"lon":-71.1054261,"city":"Boston","state":"MA","address":"","name":"Hyatt Regency Boston / Cambridge"},
  {"lat":42.3592082,"lon":-71.0272124,"city":"Boston","state":"MA","address":"","name":"Hyatt Regency Boston Harbor"},
  {"lat":44.8576377,"lon":-93.2261517,"city":"Bloomington","state":"MN","address":"","name":"Hyatt Regency Bloomington - Minneapolis"},
  {"lat":44.9710301,"lon":-93.2778937,"city":"Minneapolis","state":"MN","address":"","name":"Hyatt Regency Minneapolis"},
  {"lat":40.7170991,"lon":-74.0319724,"city":"Jersey City On The Hudson","state":"NJ","address":"","name":"Hyatt Regency Jersey City on the Hudson"},
  {"lat":40.8000906,"lon":-74.48089,"city":"Morristown","state":"NJ","address":"","name":"Hyatt Regency Morristown"},
  {"lat":40.4962978,"lon":-74.4410379,"city":"New Brunswick","state":"NJ","address":"","name":"Hyatt Regency New Brunswick"},
  {"lat":40.3238675,"lon":-74.6443762,"city":"Princeton","state":"NJ","address":"","name":"Hyatt Regency Princeton"},
  {"lat":40.8152329,"lon":-73.1711959,"city":"Long Island","state":"NY","address":"","name":"Hyatt Regency Long Island"},
  {"lat":43.1564165,"lon":-77.6082342,"city":"Rochester","state":"NY","address":"","name":"Hyatt Regency Rochester"},
  {"lat":40.7605958,"lon":-73.9851252,"city":"Times Square","state":"NY","address":"","name":"Hyatt Regency Times Square"},
  {"lat":39.1003013,"lon":-84.5156156,"city":"Cincinnati","state":"OH","address":"","name":"Hyatt Regency Cincinnati"},
  {"lat":41.5007579,"lon":-81.6907516,"city":"Cleveland","state":"OH","address":"","name":"Hyatt Regency Cleveland at The Arcade"},
  {"lat":39.9697344,"lon":-83.0014829,"city":"Columbus","state":"OH","address":"","name":"Hyatt Regency Columbus"},
  {"lat":40.4963245,"lon":-80.2599138,"city":"Pittsburgh","state":"PA","address":"","name":"Hyatt Regency Pittsburgh International Airport"},
  {"lat":18.4177536,"lon":-65.7941501,"city":"RÃ­o Grande","state":"PR","address":"","name":"Hyatt Regency Grand Reserve Puerto Rico"},
  {"lat":34.8532307,"lon":-82.3970533,"city":"Greenville","state":"SC","address":"","name":"Hyatt Regency Greenville"},
  {"lat":30.260732,"lon":-97.7467931,"city":"Austin","state":"TX","address":"","name":"Hyatt Regency Austin"},
  {"lat":32.7757599,"lon":-96.8094484,"city":"Dallas","state":"TX","address":"","name":"Hyatt Regency Dallas"},
  {"lat":32.8975284,"lon":-97.0387182,"city":"Dallas","state":"TX","address":"","name":"Hyatt Regency DFW International Airport"},
  {"lat":29.7863918,"lon":-95.6188797,"city":"Houston","state":"TX","address":"","name":"Hyatt Regency Houston West"},
  {"lat":29.7382741,"lon":-95.467406,"city":"Houston","state":"TX","address":"","name":"Hyatt Regency Houston/Galleria"},
  {"lat":40.7656479,"lon":-111.8946033,"city":"Salt Lake City","state":"UT","address":"","name":"Hyatt Regency Salt Lake City"},
  {"lat":38.960797,"lon":-77.423231,"city":"Dulles","state":"VA","address":"","name":"Hyatt Regency Dulles"},
  {"lat":38.958277,"lon":-77.3559236,"city":"Reston","state":"VA","address":"","name":"Hyatt Regency Reston"},
  {"lat":47.6148202,"lon":-122.3345782,"city":"Seattle","state":"WA","address":"","name":"Hyatt Regency Seattle"},
  {"lat":44.5175774,"lon":-88.0106432,"city":"Green Bay","state":"WI","address":"","name":"Hyatt Regency Green Bay"},
  {"lat":43.0409023,"lon":-87.9150235,"city":"Milwaukee","state":"WI","address":"","name":"Hyatt Regency Milwaukee"}]}