{"key":"hyatt","displayName":"Hyatt","category":"hotels","useLocationName":false,"locations":[
  {"lat":53.5387124,"lon":-113.6331682,"city":"Edmonton","state":"AB","address":"","name":"Hyatt Place Edmonton-West"},
  {"lat":51.0461771,"lon":-114.0626121,"city":"Calgary","state":"AB","address":"","name":"Hyatt Regency Calgary"},
  {"lat":49.8838723,"lon":-119.453954,"city":"Kelowna","state":"BC","address":"","name":"Hyatt Place Kelowna"},
  {"lat":53.9147357,"lon":-122.747072,"city":"Prince George","state":"BC","address":"","name":"Hyatt Place Prince George"},
  {"lat":49.2851852,"lon":-123.120638,"city":"Vancouver","state":"BC","address":"","name":"Hyatt Regency Vancouver"},
  {"lat":45.4287053,"lon":-75.6906887,"city":"Ottawa","state":"ON","address":"","name":"Andaz Ottawa ByWard Market"},
  {"lat":43.6331836,"lon":-79.4119649,"city":"Hotel X Toronto","state":"ON","address":"","name":"Hotel X Toronto"},
  {"lat":45.3253476,"lon":-75.8359427,"city":"Ottawa","state":"ON","address":"","name":"Hyatt Place Ottawa - West"},
  {"lat":43.7517427,"lon":-79.6854631,"city":"Toronto","state":"ON","address":"","name":"Hyatt Place Toronto / Brampton"},
  {"lat":42.2784774,"lon":-83.0517392,"city":"Windsor","state":"ON","address":"","name":"Hyatt Place Windsor"},
  {"lat":43.6464543,"lon":-79.3918088,"city":"Toronto","state":"ON","address":"","name":"Hyatt Regency Toronto"},
  {"lat":43.6691956,"lon":-79.3946177,"city":"Toronto","state":"ON","address":"","name":"Park Hyatt Toronto"},
  {"lat":45.5156845,"lon":-73.5591132,"city":"Montreal","state":"QC","address":"","name":"Hyatt Place Montreal - Downtown"},
  {"lat":33.3708902,"lon":-86.814073,"city":"Birmingham","state":"AL","address":"","name":"Hyatt Place Birmingham/Hoover"},
  {"lat":33.3797658,"lon":-86.8076127,"city":"Birmingham","state":"AL","address":"","name":"Hyatt Regency Birmingham - The Wynfrey Hotel"},
  {"lat":34.7440323,"lon":-86.6873003,"city":"Huntsville","state":"AL","address":"","name":"Hyatt Studios Huntsville"},
  {"lat":30.5839323,"lon":-88.1683361,"city":"Mobile","state":"AL","address":"","name":"Hyatt Studios Mobile / Tillmans Corner"},
  {"lat":61.1743863,"lon":-149.8876104,"city":"Anchorage","state":"AK","address":"","name":"Hyatt House Anchorage"},
  {"lat":61.1819155,"lon":-149.8825682,"city":"Anchorage","state":"AK","address":"","name":"Hyatt Place Anchorage-Midtown"},
  {"lat":33.6519737,"lon":-111.92321,"city":"Scottsdale","state":"AZ","address":"","name":"Hyatt House North Scottsdale"},
  {"lat":33.4979097,"lon":-111.921852,"city":"Scottsdale","state":"AZ","address":"","name":"Hyatt House Scottsdale/Old Town"},
  {"lat":33.423711,"lon":-111.930019,"city":"Tempe","state":"AZ","address":"","name":"Hyatt House Tempe / Phoenix / University"},
  {"lat":36.9255574,"lon":-111.4600645,"city":"Page","state":"AZ","address":"","name":"Hyatt Place Page / Lake Powell"},
  {"lat":33.4496958,"lon":-112.0761984,"city":"Phoenix","state":"AZ","address":"","name":"Hyatt Place Phoenix / Downtown"},
  {"lat":33.5850377,"lon":-112.116029,"city":"Phoenix","state":"AZ","address":"","name":"Hyatt Place Phoenix-North"},
  {"lat":33.3047003,"lon":-111.9037254,"city":"Phoenix","state":"AZ","address":"","name":"Hyatt Place Phoenix/Chandler-Fashion Center"},
  {"lat":33.2914646,"lon":-111.7528205,"city":"Phoenix","state":"AZ","address":"","name":"Hyatt Place Phoenix/Gilbert"},
  {"lat":33.4359395,"lon":-111.8613936,"city":"Phoenix","state":"AZ","address":"","name":"Hyatt Place Phoenix/Mesa"},
  {"lat":33.6520916,"lon":-111.92376,"city":"Scottsdale","state":"AZ","address":"","name":"Hyatt Place Scottsdale - North"},
  {"lat":33.4975402,"lon":-111.9234231,"city":"Scottsdale","state":"AZ","address":"","name":"Hyatt Place Scottsdale/Old Town"},
  {"lat":33.4232635,"lon":-111.9296529,"city":"Tempe","state":"AZ","address":"","name":"Hyatt Place Tempe / Phoenix / University"},
  {"lat":33.4287475,"lon":-111.962825,"city":"Tempe","state":"AZ","address":"","name":"Hyatt Place Tempe/Phoenix Airport"},
  {"lat":32.2494653,"lon":-110.9944806,"city":"Tucson","state":"AZ","address":"","name":"Hyatt Place Tucson-Central"},
  {"lat":33.4498525,"lon":-112.0718447,"city":"Phoenix","state":"AZ","address":"","name":"Hyatt Regency Phoenix"},
  {"lat":38.297629,"lon":-122.2892335,"city":"Napa","state":"CA","address":"","name":"Andaz Napa"},
  {"lat":32.713885,"lon":-117.1588057,"city":"San Diego","state":"CA","address":"","name":"Andaz San Diego"},
  {"lat":34.0954028,"lon":-118.3731859,"city":"West Hollywood","state":"CA","address":"","name":"Andaz West Hollywood"},
  {"lat":33.8220489,"lon":-116.5493095,"city":"Casa Cody","state":"CA","address":"","name":"Casa Cody"},
  {"lat":38.1663959,"lon":-120.4309638,"city":"Silver Dawn Ranch Road","state":"CA","address":"","name":"Dawn Ranch"},
  {"lat":34.1002131,"lon":-118.3301929,"city":"Dream Hollywood","state":"CA","address":"","name":"Dream Hollywood"},
  {"lat":38.3664236,"lon":-122.5243918,"city":"Gaige House","state":"CA","address":"","name":"Gaige House"},
  {"lat":37.789114,"lon":-122.4072383,"city":"San Francisco","state":"CA","address":"","name":"Grand Hyatt San Francisco"},
  {"lat":34.025087,"lon":-118.7703589,"city":"Holiday House","state":"CA","address":"","name":"Holiday House"},
  {"lat":34.2442749,"lon":-116.9125882,"city":"Marina Riviera","state":"CA","address":"","name":"Hotel Marina Riviera"},
  {"lat":34.0106414,"lon":-118.485422,"city":"Delfina Santa Monica","state":"CA","address":"","name":"Hyatt Centric Delfina Santa Monica"},
  {"lat":38.5795383,"lon":-121.4985526,"city":"Sacramento","state":"CA","address":"","name":"Hyatt Centric Downtown Sacramento"},
  {"lat":37.4037146,"lon":-122.1099399,"city":"Mountain View","state":"CA","address":"","name":"Hyatt Centric Mountain View"},
  {"lat":37.386644,"lon":-121.9834059,"city":"Santa Clara Silicon Valley","state":"CA","address":"","name":"Hyatt Centric Santa Clara Silicon Valley"},
  {"lat":33.7649694,"lon":-118.1946809,"city":"The Pike Long Beach","state":"CA","address":"","name":"Hyatt Centric The Pike Long Beach"},
  {"lat":33.8085365,"lon":-118.0302104,"city":"Cypress","state":"CA","address":"","name":"Hyatt House Cypress/Anaheim"},
  {"lat":38.546686,"lon":-121.7187497,"city":"Davis","state":"CA","address":"","name":"Hyatt House Davis"},
  {"lat":37.8394123,"lon":-122.292878,"city":"Emeryville","state":"CA","address":"","name":"Hyatt House Emeryville/San Francisco Bay Area"},
  {"lat":33.9038443,"lon":-118.3826041,"city":"Los Angeles","state":"CA","address":"","name":"Hyatt House Los Angeles/LAX/Manhattan Beach"},
  {"lat":37.9427952,"lon":-122.0611098,"city":"Pleasant Hill","state":"CA","address":"","name":"Hyatt House Pleasant Hill"},
  {"lat":37.6892001,"lon":-121.9008903,"city":"Pleasanton","state":"CA","address":"","name":"Hyatt House Pleasanton"},
  {"lat":38.5732227,"lon":-121.4700901,"city":"Sacramento","state":"CA","address":"","name":"Hyatt House Sacramento / Midtown"},
  {"lat":32.899073,"lon":-117.1916559,"city":"San Diego","state":"CA","address":"","name":"Hyatt House San Diego/Sorrento Mesa"},
  {"lat":37.3290632,"lon":-122.0133718,"city":"San Jose","state":"CA","address":"","name":"Hyatt House San Jose / Cupertino"},
  {"lat":37.3739307,"lon":-121.9194707,"city":"San Jose Airport","state":"CA","address":"","name":"Hyatt House San Jose Airport"},
  {"lat":37.4165143,"lon":-121.9528699,"city":"San Jose","state":"CA","address":"","name":"Hyatt House San Jose/Silicon Valley"},
  {"lat":37.7779643,"lon":-121.9780123,"city":"San Ramon","state":"CA","address":"","name":"Hyatt House San Ramon"},
  {"lat":37.3945221,"lon":-121.944701,"city":"Santa Clara","state":"CA","address":"","name":"Hyatt House Santa Clara"},
  {"lat":38.3938472,"lon":-121.9546033,"city":"Vacaville","state":"CA","address":"","name":"Hyatt House Vacaville"},
  {"lat":35.3574922,"lon":-119.0913169,"city":"Bakersfield","state":"CA","address":"","name":"Hyatt Place Bakersfield"},
  {"lat":35.7438367,"lon":-119.2432736,"city":"Delano","state":"CA","address":"","name":"Hyatt Place Delano"},
  {"lat":37.7057208,"lon":-121.8873687,"city":"Dublin","state":"CA","address":"","name":"Hyatt Place Dublin/Pleasanton"},
  {"lat":37.837318,"lon":-122.292213,"city":"Emeryville","state":"CA","address":"","name":"Hyatt Place Emeryville/San Francisco Bay Area"},
  {"lat":36.8432559,"lon":-119.7841549,"city":"Fresno","state":"CA","address":"","name":"Hyatt Place Fresno"},
  {"lat":34.148276,"lon":-118.2574685,"city":"Glendale","state":"CA","address":"","name":"Hyatt Place Glendale / Los Angeles"},
  {"lat":33.9463024,"lon":-118.3882391,"city":"Los Angeles","state":"CA","address":"","name":"Hyatt Place LAX / Century Blvd"},
  {"lat":34.0702638,"lon":-117.5469542,"city":"Ontario","state":"CA","address":"","name":"Hyatt Place Ontario/Rancho Cucamonga"},
  {"lat":34.1449294,"lon":-118.1418907,"city":"Pasadena","state":"CA","address":"","name":"Hyatt Place Pasadena"},
  {"lat":33.9850449,"lon":-117.3733708,"city":"Riverside","state":"CA","address":"","name":"Hyatt Place Riverside/Downtown"},
  {"lat":38.5893896,"lon":-121.285897,"city":"Sacramento","state":"CA","address":"","name":"Hyatt Place Sacramento/Rancho Cordova"},
  {"lat":38.7760665,"lon":-121.2728049,"city":"Sacramento","state":"CA","address":"","name":"Hyatt Place Sacramento/Roseville"},
  {"lat":33.1395244,"lon":-117.2455567,"city":"San Diego","state":"CA","address":"","name":"Hyatt Place San Diego/Vista-Carlsbad"},
  {"lat":37.7788187,"lon":-122.3922762,"city":"San Francisco","state":"CA","address":"","name":"Hyatt Place San Francisco / Downtown"},
  {"lat":37.3735229,"lon":-121.9212502,"city":"San Jose Airport","state":"CA","address":"","name":"Hyatt Place San Jose Airport"},
  {"lat":37.3301079,"lon":-121.8911214,"city":"San Jose","state":"CA","address":"","name":"Hyatt Place San Jose/Downtown"},
  {"lat":34.4401788,"lon":-119.7601391,"city":"Santa Barbara","state":"CA","address":"","name":"Hyatt Place Santa Barbara"},
  {"lat":36.9733306,"lon":-122.0193774,"city":"Santa Cruz","state":"CA","address":"","name":"Hyatt Place Santa Cruz"},
  {"lat":38.535611,"lon":-121.7460875,"city":"Uc Davis","state":"CA","address":"","name":"Hyatt Place UC Davis"},
  {"lat":38.3777596,"lon":-121.9437958,"city":"Vacaville","state":"CA","address":"","name":"Hyatt Place Vacaville"},
  {"lat":32.8707939,"lon":-117.2254819,"city":"La Jolla At Aventine","state":"CA","address":"","name":"Hyatt Regency La Jolla at Aventine"},
  {"lat":33.7631581,"lon":-118.1909521,"city":"Long Beach","state":"CA","address":"","name":"Hyatt Regency Long Beach"},
  {"lat":33.9459969,"lon":-118.3951358,"city":"Los Angeles International Airport","state":"CA","address":"","name":"Hyatt Regency Los Angeles International Airport"},
  {"lat":32.7649055,"lon":-117.2403432,"city":"Mission Bay Spa And Marina","state":"CA","address":"","name":"Hyatt Regency Mission Bay Spa and Marina"},
  {"lat":33.6177949,"lon":-117.8886902,"city":"Newport Beach","state":"CA","address":"","name":"Hyatt Regency Newport Beach"},
  {"lat":33.7895774,"lon":-117.9168452,"city":"Orange County","state":"CA","address":"","name":"Hyatt Regency Orange County"},
  {"lat":38.5777012,"lon":-121.4910356,"city":"Sacramento","state":"CA","address":"","name":"Hyatt Regency Sacramento"},
  {"lat":37.7942471,"lon":-122.3959003,"city":"San Francisco","state":"CA","address":"","name":"Hyatt Regency San Francisco"},
  {"lat":37.5937773,"lon":-122.3653352,"city":"San Francisco Airport","state":"CA","address":"","name":"Hyatt Regency San Francisco Airport"},
  {"lat":37.7865463,"lon":-122.4030879,"city":"San Francisco Downtown Soma","state":"CA","address":"","name":"Hyatt Regency San Francisco Downtown SOMA"},
  {"lat":37.405031,"lon":-121.9763853,"city":"Santa Clara","state":"CA","address":"","name":"Hyatt Regency Santa Clara"},
  {"lat":38.4357828,"lon":-122.7185364,"city":"Sonoma Wine Country","state":"CA","address":"","name":"Hyatt Regency Sonoma Wine Country"},
  {"lat":34.4172048,"lon":-118.5626164,"city":"Valencia","state":"CA","address":"","name":"Hyatt Regency Valencia"},
  {"lat":34.1552334,"lon":-118.8253011,"city":"Westlake","state":"CA","address":"","name":"Hyatt Regency Westlake"},
  {"lat":37.8137856,"lon":-122.2659337,"city":"Kissel Uptown Oakland - In The Unbound Collection","state":"CA","address":"","name":"Kissel Uptown Oakland"},
  {"lat":32.7099011,"lon":-117.1679065,"city":"San Diego","state":"CA","address":"","name":"Manchester Grand Hyatt San Diego"},
  {"lat":34.1575778,"lon":-116.4934487,"city":"Pioneertown Motel","state":"CA","address":"","name":"Pioneertown Motel"},
  {"lat":33.8018802,"lon":-116.5322921,"city":"Sparrows Lodge","state":"CA","address":"","name":"Sparrows Lodge"},
  {"lat":33.8284981,"lon":-116.5302395,"city":"Terra Vita","state":"CA","address":"","name":"Terra Palm Springs"},
  {"lat":32.6816543,"lon":-117.1770497,"city":"The Bower Coronado","state":"CA","address":"","name":"The Bower Coronado"},
  {"lat":38.3998275,"lon":-122.3601258,"city":"The Estate Yountville","state":"CA","address":"","name":"The Estate Yountville"},
  {"lat":34.0356852,"lon":-118.6755544,"city":"Ranch At The Pier","state":"CA","address":"","name":"The Ranch Malibu"},
  {"lat":34.028025,"lon":-118.387391,"city":"The Shay","state":"CA","address":"","name":"The Shay"},
  {"lat":33.829702,"lon":-116.546229,"city":"Palm Springs","state":"CA","address":"","name":"Thompson Palm Springs"},
  {"lat":36.2314183,"lon":-121.7594523,"city":"Ventana Campground","state":"CA","address":"","name":"Ventana Campground"},
  {"lat":39.6417871,"lon":-106.3741111,"city":"Vail","state":"CO","address":"","name":"Austria Haus"},
  {"lat":38.7831077,"lon":-104.823878,"city":"Colorado Springs","state":"CO","address":"","name":"Cheyenne Mountain Resort"},
  {"lat":37.9365791,"lon":-107.8130377,"city":"Dunton","state":"CO","address":"","name":"Dunton Town House"},
  {"lat":39.7457646,"lon":-104.988829,"city":"Denver","state":"CO","address":"","name":"Grand Hyatt Denver"},
  {"lat":39.7480312,"lon":-104.9914806,"city":"Denver","state":"CO","address":"","name":"Hyatt Centric Downtown Denver"},
  {"lat":39.9403062,"lon":-105.124998,"city":"Boulder","state":"CO","address":"","name":"Hyatt House Boulder/Broomfield"},
  {"lat":38.7888941,"lon":-104.7270317,"city":"Colorado Springs","state":"CO","address":"","name":"Hyatt House Colorado Springs Airport"},
  {"lat":39.8265239,"lon":-104.7691887,"city":"Denver","state":"CO","address":"","name":"Hyatt House Denver Airport"},
  {"lat":39.5907574,"lon":-104.87941,"city":"Denver","state":"CO","address":"","name":"Hyatt House Denver Tech Center"},
  {"lat":40.0242054,"lon":-105.2518078,"city":"Boulder","state":"CO","address":"","name":"Hyatt Place Boulder/Pearl Street"},
  {"lat":38.8349769,"lon":-104.8210673,"city":"Colorado Springs","state":"CO","address":"","name":"Hyatt Place Colorado Springs / Downtown"},
  {"lat":38.8947978,"lon":-104.8321392,"city":"Colorado Springs","state":"CO","address":"","name":"Hyatt Place Colorado Springs/Garden of the Gods"},
  {"lat":39.883741,"lon":-105.0733572,"city":"Denver","state":"CO","address":"","name":"Hyatt Place Denver / Westminster"},
  {"lat":39.7722328,"lon":-104.7982448,"city":"Denver","state":"CO","address":"","name":"Hyatt Place Denver Airport"},
  {"lat":39.6235977,"lon":-104.8920478,"city":"Denver","state":"CO","address":"","name":"Hyatt Place Denver Tech Center"},
  {"lat":39.6955313,"lon":-104.938611,"city":"Denver","state":"CO","address":"","name":"Hyatt Place Denver/Cherry Creek"},
  {"lat":39.7415522,"lon":-104.9928978,"city":"Denver","state":"CO","address":"","name":"Hyatt Place Denver/Downtown"},
  {"lat":39.8076924,"lon":-104.780958,"city":"Denver","state":"CO","address":"","name":"Hyatt Place Pena Station / Denver Airport"},
  {"lat":39.7373641,"lon":-104.8351314,"city":"Aurora","state":"CO","address":"","name":"Hyatt Regency Aurora-Denver Conference Center"},
  {"lat":39.7434046,"lon":-104.9936464,"city":"Denver","state":"CO","address":"","name":"Hyatt Regency Denver at Colorado Convention Center"},
  {"lat":39.6303735,"lon":-104.8989443,"city":"Denver","state":"CO","address":"","name":"Hyatt Regency Denver Tech Center"},
  {"lat":39.7498729,"lon":-104.9977884,"city":"Denver","state":"CO","address":"","name":"Thompson Denver"},
  {"lat":39.6360064,"lon":-106.4056308,"city":"Vail","state":"CO","address":"","name":"Vail Residences at Cascade Village"},
  {"lat":41.8701932,"lon":-72.6673719,"city":"Hartford","state":"CT","address":"","name":"Hyatt House Hartford North/Windsor"},
  {"lat":41.2688871,"lon":-73.1270608,"city":"Shelton","state":"CT","address":"","name":"Hyatt House Shelton"},
  {"lat":41.3711203,"lon":-71.9599725,"city":"Mystic","state":"CT","address":"","name":"Hyatt Place Mystic"},
  {"lat":41.0472199,"lon":-73.5674384,"city":"Greenwich","state":"CT","address":"","name":"Hyatt Regency Greenwich"},
  {"lat":38.899398,"lon":-77.0264877,"city":"Washington","state":"DC","address":"","name":"Grand Hyatt Washington"},
  {"lat":38.878548,"lon":-77.024001,"city":"Washington Dc","state":"DC","address":"","name":"Hyatt House Washington DC / The Wharf"},
  {"lat":38.9056264,"lon":-77.0481733,"city":"Washington Dc","state":"DC","address":"","name":"Hyatt Place Washington DC/Georgetown/West End"},
  {"lat":38.9075106,"lon":-77.0077909,"city":"Washington Dc","state":"DC","address":"","name":"Hyatt Place Washington DC/US Capitol"},
  {"lat":38.9021983,"lon":-77.0357112,"city":"Washington Dc","state":"DC","address":"","name":"Hyatt Place Washington DC/White House"},
  {"lat":38.8955157,"lon":-77.0117536,"city":"Washington On Capitol Hill","state":"DC","address":"","name":"Hyatt Regency Washington on Capitol Hill"},
  {"lat":38.9057969,"lon":-77.0510924,"city":"Park Hyatt Washington","state":"DC","address":"","name":"Park Hyatt Washington D.C."},
  {"lat":38.8746602,"lon":-77.0025011,"city":"Thompson Washington D.c.","state":"DC","address":"","name":"Thompson Washington D.C."},
  {"lat":38.6893733,"lon":-75.0751958,"city":"Dewey Beach","state":"DE","address":"","name":"Hyatt Place Dewey Beach"},
  {"lat":39.6836093,"lon":-75.7496099,"city":"Newark","state":"DE","address":"","name":"Hyatt Place Newark / Main Street"},
  {"lat":39.7322331,"lon":-75.561193,"city":"Wilmington","state":"DE","address":"","name":"Hyatt Place Wilmington Riverfront"},
  {"lat":25.8127314,"lon":-80.1223702,"city":"Miami Beach","state":"FL","address":"","name":"Andaz Miami Beach"},
  {"lat":27.965209,"lon":-82.5501194,"city":"Tampa","state":"FL","address":"","name":"Grand Hyatt Tampa Bay"},
  {"lat":25.7610141,"lon":-80.1906291,"city":"Miami","state":"FL","address":"","name":"Hyatt Centric Brickell Miami"},
  {"lat":25.7893993,"lon":-80.1307242,"city":"Miami Beach","state":"FL","address":"","name":"Hyatt Centric South Beach Miami"},
  {"lat":25.7812306,"lon":-80.2897462,"city":"Miami","state":"FL","address":"","name":"Hyatt House Miami Airport"},
  {"lat":26.1412836,"lon":-81.7874079,"city":"Naples","state":"FL","address":"","name":"Hyatt House Naples/5th Avenue"},
  {"lat":27.9569096,"lon":-82.5325306,"city":"Tampa","state":"FL","address":"","name":"Hyatt House Tampa Airport / Westshore"},
  {"lat":29.1614228,"lon":-80.9741374,"city":"Daytona Beach","state":"FL","address":"","name":"Hyatt Place Daytona Beach - Oceanfront"},
  {"lat":26.4639062,"lon":-80.0714224,"city":"Delray Beach","state":"FL","address":"","name":"Hyatt Place Delray Beach"},
  {"lat":26.6328854,"lon":-81.8015775,"city":"Fort Myers","state":"FL","address":"","name":"Hyatt Place Fort Myers/at The Forum"},
  {"lat":29.6499449,"lon":-82.3244827,"city":"Gainesville","state":"FL","address":"","name":"Hyatt Place Gainesville Downtown"},
  {"lat":30.2568192,"lon":-81.530358,"city":"Jacksonville","state":"FL","address":"","name":"Hyatt Place Jacksonville / St. Johns Town Center"},
  {"lat":30.4795394,"lon":-81.6499015,"city":"Jacksonville","state":"FL","address":"","name":"Hyatt Place Jacksonville Airport"},
  {"lat":25.8063461,"lon":-80.2630353,"city":"Miami","state":"FL","address":"","name":"Hyatt Place Miami Airport-East"},
  {"lat":25.8084836,"lon":-80.3277894,"city":"Miami","state":"FL","address":"","name":"Hyatt Place Miami Airport-West/Doral"},
  {"lat":28.461082,"lon":-81.3137977,"city":"Orlando","state":"FL","address":"","name":"Hyatt Place Orlando Airport"},
  {"lat":28.3847952,"lon":-81.5038335,"city":"Orlando","state":"FL","address":"","name":"Hyatt Place Orlando/Lake Buena Vista"},
  {"lat":30.2128007,"lon":-85.8717977,"city":"Panama City Beach","state":"FL","address":"","name":"Hyatt Place Panama City Beach / Beachfront"},
  {"lat":30.4758763,"lon":-87.1965783,"city":"Pensacola","state":"FL","address":"","name":"Hyatt Place Pensacola Airport"},
  {"lat":27.3918188,"lon":-82.4480016,"city":"Sarasota","state":"FL","address":"","name":"Hyatt Place Sarasota / Lakewood Ranch"},
  {"lat":27.9572243,"lon":-82.5259811,"city":"Tampa","state":"FL","address":"","name":"Hyatt Place Tampa Airport/Westshore"},
  {"lat":28.1958047,"lon":-82.3868454,"city":"Wesley Chapel","state":"FL","address":"","name":"Hyatt Place Tampa Wesley Chapel"},
  {"lat":28.0522851,"lon":-82.4277234,"city":"Tampa","state":"FL","address":"","name":"Hyatt Place Tampa/Busch Gardens"},
  {"lat":25.7518791,"lon":-80.2554995,"city":"Coral Gables","state":"FL","address":"","name":"Hyatt Regency Coral Gables"},
  {"lat":30.3243709,"lon":-81.6559505,"city":"Jacksonville","state":"FL","address":"","name":"Hyatt Regency Jacksonville Riverfront"},
  {"lat":25.7706845,"lon":-80.19052,"city":"Miami","state":"FL","address":"","name":"Hyatt Regency Miami"},
  {"lat":28.4270775,"lon":-81.4666092,"city":"Orlando","state":"FL","address":"","name":"Hyatt Regency Orlando"},
  {"lat":28.431332,"lon":-81.3062854,"city":"Orlando","state":"FL","address":"","name":"Hyatt Regency Orlando International Airport"},
  {"lat":32.0808406,"lon":-81.0932075,"city":"Savannah","state":"GA","address":"","name":"Andaz Savannah"},
  {"lat":33.8438488,"lon":-84.3622754,"city":"Atlanta","state":"GA","address":"","name":"Hyatt Centric Buckhead Atlanta"},
  {"lat":33.7814211,"lon":-84.3829521,"city":"Atlanta","state":"GA","address":"","name":"Hyatt Centric Midtown Atlanta"},
  {"lat":33.9120504,"lon":-84.352543,"city":"Atlanta","state":"GA","address":"","name":"Hyatt House Atlanta / Perimeter Center"},
  {"lat":33.8829635,"lon":-84.4535145,"city":"Atlanta","state":"GA","address":"","name":"Hyatt House Atlanta/Cobb Galleria"},
  {"lat":33.7647522,"lon":-84.3970728,"city":"Atlanta","state":"GA","address":"","name":"Hyatt House Atlanta/Downtown"},
  {"lat":33.4778106,"lon":-81.9745633,"city":"Augusta","state":"GA","address":"","name":"Hyatt House Augusta / Downtown"},
  {"lat":33.7625049,"lon":-84.3959562,"city":"Atlanta","state":"GA","address":"","name":"Hyatt Place Atlanta / Centennial Park"},
  {"lat":33.9213706,"lon":-84.3427274,"city":"Atlanta","state":"GA","address":"","name":"Hyatt Place Atlanta / Perimeter Center"},
  {"lat":33.6619273,"lon":-84.4290487,"city":"Atlanta","state":"GA","address":"","name":"Hyatt Place Atlanta Airport-North"},
  {"lat":33.6271547,"lon":-84.4527095,"city":"Atlanta","state":"GA","address":"","name":"Hyatt Place Atlanta Airport-South"},
  {"lat":33.8437275,"lon":-84.3724159,"city":"Atlanta","state":"GA","address":"","name":"Hyatt Place Atlanta/Buckhead"},
  {"lat":33.8820442,"lon":-84.4736507,"city":"Atlanta","state":"GA","address":"","name":"Hyatt Place Atlanta/Cobb Galleria"},
  {"lat":33.763532,"lon":-84.3869936,"city":"Atlanta","state":"GA","address":"","name":"Hyatt Place Atlanta/Downtown"},
  {"lat":33.9667038,"lon":-84.2217705,"city":"Atlanta","state":"GA","address":"","name":"Hyatt Place Atlanta/Norcross/Peachtree"},
  {"lat":33.4901554,"lon":-82.107571,"city":"Augusta","state":"GA","address":"","name":"Hyatt Place Augusta"},
  {"lat":32.5512764,"lon":-84.946703,"city":"Columbus","state":"GA","address":"","name":"Hyatt Place Columbus-North"},
  {"lat":33.7616304,"lon":-84.3866362,"city":"Atlanta","state":"GA","address":"","name":"Hyatt Regency Atlanta"},
  {"lat":32.0817732,"lon":-81.0915678,"city":"Savannah","state":"GA","address":"","name":"Hyatt Regency Savannah"},
  {"lat":32.0590972,"lon":-81.1142787,"city":"Savannah","state":"GA","address":"","name":"Thompson Savannah"},
  {"lat":21.2731609,"lon":-157.8213432,"city":"Honolulu","state":"HI","address":"","name":"Hyatt Place Waikiki Beach"},
  {"lat":43.6188406,"lon":-116.2048254,"city":"Boise","state":"ID","address":"","name":"Hyatt Place Boise/Downtown"},
  {"lat":43.6131891,"lon":-116.2852638,"city":"Boise","state":"ID","address":"","name":"Hyatt Place Boise/Towne Square"},
  {"lat":41.8937576,"lon":-87.6223591,"city":"Chicago","state":"IL","address":"","name":"Hyatt Centric Chicago Magnificent Mile"},
  {"lat":41.8809261,"lon":-87.6311731,"city":"Chicago","state":"IL","address":"","name":"Hyatt Centric The Loop Chicago"},
  {"lat":41.8738519,"lon":-87.6720105,"city":"Chicago","state":"IL","address":"","name":"Hyatt House Chicago - Medical / University District"},
  {"lat":41.8832667,"lon":-87.6552347,"city":"Chicago","state":"IL","address":"","name":"Hyatt House Chicago / West Loop-Fulton Market"},
  {"lat":42.0455168,"lon":-87.6794851,"city":"Chicago","state":"IL","address":"","name":"Hyatt House Chicago/Evanston"},
  {"lat":42.047004,"lon":-88.0487972,"city":"Chicago","state":"IL","address":"","name":"Hyatt House Chicago/Schaumburg"},
  {"lat":41.520792,"lon":-90.4566134,"city":"East Moline","state":"IL","address":"","name":"Hyatt House East Moline / Quad Cities"},
  {"lat":41.8738557,"lon":-87.6733362,"city":"Chicago","state":"IL","address":"","name":"Hyatt Place Chicago - Medical / University District"},
  {"lat":41.9103975,"lon":-87.667308,"city":"Chicago","state":"IL","address":"","name":"Hyatt Place Chicago / Wicker Park"},
  {"lat":41.8001503,"lon":-87.5886098,"city":"Chicago","state":"IL","address":"","name":"Hyatt Place Chicago-South/University Medical Center"},
  {"lat":41.8827773,"lon":-87.6356486,"city":"Chicago","state":"IL","address":"","name":"Hyatt Place Chicago/Downtown-The Loop"},
  {"lat":41.7726278,"lon":-87.7469454,"city":"Chicago","state":"IL","address":"","name":"Hyatt Place Chicago/Midway Airport"},
  {"lat":42.0025058,"lon":-87.8852851,"city":"Chicago","state":"IL","address":"","name":"Hyatt Place Chicago/O'Hare Airport"},
  {"lat":41.8911872,"lon":-87.6309174,"city":"Chicago","state":"IL","address":"","name":"Hyatt Place Chicago/River North"},
  {"lat":42.0540704,"lon":-88.0319884,"city":"Chicago","state":"IL","address":"","name":"Hyatt Place Chicago/Schaumburg"},
  {"lat":41.8874806,"lon":-87.6228364,"city":"Chicago","state":"IL","address":"","name":"Hyatt Regency Chicago"},
  {"lat":42.1539383,"lon":-87.8707412,"city":"Deerfield","state":"IL","address":"","name":"Hyatt Regency Deerfield"},
  {"lat":41.8972351,"lon":-87.6252667,"city":"Chicago","state":"IL","address":"","name":"Park Hyatt Chicago"},
  {"lat":41.9013573,"lon":-87.6274661,"city":"Chicago","state":"IL","address":"","name":"Thompson Chicago"},
  {"lat":39.7647307,"lon":-86.156708,"city":"Indianapolis","state":"IN","address":"","name":"Hyatt House Indianapolis / Downtown"},
  {"lat":39.1659912,"lon":-86.5358085,"city":"Bloomington","state":"IN","address":"","name":"Hyatt Place Bloomington"},
  {"lat":37.9683825,"lon":-87.5712545,"city":"Evansville","state":"IN","address":"","name":"Hyatt Place Evansville / Downtown"},
  {"lat":39.9636403,"lon":-86.1590543,"city":"Indianapolis","state":"IN","address":"","name":"Hyatt Place Indianapolis / Carmel"},
  {"lat":39.7646104,"lon":-86.1567551,"city":"Indianapolis","state":"IN","address":"","name":"Hyatt Place Indianapolis / Downtown"},
  {"lat":39.7318533,"lon":-86.253584,"city":"Indianapolis","state":"IN","address":"","name":"Hyatt Place Indianapolis Airport"},
  {"lat":41.5431789,"lon":-87.5110094,"city":"Munster","state":"IN","address":"","name":"Hyatt Place Munster"},
  {"lat":41.6965493,"lon":-86.1842713,"city":"South Bend","state":"IN","address":"","name":"Hyatt Place South Bend/Mishawaka"},
  {"lat":39.7664704,"lon":-86.1608191,"city":"Indianapolis","state":"IN","address":"","name":"Hyatt Regency Indianapolis"},
  {"lat":41.6540524,"lon":-93.5147211,"city":"Altoona","state":"IA","address":"","name":"Hyatt Place Altoona / Des Moines"},
  {"lat":41.5873447,"lon":-93.6253827,"city":"Des Moines","state":"IA","address":"","name":"Hyatt Place Des Moines/Downtown"},
  {"lat":41.6562334,"lon":-91.5322803,"city":"Iowa City","state":"IA","address":"","name":"Hyatt Place Iowa City Downtown"},
  {"lat":41.5664388,"lon":-93.7973836,"city":"West Des Moines","state":"IA","address":"","name":"Hyatt Place West Des Moines/Jordan Creek"},
  {"lat":38.9689734,"lon":-94.7776748,"city":"Kansas City","state":"KS","address":"","name":"Hyatt Place Kansas City/Lenexa City Center"},
  {"lat":38.929693,"lon":-94.6437307,"city":"Kansas City","state":"KS","address":"","name":"Hyatt Place Kansas City/Overland Park/Convention Center"},
  {"lat":38.9225808,"lon":-94.6652604,"city":"Kansas City","state":"KS","address":"","name":"Hyatt Place Kansas City/Overland Park/Metcalf"},
  {"lat":39.0553657,"lon":-95.7635529,"city":"Topeka","state":"KS","address":"","name":"Hyatt Place Topeka"},
  {"lat":37.6827664,"lon":-97.34136,"city":"Wichita","state":"KS","address":"","name":"Hyatt Regency Wichita"},
  {"lat":38.0190353,"lon":-84.410679,"city":"Lexington","state":"KY","address":"","name":"Hyatt Place Lexington"},
  {"lat":38.2366252,"lon":-85.5759585,"city":"Louisville","state":"KY","address":"","name":"Hyatt Place Louisville-East"},
  {"lat":38.0482876,"lon":-84.5018047,"city":"Lexington","state":"KY","address":"","name":"Hyatt Regency Lexington"},
  {"lat":38.2533997,"lon":-85.7564471,"city":"Louisville","state":"KY","address":"","name":"Hyatt Regency Louisville"},
  {"lat":29.9546929,"lon":-90.0693646,"city":"New Orleans","state":"LA","address":"","name":"Hyatt Centric French Quarter New Orleans"},
  {"lat":29.9504324,"lon":-90.0769488,"city":"New Orleans","state":"LA","address":"","name":"Hyatt House New Orleans/Downtown"},
  {"lat":30.3944547,"lon":-91.0881934,"city":"Baton Rouge","state":"LA","address":"","name":"Hyatt Place Baton Rouge/I-10"},
  {"lat":29.9425384,"lon":-90.0649238,"city":"New Orleans","state":"LA","address":"","name":"Hyatt Place New Orleans/Convention Center"},
  {"lat":29.9495472,"lon":-90.0772736,"city":"New Orleans","state":"LA","address":"","name":"Hyatt Regency New Orleans"},
  {"lat":39.2079395,"lon":-76.6778396,"city":"Baltimore","state":"MD","address":"","name":"Hyatt Place Baltimore/BWI Airport"},
  {"lat":39.2846638,"lon":-76.5986688,"city":"Baltimore","state":"MD","address":"","name":"Hyatt Place Baltimore/Inner Harbor"},
  {"lat":39.4017825,"lon":-76.7845795,"city":"Baltimore","state":"MD","address":"","name":"Hyatt Place Baltimore/Owings Mills"},
  {"lat":38.7857146,"lon":-77.0158068,"city":"National Harbor","state":"MD","address":"","name":"Hyatt Place National Harbor"},
  {"lat":38.3454552,"lon":-75.0778644,"city":"Ocean City","state":"MD","address":"","name":"Hyatt Place Ocean City / Oceanfront"},
  {"lat":39.2848961,"lon":-76.6141138,"city":"Baltimore","state":"MD","address":"","name":"Hyatt Regency Baltimore Inner Harbor"},
  {"lat":38.9850791,"lon":-77.0952986,"city":"Bethesda","state":"MD","address":"","name":"Hyatt Regency Bethesda"},
  {"lat":42.4829372,"lon":-71.1960733,"city":"Boston","state":"MA","address":"","name":"Hyatt House Boston/Burlington"},
  {"lat":42.347301,"lon":-71.0369291,"city":"Boston","state":"MA","address":"","name":"Hyatt Place Boston / Seaport District"},
  {"lat":42.4170903,"lon":-71.1050818,"city":"Boston","state":"MA","address":"","name":"Hyatt Place Boston/Medford"},
  {"lat":42.3372763,"lon":-71.5915917,"city":"Marlborough","state":"MA","address":"","name":"Hyatt Place Marlborough / Apex Center"},
  {"lat":42.3538346,"lon":-71.0603394,"city":"Boston","state":"MA","address":"","name":"Hyatt Regency Boston"},
  {"lat":42.3540964,"lon":-71.1054261,"city":"Boston","state":"MA","address":"","name":"Hyatt Regency Boston / Cambridge"},
  {"lat":42.3592082,"lon":-71.0272124,"city":"Boston","state":"MA","address":"","name":"Hyatt Regency Boston Harbor"},
  {"lat":42.240813,"lon":-83.7377921,"city":"Ann Arbor","state":"MI","address":"","name":"Hyatt Place Ann Arbor"},
  {"lat":42.4891664,"lon":-83.5006338,"city":"Detroit","state":"MI","address":"","name":"Hyatt Place Detroit/Novi"},
  {"lat":42.6293776,"lon":-83.0106268,"city":"Detroit","state":"MI","address":"","name":"Hyatt Place Detroit/Utica"},
  {"lat":42.944761,"lon":-83.7256306,"city":"Flint","state":"MI","address":"","name":"Hyatt Place Flint / Grand Blanc"},
  {"lat":42.8542724,"lon":-85.7171455,"city":"Grand Rapids","state":"MI","address":"","name":"Hyatt Place Grand Rapids-South"},
  {"lat":42.9666339,"lon":-85.669829,"city":"Grand Rapids","state":"MI","address":"","name":"Hyatt Place Grand Rapids/Downtown"},
  {"lat":42.3357243,"lon":-83.0486175,"city":"Detroit","state":"MI","address":"","name":"The Siren"},
  {"lat":44.976019,"lon":-93.2688937,"city":"Minneapolis","state":"MN","address":"","name":"Hyatt Centric Downtown Minneapolis"},
  {"lat":44.0267747,"lon":-92.4650354,"city":"Rochester","state":"MN","address":"","name":"Hyatt House Rochester / Mayo Clinic Area"},
  {"lat":44.8609244,"lon":-93.226943,"city":"Minneapolis","state":"MN","address":"","name":"Hyatt Place Minneapolis Airport-South"},
  {"lat":44.9740555,"lon":-93.2660003,"city":"Minneapolis","state":"MN","address":"","name":"Hyatt Place Minneapolis/Downtown"},
  {"lat":44.9466007,"lon":-93.0873675,"city":"St. Paul","state":"MN","address":"","name":"Hyatt Place St. Paul/Downtown"},
  {"lat":44.8576377,"lon":-93.2261517,"city":"Bloomington","state":"MN","address":"","name":"Hyatt Regency Bloomington - Minneapolis"},
  {"lat":44.9710301,"lon":-93.2778937,"city":"Minneapolis","state":"MN","address":"","name":"Hyatt Regency Minneapolis"},
  {"lat":30.3958335,"lon":-88.9061122,"city":"Biloxi","state":"MS","address":"","name":"Hyatt Place Biloxi"},
  {"lat":33.5232977,"lon":-88.4380578,"city":"Columbus","state":"MS","address":"","name":"Hyatt Place Columbus"},
  {"lat":32.4371286,"lon":-90.1454536,"city":"Jackson","state":"MS","address":"","name":"Hyatt Place Jackson/Ridgeland"},
  {"lat":45.7613864,"lon":-111.1685102,"city":"Bozeman","state":"MT","address":"","name":"Hyatt Place Bozeman Yellowstone Airport"},
  {"lat":36.1069641,"lon":-115.1507835,"city":"Las Vegas","state":"NV","address":"","name":"Hyatt Place Las Vegas"},
  {"lat":36.0377122,"lon":-115.1829197,"city":"Las Vegas","state":"NV","address":"","name":"Hyatt Place Las Vegas at Silverton Village"},
  {"lat":39.5043658,"lon":-119.7796008,"city":"Reno","state":"NV","address":"","name":"Hyatt Place Reno-Tahoe Airport"},
  {"lat":36.1175311,"lon":-115.1882831,"city":"Las Vegas","state":"NV","address":"","name":"Rio Hotel & Casino"},
  {"lat":36.1241843,"lon":-115.168271,"city":"Las Vegas","state":"NV","address":"","name":"The Palazzo"},
  {"lat":36.1217073,"lon":-115.1693352,"city":"Las Vegas","state":"NV","address":"","name":"The Venetian"},
  {"lat":43.0740037,"lon":-70.7599863,"city":"Portsmouth","state":"NH","address":"","name":"The Hotel Portsmouth"},
  {"lat":40.2219886,"lon":-74.000604,"city":"Asbury Park","state":"NJ","address":"","name":"Asbury Ocean Club"},
  {"lat":40.7159431,"lon":-74.0338805,"city":"Jersey City","state":"NJ","address":"","name":"Hyatt House Jersey City"},
  {"lat":40.7923234,"lon":-74.433479,"city":"Morristown","state":"NJ","address":"","name":"Hyatt House Morristown"},
  {"lat":39.9161719,"lon":-74.9480413,"city":"Hyatt House Mt. Laurel","state":"NJ","address":"","name":"Hyatt House Mt. Laurel"},
  {"lat":40.83722,"lon":-74.4422887,"city":"Parsippany","state":"NJ","address":"","name":"Hyatt House Parsippany/Whippany"},
  {"lat":39.9153613,"lon":-74.9456977,"city":"Hyatt Place Mt. Laurel","state":"NJ","address":"","name":"Hyatt Place Mt. Laurel"},
  {"lat":40.3169856,"lon":-74.6588998,"city":"Princeton","state":"NJ","address":"","name":"Hyatt Place Princeton"},
  {"lat":40.7170991,"lon":-74.0319724,"city":"Jersey City On The Hudson","state":"NJ","address":"","name":"Hyatt Regency Jersey City on the Hudson"},
  {"lat":40.8000906,"lon":-74.48089,"city":"Morristown","state":"NJ","address":"","name":"Hyatt Regency Morristown"},
  {"lat":40.4962978,"lon":-74.4410379,"city":"New Brunswick","state":"NJ","address":"","name":"Hyatt Regency New Brunswick"},
  {"lat":40.3238675,"lon":-74.6443762,"city":"Princeton","state":"NJ","address":"","name":"Hyatt Regency Princeton"},
  {"lat":40.2838508,"lon":-74.0792782,"city":"Latitude Suites","state":"NJ","address":"","name":"Latitude Suites Tinton Falls"},
  {"lat":40.2236053,"lon":-74.0016736,"city":"Asbury Park","state":"NJ","address":"","name":"The Asbury Hotel"},
  {"lat":32.3719937,"lon":-104.2323015,"city":"Carlsbad","state":"NM","address":"","name":"Hyatt House Carlsbad"},
  {"lat":35.0486677,"lon":-106.6330122,"city":"Albuquerque","state":"NM","address":"","name":"Hyatt Place Albuquerque Airport"},
  {"lat":35.104948,"lon":-106.5675706,"city":"Albuquerque","state":"NM","address":"","name":"Hyatt Place Albuquerque/Uptown"},
  {"lat":35.6330329,"lon":-106.0194497,"city":"Santa Fe","state":"NM","address":"","name":"Hyatt Place Santa Fe"},
  {"lat":42.2519287,"lon":-73.8882596,"city":"Camptown","state":"NY","address":"","name":"Camptown"},
  {"lat":40.7422931,"lon":-74.0033026,"city":"Dream Downtown","state":"NY","address":"","name":"Dream Downtown"},
  {"lat":40.7644265,"lon":-73.9818673,"city":"Dream Midtown","state":"NY","address":"","name":"Dream Midtown"},
  {"lat":40.7520347,"lon":-73.9839014,"city":"Grayson","state":"NY","address":"","name":"Grayson Hotel"},
  {"lat":41.0947543,"lon":-73.9309626,"city":"Nyack","state":"NY","address":"","name":"Hotel Nyack"},
  {"lat":40.757572,"lon":-73.9840223,"city":"New York","state":"NY","address":"","name":"Hyatt Centric Times Square New York"},
  {"lat":40.7050392,"lon":-74.0078925,"city":"New York","state":"NY","address":"","name":"Hyatt Centric Wall Street New York"},
  {"lat":40.7469877,"lon":-73.9876783,"city":"New York","state":"NY","address":"","name":"Hyatt Herald Square New York"},
  {"lat":41.5283352,"lon":-73.8970244,"city":"Fishkill","state":"NY","address":"","name":"Hyatt House Fishkill/Poughkeepsie"},
  {"lat":40.746287,"lon":-73.9906998,"city":"New York","state":"NY","address":"","name":"Hyatt House New York/Chelsea"},
  {"lat":41.0200692,"lon":-73.7239565,"city":"White Plains","state":"NY","address":"","name":"Hyatt House White Plains"},
  {"lat":42.6546051,"lon":-73.7475881,"city":"Albany","state":"NY","address":"","name":"Hyatt Place Albany/Downtown"},
  {"lat":42.9607834,"lon":-78.7696464,"city":"Buffalo","state":"NY","address":"","name":"Hyatt Place Buffalo/Amherst"},
  {"lat":40.7413916,"lon":-73.608664,"city":"Garden City","state":"NY","address":"","name":"Hyatt Place Garden City"},
  {"lat":40.7481459,"lon":-73.9412459,"city":"Long Island City","state":"NY","address":"","name":"Hyatt Place Long Island City / New York City"},
  {"lat":40.7441508,"lon":-73.9943165,"city":"New York","state":"NY","address":"","name":"Hyatt Place New York / Chelsea"},
  {"lat":40.7503971,"lon":-73.9858178,"city":"New York","state":"NY","address":"","name":"Hyatt Place New York/Midtown-South"},
  {"lat":40.9055429,"lon":-73.8626409,"city":"New York","state":"NY","address":"","name":"Hyatt Place New York/Yonkers"},
  {"lat":43.0865313,"lon":-79.063406,"city":"Niagara Falls","state":"NY","address":"","name":"Hyatt Place Niagara Falls"},
  {"lat":42.9691922,"lon":-73.8040835,"city":"Saratoga","state":"NY","address":"","name":"Hyatt Place Saratoga/Malta"},
  {"lat":40.8152329,"lon":-73.1711959,"city":"Long Island","state":"NY","address":"","name":"Hyatt Regency Long Island"},
  {"lat":43.1564165,"lon":-77.6082342,"city":"Rochester","state":"NY","address":"","name":"Hyatt Regency Rochester"},
  {"lat":40.7605958,"lon":-73.9851252,"city":"Times Square","state":"NY","address":"","name":"Hyatt Regency Times Square"},
  {"lat":40.7334345,"lon":-73.9902118,"city":"New York","state":"NY","address":"","name":"Hyatt Union Square New York"},
  {"lat":40.7654216,"lon":-73.9793143,"city":"New York","state":"NY","address":"","name":"Park Hyatt New York"},
  {"lat":41.0966522,"lon":-72.3957951,"city":"Sound View Greenport","state":"NY","address":"","name":"Sound View Greenport"},
  {"lat":40.7564397,"lon":-73.9846261,"city":"The Chatwal","state":"NY","address":"","name":"The Chatwal"},
  {"lat":42.8744207,"lon":-77.2742877,"city":"The Lake House On Canandaigua","state":"NY","address":"","name":"The Lake House on Canandaigua"},
  {"lat":40.727873,"lon":-73.9907388,"city":"The Standard","state":"NY","address":"","name":"The Standard, East Village"},
  {"lat":40.7408822,"lon":-74.0079129,"city":"The Standard Ice Rink","state":"NY","address":"","name":"The Standard, High Line"},
  {"lat":41.3960711,"lon":-74.3255541,"city":"Good Time Park","state":"NY","address":"","name":"The Time New York"},
  {"lat":40.7643285,"lon":-73.978572,"city":"New York","state":"NY","address":"","name":"Thompson Central Park New York"},
  {"lat":35.1505496,"lon":-80.8265891,"city":"Charlotte","state":"NC","address":"","name":"Hyatt Centric Charlotte SouthPark"},
  {"lat":35.224188,"lon":-80.8390534,"city":"Charlotte","state":"NC","address":"","name":"Hyatt House Charlotte/Center City"},
  {"lat":35.8955711,"lon":-78.8064774,"city":"Raleigh","state":"NC","address":"","name":"Hyatt House Raleigh / RDU / Brier Creek"},
  {"lat":35.7885737,"lon":-78.6393777,"city":"Raleigh","state":"NC","address":"","name":"Hyatt House Raleigh Downtown / Seaboard Station"},
  {"lat":35.8550477,"lon":-78.8406342,"city":"Raleigh","state":"NC","address":"","name":"Hyatt House Raleigh Durham Airport"},
  {"lat":35.8364217,"lon":-78.6380836,"city":"Raleigh","state":"NC","address":"","name":"Hyatt House Raleigh North Hills"},
  {"lat":35.1821838,"lon":-80.9191548,"city":"Charlotte","state":"NC","address":"","name":"Hyatt Place Charlotte Airport/Lake Pointe"},
  {"lat":35.2225828,"lon":-80.8410943,"city":"Charlotte","state":"NC","address":"","name":"Hyatt Place Charlotte Downtown"},
  {"lat":35.1358031,"lon":-80.9044309,"city":"Charlotte","state":"NC","address":"","name":"Hyatt Place Charlotte/Arrowood"},
  {"lat":35.9007479,"lon":-78.9615086,"city":"Durham","state":"NC","address":"","name":"Hyatt Place Durham/Southpoint"},
  {"lat":36.0758507,"lon":-79.7934015,"city":"Greensboro","state":"NC","address":"","name":"Hyatt Place Greensboro"},
  {"lat":35.8648141,"lon":-78.8145507,"city":"Raleigh","state":"NC","address":"","name":"Hyatt Place Raleigh-Durham Airport"},
  {"lat":48.2613388,"lon":-101.3334687,"city":"Minot","state":"ND","address":"","name":"Hyatt House Minot"},
  {"lat":40.8602453,"lon":-81.4232205,"city":"Canton","state":"OH","address":"","name":"Hyatt Place Canton"},
  {"lat":39.2761749,"lon":-84.37561,"city":"Cincinnati","state":"OH","address":"","name":"Hyatt Place Cincinnati/Blue Ash"},
  {"lat":41.5041554,"lon":-81.5018486,"city":"Cleveland","state":"OH","address":"","name":"Hyatt Place Cleveland/Lyndhurst/Legacy Village"},
  {"lat":41.4614089,"lon":-81.9511926,"city":"Cleveland","state":"OH","address":"","name":"Hyatt Place Cleveland/Westlake/Crocker Park"},
  {"lat":40.0779434,"lon":-83.1346355,"city":"Columbus","state":"OH","address":"","name":"Hyatt Place Columbus/Dublin"},
  {"lat":40.1159458,"lon":-83.0136129,"city":"Columbus","state":"OH","address":"","name":"Hyatt Place Columbus/Worthington"},
  {"lat":39.1003013,"lon":-84.5156156,"city":"Cincinnati","state":"OH","address":"","name":"Hyatt Regency Cincinnati"},
  {"lat":41.5007579,"lon":-81.6907516,"city":"Cleveland","state":"OH","address":"","name":"Hyatt Regency Cleveland at The Arcade"},
  {"lat":39.9697344,"lon":-83.0014829,"city":"Columbus","state":"OH","address":"","name":"Hyatt Regency Columbus"},
  {"lat":35.4671828,"lon":-97.5057362,"city":"Oklahoma City","state":"OK","address":"","name":"Hyatt Place Oklahoma City / Bricktown"},
  {"lat":36.1525906,"lon":-95.989499,"city":"Tulsa","state":"OK","address":"","name":"Hyatt Place Tulsa / Downtown"},
  {"lat":45.5208334,"lon":-122.6832169,"city":"Portland","state":"OR","address":"","name":"Hyatt Centric Downtown Portland"},
  {"lat":45.4905057,"lon":-122.808608,"city":"Portland","state":"OR","address":"","name":"Hyatt House Portland / Beaverton"},
  {"lat":45.5074294,"lon":-122.6736237,"city":"Portland","state":"OR","address":"","name":"Hyatt House Portland/Downtown"},
  {"lat":44.0663837,"lon":-123.0778425,"city":"Eugene","state":"OR","address":"","name":"Hyatt Place Eugene / Oakway Center"},
  {"lat":45.5739675,"lon":-122.5626964,"city":"Portland","state":"OR","address":"","name":"Hyatt Place Portland Airport/Cascade Station"},
  {"lat":39.9492302,"lon":-75.1687187,"city":"Philadelphia","state":"PA","address":"","name":"Hyatt Centric Center City Philadelphia"},
  {"lat":40.0927356,"lon":-75.3932848,"city":"Philadelphia","state":"PA","address":"","name":"Hyatt House Philadelphia/King of Prussia"},
  {"lat":40.1381985,"lon":-75.3045004,"city":"Philadelphia","state":"PA","address":"","name":"Hyatt House Philadelphia/Plymouth Meeting"},
  {"lat":40.4283416,"lon":-79.9641115,"city":"Pittsburgh","state":"PA","address":"","name":"Hyatt House Pittsburgh-South Side"},
  {"lat":40.456939,"lon":-79.9392804,"city":"Pittsburgh","state":"PA","address":"","name":"Hyatt House Pittsburgh/Bloomfield/Shadyside"},
  {"lat":40.5629281,"lon":-75.5821633,"city":"Allentown","state":"PA","address":"","name":"Hyatt Place Allentown / Lehigh Valley"},
  {"lat":40.6233765,"lon":-75.3800371,"city":"Bethlehem","state":"PA","address":"","name":"Hyatt Place Bethlehem"},
  {"lat":40.4466774,"lon":-80.009022,"city":"Pittsburgh","state":"PA","address":"","name":"Hyatt Place Pittsburgh-North Shore"},
  {"lat":40.7923883,"lon":-77.862121,"city":"State College","state":"PA","address":"","name":"Hyatt Place State College"},
  {"lat":40.4963245,"lon":-80.2599138,"city":"Pittsburgh","state":"PA","address":"","name":"Hyatt Regency Pittsburgh International Airport"},
  {"lat":18.4566116,"lon":-66.0878155,"city":"San Juan","state":"PR","address":"","name":"Hyatt House San Juan"},
  {"lat":18.4082468,"lon":-66.1597563,"city":"Bayamon","state":"PR","address":"","name":"Hyatt Place Bayamon"},
  {"lat":18.4333448,"lon":-66.4765395,"city":"Manati","state":"PR","address":"","name":"Hyatt Place Manati"},
  {"lat":18.455512,"lon":-66.088187,"city":"San Juan","state":"PR","address":"","name":"Hyatt Place San Juan"},
  {"lat":18.4177536,"lon":-65.7941501,"city":"Grand Reserve Puerto Rico","state":"PR","address":"","name":"Hyatt Regency Grand Reserve Puerto Rico"},
  {"lat":18.4743286,"lon":-66.3204525,"city":"Hyatt Vacation Club At Hacienda Del Mar","state":"PR","address":"","name":"Hyatt Vacation Club at Hacienda del Mar"},
  {"lat":41.7266709,"lon":-71.4433472,"city":"Warwick","state":"RI","address":"","name":"Hyatt Place Warwick Providence Airport"},
  {"lat":32.8161603,"lon":-79.8409012,"city":"Charleston","state":"SC","address":"","name":"Hyatt House Charleston / Mount Pleasant"},
  {"lat":32.7930812,"lon":-79.9406916,"city":"Charleston","state":"SC","address":"","name":"Hyatt House Charleston/Historic District"},
  {"lat":32.7930445,"lon":-79.9402443,"city":"Charleston","state":"SC","address":"","name":"Hyatt Place Charleston/Historic District"},
  {"lat":33.9997066,"lon":-81.0392512,"city":"Columbia","state":"SC","address":"","name":"Hyatt Place Columbia/Downtown/The Vista"},
  {"lat":34.091581,"lon":-81.1632899,"city":"Columbia","state":"SC","address":"","name":"Hyatt Place Columbia/Harbison"},
  {"lat":34.1971056,"lon":-79.7656517,"city":"Florence","state":"SC","address":"","name":"Hyatt Place Florence / Downtown"},
  {"lat":32.9319792,"lon":-80.0479332,"city":"North Charleston","state":"SC","address":"","name":"Hyatt Place North Charleston"},
  {"lat":33.9210301,"lon":-80.3421298,"city":"Sumter","state":"SC","address":"","name":"Hyatt Place Sumter / Downtown"},
  {"lat":34.8532307,"lon":-82.3970533,"city":"Greenville","state":"SC","address":"","name":"Hyatt Regency Greenville"},
  {"lat":43.5246192,"lon":-96.7880067,"city":"Sioux Falls","state":"SD","address":"","name":"Hyatt Place Sioux Falls - South"},
  {"lat":36.1583158,"lon":-86.7849488,"city":"Nashville","state":"TN","address":"","name":"Grand Hyatt Nashville"},
  {"lat":35.9390013,"lon":-86.8228849,"city":"Nashville","state":"TN","address":"","name":"Hyatt House Nashville / Franklin - Cool Springs"},
  {"lat":35.0463018,"lon":-89.7576924,"city":"Memphis","state":"TN","address":"","name":"Hyatt Place Memphis/Germantown"},
  {"lat":35.0985922,"lon":-89.8617179,"city":"Memphis","state":"TN","address":"","name":"Hyatt Place Memphis/Primacy Parkway"},
  {"lat":35.1961039,"lon":-89.7973728,"city":"Memphis","state":"TN","address":"","name":"Hyatt Place Memphis/Wolfchase Galleria"},
  {"lat":35.856651,"lon":-86.434173,"city":"Murfreesboro","state":"TN","address":"","name":"Hyatt Place Murfreesboro"},
  {"lat":36.1079357,"lon":-86.820257,"city":"Nashville","state":"TN","address":"","name":"Hyatt Place Nashville / Green Hills"},
  {"lat":36.3127166,"lon":-86.5966412,"city":"Nashville","state":"TN","address":"","name":"Hyatt Place Nashville/Hendersonville"},
  {"lat":36.2208074,"lon":-86.6962914,"city":"Nashville","state":"TN","address":"","name":"Hyatt Place Nashville/Opryland"},
  {"lat":36.1524451,"lon":-86.7840838,"city":"Nashville","state":"TN","address":"","name":"Thompson Nashville"},
  {"lat":32.8974353,"lon":-97.044455,"city":"Dallas","state":"TX","address":"","name":"Grand Hyatt DFW"},
  {"lat":30.1634197,"lon":-95.4646753,"city":"The Woodlands","state":"TX","address":"","name":"Hyatt Centric The Woodlands"},
  {"lat":30.6640814,"lon":-96.3239505,"city":"Bryan","state":"TX","address":"","name":"Hyatt House Bryan / College Station"},
  {"lat":32.9565724,"lon":-96.8280687,"city":"Dallas","state":"TX","address":"","name":"Hyatt House Dallas/Addison"},
  {"lat":33.1020305,"lon":-96.8171334,"city":"Dallas","state":"TX","address":"","name":"Hyatt House Dallas/Frisco"},
  {"lat":32.8928658,"lon":-96.9619437,"city":"Dallas","state":"TX","address":"","name":"Hyatt House Dallas/Las Colinas"},
  {"lat":32.8624502,"lon":-96.771284,"city":"Dallas","state":"TX","address":"","name":"Hyatt House Dallas/Lincoln Park"},
  {"lat":32.7949873,"lon":-96.8102371,"city":"Dallas","state":"TX","address":"","name":"Hyatt House Dallas/Uptown"},
  {"lat":29.7292523,"lon":-95.4679032,"city":"Houston","state":"TX","address":"","name":"Hyatt House Houston/Galleria"},
  {"lat":35.1897754,"lon":-101.9406036,"city":"Amarillo","state":"TX","address":"","name":"Hyatt Place Amarillo - West"},
  {"lat":30.4052982,"lon":-97.8544351,"city":"Austin","state":"TX","address":"","name":"Hyatt Place Austin / Lake Travis / Four Points"},
  {"lat":30.4820208,"lon":-97.6873104,"city":"Austin","state":"TX","address":"","name":"Hyatt Place Austin/Round Rock"},
  {"lat":30.6357871,"lon":-96.3208834,"city":"College Station","state":"TX","address":"","name":"Hyatt Place College Station"},
  {"lat":27.6961374,"lon":-97.3495211,"city":"Corpus Christi","state":"TX","address":"","name":"Hyatt Place Corpus Christi"},
  {"lat":32.8840256,"lon":-96.9553131,"city":"Dallas","state":"TX","address":"","name":"Hyatt Place Dallas / Las Colinas"},
  {"lat":32.7720386,"lon":-97.0605311,"city":"Dallas","state":"TX","address":"","name":"Hyatt Place Dallas/North Arlington/Grand Prairie"},
  {"lat":33.0420535,"lon":-96.8282936,"city":"Dallas","state":"TX","address":"","name":"Hyatt Place Dallas/Plano"},
  {"lat":32.8543576,"lon":-97.0387727,"city":"Dallas","state":"TX","address":"","name":"Hyatt Place DFW"},
  {"lat":32.904551,"lon":-97.3126575,"city":"Fort Worth","state":"TX","address":"","name":"Hyatt Place Fort Worth / Alliance Town Center"},
  {"lat":32.6809466,"lon":-97.4130696,"city":"Fort Worth","state":"TX","address":"","name":"Hyatt Place Fort Worth/Cityview"},
  {"lat":32.8419236,"lon":-97.1892239,"city":"Fort Worth","state":"TX","address":"","name":"Hyatt Place Fort Worth/Hurst"},
  {"lat":29.758831,"lon":-95.3614197,"city":"Houston","state":"TX","address":"","name":"Hyatt Place Houston / Downtown"},
  {"lat":29.9420575,"lon":-95.4005104,"city":"Houston","state":"TX","address":"","name":"Hyatt Place Houston-North"},
  {"lat":29.7382269,"lon":-95.4681447,"city":"Houston","state":"TX","address":"","name":"Hyatt Place Houston/Galleria"},
  {"lat":29.7880075,"lon":-95.7361339,"city":"Houston","state":"TX","address":"","name":"Hyatt Place Houston/Katy"},
  {"lat":29.6024813,"lon":-95.6240372,"city":"Houston","state":"TX","address":"","name":"Hyatt Place Houston/Sugar Land"},
  {"lat":33.5897511,"lon":-101.866851,"city":"Lubbock","state":"TX","address":"","name":"Hyatt Place Lubbock"},
  {"lat":29.4196458,"lon":-98.4919084,"city":"San Antonio","state":"TX","address":"","name":"Hyatt Place San Antonio/Riverwalk"},
  {"lat":31.501783,"lon":-97.1617681,"city":"Waco","state":"TX","address":"","name":"Hyatt Place Waco - South"},
  {"lat":30.260732,"lon":-97.7467931,"city":"Austin","state":"TX","address":"","name":"Hyatt Regency Austin"},
  {"lat":32.7757599,"lon":-96.8094484,"city":"Dallas","state":"TX","address":"","name":"Hyatt Regency Dallas"},
  {"lat":32.8975284,"lon":-97.0387182,"city":"Dallas","state":"TX","address":"","name":"Hyatt Regency DFW International Airport"},
  {"lat":29.7863918,"lon":-95.6188797,"city":"Houston","state":"TX","address":"","name":"Hyatt Regency Houston West"},
  {"lat":29.7382741,"lon":-95.467406,"city":"Houston","state":"TX","address":"","name":"Hyatt Regency Houston/Galleria"},
  {"lat":30.2668822,"lon":-97.7412,"city":"Austin","state":"TX","address":"","name":"Thompson Austin"},
  {"lat":32.7815928,"lon":-96.8003565,"city":"Dallas","state":"TX","address":"","name":"Thompson Dallas"},
  {"lat":29.7736922,"lon":-95.4041591,"city":"Houston","state":"TX","address":"","name":"Thompson Houston"},
  {"lat":40.6207326,"lon":-111.4415221,"city":"Park City","state":"UT","address":"","name":"Grand Hyatt Deer Valley"},
  {"lat":40.6824247,"lon":-111.5573268,"city":"Park City","state":"UT","address":"","name":"Hyatt Centric Park City"},
  {"lat":40.3578072,"lon":-111.764067,"city":"Provo","state":"UT","address":"","name":"Hyatt House Provo / Pleasant Grove"},
  {"lat":40.7664848,"lon":-111.9001207,"city":"Salt Lake City","state":"UT","address":"","name":"Hyatt House Salt Lake City/Downtown"},
  {"lat":38.5869955,"lon":-109.5576847,"city":"Moab","state":"UT","address":"","name":"Hyatt Place Moab"},
  {"lat":40.6946447,"lon":-111.5453084,"city":"Park City","state":"UT","address":"","name":"Hyatt Place Park City"},
  {"lat":40.2355154,"lon":-111.661867,"city":"Provo","state":"UT","address":"","name":"Hyatt Place Provo"},
  {"lat":40.6354292,"lon":-111.8050682,"city":"Salt Lake City","state":"UT","address":"","name":"Hyatt Place Salt Lake City/Cottonwood"},
  {"lat":40.9846773,"lon":-111.907537,"city":"Salt Lake City","state":"UT","address":"","name":"Hyatt Place Salt Lake City/Farmington/Station Park"},
  {"lat":40.4324333,"lon":-111.8816937,"city":"Salt Lake City","state":"UT","address":"","name":"Hyatt Place Salt Lake City/Lehi"},
  {"lat":40.7656479,"lon":-111.8946033,"city":"Salt Lake City","state":"UT","address":"","name":"Hyatt Regency Salt Lake City"},
  {"lat":38.89514,"lon":-77.0727473,"city":"Arlington","state":"VA","address":"","name":"Hyatt Centric Arlington"},
  {"lat":38.9564895,"lon":-77.3758805,"city":"Herndon","state":"VA","address":"","name":"Hyatt House Herndon/Reston"},
  {"lat":37.6570256,"lon":-77.6183036,"city":"Richmond","state":"VA","address":"","name":"Hyatt House Richmond / Short Pump"},
  {"lat":36.8558687,"lon":-75.9768703,"city":"Virginia Beach","state":"VA","address":"","name":"Hyatt House Virginia Beach / Oceanfront"},
  {"lat":38.8910472,"lon":-77.0876259,"city":"Arlington","state":"VA","address":"","name":"Hyatt Place Arlington/Courthouse Plaza"},
  {"lat":37.2324529,"lon":-80.4314872,"city":"Blacksburg","state":"VA","address":"","name":"Hyatt Place Blacksburg/University"},
  {"lat":38.0665434,"lon":-78.4936032,"city":"Charlottesville","state":"VA","address":"","name":"Hyatt Place Charlottesville"},
  {"lat":36.771332,"lon":-76.2379428,"city":"Chesapeake","state":"VA","address":"","name":"Hyatt Place Chesapeake/Greenbrier"},
  {"lat":38.3072307,"lon":-77.4814746,"city":"Fredericksburg","state":"VA","address":"","name":"Hyatt Place Fredericksburg-Mary Washington"},
  {"lat":38.431849,"lon":-78.8485019,"city":"Harrisonburg","state":"VA","address":"","name":"Hyatt Place Harrisonburg"},
  {"lat":38.9575432,"lon":-77.4202541,"city":"Herndon","state":"VA","address":"","name":"Hyatt Place Herndon/Dulles Airport-East"},
  {"lat":37.4950063,"lon":-77.5641722,"city":"Richmond","state":"VA","address":"","name":"Hyatt Place Richmond/Arboretum"},
  {"lat":38.960797,"lon":-77.423231,"city":"Dulles","state":"VA","address":"","name":"Hyatt Regency Dulles"},
  {"lat":38.958277,"lon":-77.3559236,"city":"Reston","state":"VA","address":"","name":"Hyatt Regency Reston"},
  {"lat":47.6125018,"lon":-122.3334479,"city":"Seattle","state":"WA","address":"","name":"Grand Hyatt Seattle"},
  {"lat":47.5806773,"lon":-122.1542337,"city":"Seattle","state":"WA","address":"","name":"Hyatt House Seattle/Bellevue"},
  {"lat":47.6188103,"lon":-122.3446053,"city":"Seattle","state":"WA","address":"","name":"Hyatt Place Seattle/Downtown"},
  {"lat":47.6148202,"lon":-122.3345782,"city":"Seattle","state":"WA","address":"","name":"Hyatt Regency Seattle"},
  {"lat":47.6105512,"lon":-122.3413319,"city":"Seattle","state":"WA","address":"","name":"Thompson Seattle"},
  {"lat":43.0716756,"lon":-89.3875947,"city":"Madison","state":"WI","address":"","name":"Hyatt Place Madison/Downtown"},
  {"lat":42.9470985,"lon":-87.9140376,"city":"Milwaukee","state":"WI","address":"","name":"Hyatt Place Milwaukee Airport"},
  {"lat":43.0461696,"lon":-87.9215225,"city":"Milwaukee","state":"WI","address":"","name":"Hyatt Place Milwaukee Downtown"},
  {"lat":44.5175774,"lon":-88.0106432,"city":"Green Bay","state":"WI","address":"","name":"Hyatt Regency Green Bay"},
  {"lat":43.0409023,"lon":-87.9150235,"city":"Milwaukee","state":"WI","address":"","name":"Hyatt Regency Milwaukee"},
  {"lat":49.1529643,"lon":-125.904708,"city":"Tofino","state":"BC","address":"","name":"Clayoquot Wilderness Lodge"},
  {"lat":44.0106989,"lon":-77.1392379,"city":"Picton","state":"ON","address":"","name":"Merrill House"},
  {"lat":42.1939364,"lon":-73.362773,"city":"Great Barrington","state":"MA","address":"","name":"Berkshires Untold"},
  {"lat":35.2448551,"lon":-120.6834024,"city":"San Luis Obispo","state":"CA","address":"","name":"Hotel San Luis Obispo"},
  {"lat":38.4600611,"lon":-122.4212434,"city":"Rutherford","state":"CA","address":"","name":"Rancho Caymus Inn"},
  {"lat":35.2893406,"lon":-120.650268,"city":"San Luis Obispo","state":"CA","address":"","name":"San Luis Creek Lodge"},
  {"lat":39.4436579,"lon":-123.8057607,"city":"Fort Bragg","state":"CA","address":"","name":"The Inn at Newport Ranch"},
  {"lat":32.7884363,"lon":-79.9399309,"city":"Charleston","state":"SC","address":"","name":"The Merchant"},
  {"lat":40.981545,"lon":-72.1332197,"city":"Amagansett","state":"NY","address":"","name":"The Roundtree, Amagansett"},
  {"lat":34.0371117,"lon":-118.6779613,"city":"Malibu","state":"CA","address":"","name":"The Surfrider Malibu"},
  {"lat":35.5799869,"lon":-121.1166917,"city":"Cambria","state":"CA","address":"","name":"White Water"}]}