{"key":"in_n_out","displayName":"In-N-Out","category":"restaurant","useLocationName":false,"locations":[
  {"lat":33.2294,"lon":-97.17114,"city":"Denton","state":"TX","address":"2835 W. University Dr.","name":""},
  {"lat":33.12914,"lon":-96.65328,"city":"Allen","state":"TX","address":"190 E. Stacy Rd.","name":""},
  {"lat":33.1018,"lon":-96.80456,"city":"Frisco","state":"TX","address":"2800 Preston Rd.","name":""},
  {"lat":33.07076,"lon":-96.87604,"city":"The Colony","state":"TX","address":"5298 State Highway 121","name":""},
  {"lat":33.02593,"lon":-97.28667,"city":"Fort Worth","state":"TX","address":"3500 Highway 114","name":""},
  {"lat":33.03473,"lon":-96.70497,"city":"Plano","state":"TX","address":"2740 N. Central Expy.","name":""},
  {"lat":32.92662,"lon":-97.08656,"city":"Grapevine","state":"TX","address":"1303 William D. Tate Ave.","name":""},
  {"lat":32.95705,"lon":-96.82097,"city":"Dallas","state":"TX","address":"15260 Dallas Pkwy.","name":""},
  {"lat":32.899,"lon":-97.3223,"city":"Fort Worth","state":"TX","address":"2501 N. Tarrant Pkwy.","name":""},
  {"lat":32.92404,"lon":-96.83873,"city":"Dallas","state":"TX","address":"12909 Midway Rd.","name":""},
  {"lat":32.95409,"lon":-96.61745,"city":"Garland","state":"TX","address":"150 Town Center Blvd.","name":""},
  {"lat":32.92522,"lon":-96.77061,"city":"Dallas","state":"TX","address":"7909 Lyndon B Johnson Fwy.","name":""},
  {"lat":32.89691,"lon":-96.95976,"city":"Irving","state":"TX","address":"6501 N. Macarthur Blvd.","name":""},
  {"lat":32.8404,"lon":-97.18486,"city":"Hurst","state":"TX","address":"780 Airport Fwy.","name":""},
  {"lat":32.80709,"lon":-97.42463,"city":"Fort Worth","state":"TX","address":"5916 Quebec St.","name":""},
  {"lat":32.85997,"lon":-96.76943,"city":"Dallas","state":"TX","address":"7940 N. Central Expy.","name":""},
  {"lat":32.90942,"lon":-96.44848,"city":"Rockwall","state":"TX","address":"1106 E. I-30","name":""},
  {"lat":32.8289,"lon":-96.84424,"city":"Dallas","state":"TX","address":"2525 W. Mockingbird Ln","name":""},
  {"lat":32.7514,"lon":-97.35867,"city":"Fort Worth","state":"TX","address":"2900 W. 7th St.","name":""},
  {"lat":32.68031,"lon":-97.39506,"city":"Fort Worth","state":"TX","address":"4620 S. Hulen St.","name":""},
  {"lat":32.6782,"lon":-97.12294,"city":"Arlington","state":"TX","address":"1075 W. I-20","name":""},
  {"lat":32.58242,"lon":-97.13479,"city":"Mansfield","state":"TX","address":"1221 N. Hwy. 287","name":""},
  {"lat":32.59681,"lon":-96.8217,"city":"Lancaster","state":"TX","address":"740 N. I-35E","name":""},
  {"lat":38.87224,"lon":-104.71652,"city":"Colorado Springs","state":"CO","address":"2895 New Center Point Road","name":""},
  {"lat":38.99022,"lon":-104.7971,"city":"Colorado Springs","state":"CO","address":"1840 Democracy Point","name":""},
  {"lat":38.89623,"lon":-104.8315,"city":"Colorado Springs","state":"CO","address":"495 Garden of the Gods Road","name":""},
  {"lat":39.54365,"lon":-104.77248,"city":"Parker","state":"CO","address":"9558 Twenty Mile Rd.","name":""},
  {"lat":39.41571,"lon":-104.87632,"city":"Castle Rock","state":"CO","address":"5470 Factory Shops Blvd.","name":""},
  {"lat":39.71074,"lon":-104.82368,"city":"Aurora","state":"CO","address":"14150 E. Alameda Ave.","name":""},
  {"lat":39.56512,"lon":-104.88198,"city":"Lone Tree","state":"CO","address":"9171 W. Westview Rd.","name":""},
  {"lat":39.95673,"lon":-104.77367,"city":"Brighton","state":"CO","address":"3860 Eagle Blvd.","name":""},
  {"lat":39.77999,"lon":-104.88343,"city":"Denver","state":"CO","address":"4597 N. Central Park Blvd.","name":""},
  {"lat":39.71304,"lon":-105.08083,"city":"Lakewood","state":"CO","address":"150 S. Wadsworth","name":""},
  {"lat":39.94348,"lon":-104.98429,"city":"Thornton","state":"CO","address":"111 E. 136th Ave.","name":""},
  {"lat":39.7908,"lon":-105.0808,"city":"Arvada","state":"CO","address":"7494 W. 52nd Ave.","name":""},
  {"lat":40.15193,"lon":-105.08539,"city":"Longmont","state":"CO","address":"735 Harvest Moon Drive","name":""},
  {"lat":40.40786,"lon":-105.00807,"city":"Loveland","state":"CO","address":"1450 Fall River Dr.","name":""},
  {"lat":31.5514,"lon":-97.12444,"city":"Waco","state":"TX","address":"801 South 4th St.","name":""},
  {"lat":31.09033,"lon":-97.72142,"city":"Killeen","state":"TX","address":"2006 E. Central Texas Expy.","name":""},
  {"lat":30.56186,"lon":-97.69112,"city":"Round Rock","state":"TX","address":"4251 I-35 North","name":""},
  {"lat":30.52461,"lon":-97.82056,"city":"Cedar Park","state":"TX","address":"901 E. Whitestone Blvd.","name":""},
  {"lat":30.46439,"lon":-97.59744,"city":"Pflugerville","state":"TX","address":"1600 Town Center Dr.","name":""},
  {"lat":30.40499,"lon":-97.67414,"city":"Austin","state":"TX","address":"12431 N. I-35","name":""},
  {"lat":30.30434,"lon":-97.71564,"city":"Austin","state":"TX","address":"4515 Airport Blvd.","name":""},
  {"lat":30.29219,"lon":-97.74169,"city":"Austin","state":"TX","address":"2700 Guadalupe St","name":""},
  {"lat":30.23866,"lon":-97.78861,"city":"Austin","state":"TX","address":"3701 S. Lamar Blvd.","name":""},
  {"lat":30.16595,"lon":-95.45981,"city":"The Woodlands","state":"TX","address":"1717 Lake Woodlands Drive","name":""},
  {"lat":29.89218,"lon":-97.91448,"city":"San Marcos","state":"TX","address":"1437 North IH-35","name":""},
  {"lat":29.99052,"lon":-95.74352,"city":"Cypress","state":"TX","address":"28320 Highway 290","name":""},
  {"lat":29.96347,"lon":-95.54295,"city":"Houston","state":"TX","address":"7611 FM 1960 W.","name":""},
  {"lat":29.7299,"lon":-98.07864,"city":"New Braunfels","state":"TX","address":"106 FM 306","name":""},
  {"lat":29.64805,"lon":-98.44986,"city":"San Antonio","state":"TX","address":"22226 N. US Hwy 281","name":""},
  {"lat":29.78651,"lon":-95.80127,"city":"Katy","state":"TX","address":"1010 Katy-Fort Bend Rd.","name":""},
  {"lat":29.51138,"lon":-98.39647,"city":"Windcrest","state":"TX","address":"8202 I-35 North","name":""},
  {"lat":29.49497,"lon":-98.7085,"city":"San Antonio","state":"TX","address":"10918 Culebra Rd.","name":""},
  {"lat":29.63807,"lon":-95.58031,"city":"Stafford","state":"TX","address":"12611 S. Kirkwood Rd.","name":""},
  {"lat":29.55339,"lon":-95.15011,"city":"Webster","state":"TX","address":"122 El Dorado Blvd.","name":""},
  {"lat":36.03673,"lon":-86.65271,"city":"Antioch","state":"TN","address":"4242 Century Farms Terrace","name":""},
  {"lat":35.86013,"lon":-86.44114,"city":"Murfreesboro","state":"TN","address":"2508 Medical Center Pkwy","name":""},
  {"lat":36.18669,"lon":-86.32578,"city":"Lebanon","state":"TN","address":"915 South Hartmann Drive","name":""},
  {"lat":40.12055,"lon":-111.64132,"city":"Spanish Fork","state":"UT","address":"795 East 800 North","name":""},
  {"lat":40.27312,"lon":-111.68661,"city":"Orem","state":"UT","address":"350 E. University Pkwy","name":""},
  {"lat":40.37595,"lon":-111.81472,"city":"American Fork","state":"UT","address":"601 W. Main St.","name":""},
  {"lat":40.62037,"lon":-111.85666,"city":"Midvale","state":"UT","address":"7206 S. Union Park Ave.","name":""},
  {"lat":40.52883,"lon":-111.88928,"city":"Draper","state":"UT","address":"12191 State St.","name":""},
  {"lat":40.72516,"lon":-111.89021,"city":"South Salt Lake","state":"UT","address":"28 E. 2100 S.","name":""},
  {"lat":40.5226,"lon":-111.98478,"city":"Riverton","state":"UT","address":"12569 S. Crossing Drive","name":""},
  {"lat":40.92237,"lon":-111.8895,"city":"Centerville","state":"UT","address":"475 North 700 West","name":""},
  {"lat":40.69142,"lon":-111.95765,"city":"West Valley City","state":"UT","address":"3715 Constitution Blvd","name":""},
  {"lat":40.60978,"lon":-111.98588,"city":"West Jordan","state":"UT","address":"7785 Jordan Landing Blvd.","name":""},
  {"lat":35.18161,"lon":-111.66084,"city":"Flagstaff","state":"AZ","address":"1860 South Milton Rd.","name":""},
  {"lat":41.08883,"lon":-111.98843,"city":"Layton","state":"UT","address":"1977 N. 1200 W.","name":""},
  {"lat":41.19122,"lon":-111.97999,"city":"Riverdale","state":"UT","address":"4030 Riverdale Rd.","name":""},
  {"lat":41.73932,"lon":-111.8345,"city":"Logan","state":"UT","address":"404 N. Main St.","name":""},
  {"lat":32.41542,"lon":-110.93879,"city":"Oro Valley","state":"AZ","address":"11545 N. Oracle Road","name":""},
  {"lat":32.22177,"lon":-110.84038,"city":"Tucson","state":"AZ","address":"7111 E. Broadway Blvd.","name":""},
  {"lat":33.38169,"lon":-111.5997,"city":"Mesa","state":"AZ","address":"1859 S. Signal Butte Rd.","name":""},
  {"lat":32.222,"lon":-110.91414,"city":"Tucson","state":"AZ","address":"3711 Broadway Blvd.","name":""},
  {"lat":33.47368,"lon":-111.70158,"city":"Mesa","state":"AZ","address":"3156 North Recker Road","name":""},
  {"lat":32.29045,"lon":-110.97786,"city":"Tucson","state":"AZ","address":"4620 N. Oracle Rd.","name":""},
  {"lat":32.17825,"lon":-110.94288,"city":"Tucson","state":"AZ","address":"1979 E. Ajo Way","name":""},
  {"lat":33.25877,"lon":-111.64037,"city":"Queen Creek","state":"AZ","address":"20545 E. Rittenhouse","name":""},
  {"lat":33.3272,"lon":-111.68628,"city":"Mesa","state":"AZ","address":"4901 S Power Rd.","name":""},
  {"lat":32.35514,"lon":-111.093,"city":"Marana","state":"AZ","address":"8180 Cortaro Rd.","name":""},
  {"lat":32.16348,"lon":-110.98822,"city":"Tucson","state":"AZ","address":"1100 W. Irvington Rd.","name":""},
  {"lat":33.63651,"lon":-111.91983,"city":"Scottsdale","state":"AZ","address":"7467 Frank L Wright","name":""},
  {"lat":33.30588,"lon":-111.74348,"city":"Gilbert","state":"AZ","address":"2449 S. Market St.","name":""},
  {"lat":33.3834,"lon":-111.80633,"city":"Mesa","state":"AZ","address":"1650 S. Stapley Rd.","name":""},
  {"lat":33.67905,"lon":-111.97676,"city":"Phoenix","state":"AZ","address":"21001 N. Tatum Blvd.","name":""},
  {"lat":34.55245,"lon":-112.40924,"city":"Prescott","state":"AZ","address":"3040 Hwy. 69","name":""},
  {"lat":33.2812,"lon":-111.79024,"city":"Chandler","state":"AZ","address":"2910 E. Germann Rd.","name":""},
  {"lat":33.39005,"lon":-111.85768,"city":"Mesa","state":"AZ","address":"1342 S. Alma School Rd.","name":""},
  {"lat":33.59897,"lon":-111.97967,"city":"Phoenix","state":"AZ","address":"12413 N. Tatum","name":""},
  {"lat":33.4349,"lon":-111.92543,"city":"Tempe","state":"AZ","address":"920 E. Playa Del Norte Dr.","name":""},
  {"lat":33.80054,"lon":-112.12994,"city":"Phoenix","state":"AZ","address":"34850 N. Valley Parkway","name":""},
  {"lat":33.30639,"lon":-111.89176,"city":"Chandler","state":"AZ","address":"2790 W. Chandler Blvd.","name":""},
  {"lat":33.66206,"lon":-112.11673,"city":"Phoenix","state":"AZ","address":"19407 N. 27th Ave.","name":""},
  {"lat":33.50715,"lon":-112.03922,"city":"Phoenix","state":"AZ","address":"4840 N. 20th St.","name":""},
  {"lat":32.88018,"lon":-111.68225,"city":"Casa Grande","state":"AZ","address":"873 N. Promenade Pkwy.","name":""},
  {"lat":33.37793,"lon":-111.97416,"city":"Tempe","state":"AZ","address":"2405 W. Baseline Rd.","name":""},
  {"lat":33.3204,"lon":-111.96413,"city":"Chandler","state":"AZ","address":"7050 W. Ray Rd.","name":""},
  {"lat":33.58241,"lon":-112.11982,"city":"Phoenix","state":"AZ","address":"2770 W. Peoria Ave.","name":""},
  {"lat":33.71439,"lon":-112.27168,"city":"Peoria","state":"AZ","address":"25390 N. Lake Pleasant Pkwy.","name":""},
  {"lat":33.63773,"lon":-112.23301,"city":"Peoria","state":"AZ","address":"8285 W. Bell Rd.","name":""},
  {"lat":33.37807,"lon":-112.18662,"city":"Phoenix","state":"AZ","address":"5940 West Baseline Road","name":""},
  {"lat":33.50809,"lon":-112.26647,"city":"Phoenix","state":"AZ","address":"9585 W. Camelback Rd.","name":""},
  {"lat":37.1278,"lon":-113.52311,"city":"Washington City","state":"UT","address":"832 W. Telegraph St.","name":""},
  {"lat":33.63818,"lon":-112.36853,"city":"Surprise","state":"AZ","address":"14321 W. Bell Rd.","name":""},
  {"lat":33.59565,"lon":-112.41183,"city":"Surprise","state":"AZ","address":"16440 Cactus Road","name":""},
  {"lat":33.45937,"lon":-112.34041,"city":"Avondale","state":"AZ","address":"1525 Dysart Rd.","name":""},
  {"lat":35.21825,"lon":-114.03694,"city":"Kingman","state":"AZ","address":"1770 E. Beverly Ave.","name":""},
  {"lat":35.15922,"lon":-114.57523,"city":"Laughlin","state":"NV","address":"2085 Casino Dr.","name":""},
  {"lat":34.47483,"lon":-114.34779,"city":"Lake Havasu City","state":"AZ","address":"81 London Bridge Rd.","name":""},
  {"lat":36.06331,"lon":-115.03392,"city":"Henderson","state":"NV","address":"1051 W. Sunset Rd.","name":""},
  {"lat":36.16083,"lon":-115.06266,"city":"Las Vegas","state":"NV","address":"51 N Nellis","name":""},
  {"lat":36.23968,"lon":-115.11141,"city":"North Las Vegas","state":"NV","address":"2765 E. Craig Rd.","name":""},
  {"lat":36.28523,"lon":-115.1344,"city":"North Las Vegas","state":"NV","address":"6880 N. 5th Street","name":""},
  {"lat":36.11578,"lon":-115.09154,"city":"Las Vegas","state":"NV","address":"3804 East Flamingo Rd.","name":""},
  {"lat":36.10417,"lon":-115.13758,"city":"Las Vegas","state":"NV","address":"4705 S. Maryland Pkwy.","name":""},
  {"lat":36.02139,"lon":-115.11813,"city":"Las Vegas","state":"NV","address":"9240 S. Eastern Ave.","name":""},
  {"lat":36.11744,"lon":-115.1699,"city":"Las Vegas","state":"NV","address":"3545 S. Las Vegas Blvd, Ste L24","name":""},
  {"lat":36.14486,"lon":-115.18057,"city":"Las Vegas","state":"NV","address":"2900 W. Sahara Ave.","name":""},
  {"lat":35.98619,"lon":-115.14228,"city":"Henderson","state":"NV","address":"3551 St. Rose Pkwy.","name":""},
  {"lat":36.10132,"lon":-115.18219,"city":"Las Vegas","state":"NV","address":"4888 Dean Martin Dr.","name":""},
  {"lat":36.08588,"lon":-115.18521,"city":"Las Vegas","state":"NV","address":"3397 W. Russell Rd.","name":""},
  {"lat":36.04056,"lon":-115.19118,"city":"Las Vegas","state":"NV","address":"3882 Blue Diamond Rd.","name":""},
  {"lat":36.2652,"lon":-115.25707,"city":"Las Vegas","state":"NV","address":"5690 Centennial Center Blvd.","name":""},
  {"lat":36.19564,"lon":-115.24654,"city":"Las Vegas","state":"NV","address":"1960 Rock Springs","name":""},
  {"lat":36.06968,"lon":-115.2417,"city":"Las Vegas","state":"NV","address":"6530 S. Rainbow Blvd.","name":""},
  {"lat":36.14482,"lon":-115.31351,"city":"Las Vegas","state":"NV","address":"10040 W. Sahara Ave.","name":""},
  {"lat":36.10069,"lon":-115.30211,"city":"Las Vegas","state":"NV","address":"9610 W. Tropicana Ave.","name":""},
  {"lat":32.69905,"lon":-114.60057,"city":"Yuma","state":"AZ","address":"1940 E. 16th Street","name":""},
  {"lat":43.60572,"lon":-116.27831,"city":"Boise","state":"ID","address":"140 N. Milwaukee St.","name":""},
  {"lat":43.61988,"lon":-116.35129,"city":"Meridian","state":"ID","address":"3520 E. Fairview Ave.","name":""},
  {"lat":32.77146,"lon":-115.55267,"city":"El Centro","state":"CA","address":"2390 S. 4Th Street","name":""},
  {"lat":43.60896,"lon":-116.59274,"city":"Nampa","state":"ID","address":"16225 N. Marketplace Blvd.","name":""},
  {"lat":33.74355,"lon":-116.23149,"city":"Indio","state":"CA","address":"82177 Ave 42","name":""},
  {"lat":33.71425,"lon":-116.23308,"city":"Indio","state":"CA","address":"82043 Hwy. 111","name":""},
  {"lat":33.71257,"lon":-116.29265,"city":"La Quinta","state":"CA","address":"78611 Hwy. 111","name":""},
  {"lat":33.81566,"lon":-116.40139,"city":"Thousand Palms","state":"CA","address":"72265 Varner Rd.","name":""},
  {"lat":33.73631,"lon":-116.40772,"city":"Rancho Mirage","state":"CA","address":"42560 Bob Hope Dr.","name":""},
  {"lat":34.85006,"lon":-117.08238,"city":"Barstow","state":"CA","address":"2821 Lenwood Rd.","name":""},
  {"lat":33.9214,"lon":-116.80362,"city":"Cabazon","state":"CA","address":"49188 Seminole Dr.","name":""},
  {"lat":33.92323,"lon":-116.94849,"city":"Beaumont","state":"CA","address":"1551 E. 2nd St.","name":""},
  {"lat":34.4705,"lon":-117.29092,"city":"Hesperia","state":"CA","address":"17069 Bear Valley Rd.","name":""},
  {"lat":34.02775,"lon":-117.11733,"city":"Yucaipa","state":"CA","address":"31465 Avenue E","name":""},
  {"lat":33.74698,"lon":-117.00175,"city":"Hemet","state":"CA","address":"2885 W. Florida Ave.","name":""},
  {"lat":34.52112,"lon":-117.32202,"city":"Victorville","state":"CA","address":"15290 Civic Drive","name":""},
  {"lat":34.10791,"lon":-117.19374,"city":"Highland","state":"CA","address":"28009 Greenspot Rd.","name":""},
  {"lat":34.06978,"lon":-117.20188,"city":"Redlands","state":"CA","address":"1301 W. Lugonia Ave.","name":""},
  {"lat":34.42713,"lon":-117.37809,"city":"Hesperia","state":"CA","address":"13074 Main St.","name":""},
  {"lat":34.06638,"lon":-117.26181,"city":"San Bernardino","state":"CA","address":"1065 Harriman Pl.","name":""},
  {"lat":34.10794,"lon":-117.30054,"city":"San Bernardino","state":"CA","address":"795 W. 5th Street","name":""},
  {"lat":33.94211,"lon":-117.26014,"city":"Moreno Valley","state":"CA","address":"23035 Hemlock Ave.","name":""},
  {"lat":33.68112,"lon":-117.17501,"city":"Menifee","state":"CA","address":"30296 Haun Road","name":""},
  {"lat":34.1344,"lon":-117.37003,"city":"Rialto","state":"CA","address":"108 E. Easton St.","name":""},
  {"lat":33.80078,"lon":-117.23149,"city":"Perris","state":"CA","address":"229 Old Nuevo Rd.","name":""},
  {"lat":33.88854,"lon":-117.27293,"city":"Riverside","state":"CA","address":"22410 Van Buren Blvd.","name":""},
  {"lat":34.07423,"lon":-117.37063,"city":"Rialto","state":"CA","address":"1456 S Riverside Ave.","name":""},
  {"lat":33.47588,"lon":-117.12363,"city":"Temecula","state":"CA","address":"30697 Temecula Pkwy.","name":""},
  {"lat":33.57324,"lon":-117.17903,"city":"Murrieta","state":"CA","address":"39697 Avenida Acacias","name":""},
  {"lat":33.51498,"lon":-117.159,"city":"Temecula","state":"CA","address":"27700 Jefferson Ave.","name":""},
  {"lat":34.07498,"lon":-117.43523,"city":"Fontana","state":"CA","address":"9855 Sierra Ave.","name":""},
  {"lat":33.93579,"lon":-117.40385,"city":"Riverside","state":"CA","address":"7467 Indiana Ave.","name":""},
  {"lat":33.66356,"lon":-117.29851,"city":"Lake Elsinore","state":"CA","address":"331 Railroad Canyon","name":""},
  {"lat":34.01497,"lon":-117.4615,"city":"Jurupa Valley","state":"CA","address":"4038 Pyrite St.","name":""},
  {"lat":33.91562,"lon":-117.44211,"city":"Riverside","state":"CA","address":"3483 Van Buren Boulevard","name":""},
  {"lat":33.96709,"lon":-117.46584,"city":"Riverside","state":"CA","address":"6634 Clay St.","name":""},
  {"lat":34.10585,"lon":-117.53026,"city":"Rancho Cucamonga","state":"CA","address":"12599 Foothill Blvd.","name":""},
  {"lat":33.11518,"lon":-117.1019,"city":"Escondido","state":"CA","address":"1260 W Valley Parkway","name":""},
  {"lat":32.80802,"lon":-116.96289,"city":"El Cajon","state":"CA","address":"100 Fletcher Parkway","name":""},
  {"lat":32.83901,"lon":-116.99388,"city":"Santee","state":"CA","address":"9414 Mission Gorge Rd.","name":""},
  {"lat":32.93892,"lon":-117.04651,"city":"Poway","state":"CA","address":"12890 Gregg Court","name":""},
  {"lat":34.06834,"lon":-117.55714,"city":"Ontario","state":"CA","address":"4310 E. Ontario Mills Pkwy.","name":""},
  {"lat":32.98171,"lon":-117.07757,"city":"San Diego","state":"CA","address":"11880 Carmel Mountain Rd.","name":""},
  {"lat":33.99813,"lon":-117.55833,"city":"Eastvale","state":"CA","address":"4950 Hamner Avenue","name":""},
  {"lat":33.13718,"lon":-117.17717,"city":"San Marcos","state":"CA","address":"583 Grand Ave.","name":""},
  {"lat":34.10625,"lon":-117.60964,"city":"Rancho Cucamonga","state":"CA","address":"8955 Foothill Blvd.","name":""},
  {"lat":34.06922,"lon":-117.61145,"city":"Ontario","state":"CA","address":"1891 E. G Street","name":""},
  {"lat":34.13607,"lon":-117.63897,"city":"Upland","state":"CA","address":"1152 East 20th Street","name":""},
  {"lat":33.90852,"lon":-117.56168,"city":"Norco","state":"CA","address":"1810 Hamner Avenue","name":""},
  {"lat":33.84403,"lon":-117.53647,"city":"Corona","state":"CA","address":"2305 Compton Ave.","name":""},
  {"lat":32.62049,"lon":-116.96204,"city":"Chula Vista","state":"CA","address":"1725 Eastlake Pkwy.","name":""},
  {"lat":32.91764,"lon":-117.12193,"city":"San Diego","state":"CA","address":"9410 Mira Mesa Blvd.","name":""},
  {"lat":32.74421,"lon":-117.04325,"city":"Lemon Grove","state":"CA","address":"7160 Broadway","name":""},
  {"lat":33.23782,"lon":-117.29927,"city":"Oceanside","state":"CA","address":"4605 Frazee","name":""},
  {"lat":34.10724,"lon":-117.68629,"city":"Upland","state":"CA","address":"1837 Foothill Blvd.","name":""},
  {"lat":33.18455,"lon":-117.28496,"city":"Vista","state":"CA","address":"2010 Hacienda Dr.","name":""},
  {"lat":32.79099,"lon":-117.10012,"city":"San Diego","state":"CA","address":"10370 Friars Rd.","name":""},
  {"lat":34.0327,"lon":-117.66782,"city":"Ontario","state":"CA","address":"2235 Mountain Ave.","name":""},
  {"lat":33.88166,"lon":-117.61349,"city":"Corona","state":"CA","address":"450 Auto Center Dr.","name":""},
  {"lat":32.81967,"lon":-117.14869,"city":"San Diego","state":"CA","address":"4375 Kearny Mesa Rd.","name":""},
  {"lat":32.59459,"lon":-117.03437,"city":"Chula Vista","state":"CA","address":"1810 Main Court","name":""},
  {"lat":34.07792,"lon":-117.71965,"city":"Pomona","state":"CA","address":"1851 Indian Hill Blvd.","name":""},
  {"lat":32.67639,"lon":-117.0858,"city":"National City","state":"CA","address":"1900 E. Plaza Blvd.","name":""},
  {"lat":32.76952,"lon":-117.14345,"city":"San Diego","state":"CA","address":"2005 Camino Del Este","name":""},
  {"lat":33.04729,"lon":-117.28499,"city":"Encinitas","state":"CA","address":"130 Calle Magdalena","name":""},
  {"lat":33.12509,"lon":-117.32465,"city":"Carlsbad","state":"CA","address":"5950 Avenida Encinas","name":""},
  {"lat":33.9974,"lon":-117.71853,"city":"Chino","state":"CA","address":"3927 Grand Ave.","name":""},
  {"lat":34.11313,"lon":-117.76564,"city":"La Verne","state":"CA","address":"2098 Foothill Blvd.","name":""},
  {"lat":32.65966,"lon":-117.10659,"city":"National City","state":"CA","address":"500 Mile-Of Cars Way","name":""},
  {"lat":33.20394,"lon":-117.38399,"city":"Oceanside","state":"CA","address":"936 N. Coast Highway","name":""},
  {"lat":34.02579,"lon":-117.74946,"city":"Pomona","state":"CA","address":"2505 Garey Ave.","name":""},
  {"lat":32.57707,"lon":-117.08055,"city":"San Diego","state":"CA","address":"1093 Outer Rd.","name":""},
  {"lat":33.64253,"lon":-117.60524,"city":"Rancho Santa Margarita","state":"CA","address":"30121 Santa Margarita Pkwy.","name":""},
  {"lat":32.80896,"lon":-117.21887,"city":"Pacific Beach","state":"CA","address":"2910 Damon Ave.","name":""},
  {"lat":32.75191,"lon":-117.20527,"city":"San Diego","state":"CA","address":"3102 Sports Arena Blvd.","name":""},
  {"lat":34.11673,"lon":-117.82941,"city":"Glendora","state":"CA","address":"1261 S. Lone Hill","name":""},
  {"lat":33.68158,"lon":-117.66941,"city":"Foothill Ranch","state":"CA","address":"26482 Towne Centre","name":""},
  {"lat":34.02749,"lon":-117.83467,"city":"City Of Industry","state":"CA","address":"21620 E. Valley Blvd","name":""},
  {"lat":33.52053,"lon":-117.61931,"city":"Rancho Mission Viejo","state":"CA","address":"30655 Gateway Pl.","name":""},
  {"lat":34.10491,"lon":-117.87307,"city":"Covina","state":"CA","address":"1371 Grand Ave.","name":""},
  {"lat":34.12834,"lon":-117.8862,"city":"Azusa","state":"CA","address":"988 E. Alosta Ave.","name":""},
  {"lat":34.0005,"lon":-117.84346,"city":"Diamond Bar","state":"CA","address":"21133 Golden Springs","name":""},
  {"lat":33.85933,"lon":-117.79148,"city":"Anaheim Hills","state":"CA","address":"5646 E. La Palma","name":""},
  {"lat":34.0714,"lon":-117.88194,"city":"West Covina","state":"CA","address":"2940 E. Garvey Ave.","name":""},
  {"lat":34.11765,"lon":-117.90734,"city":"Azusa","state":"CA","address":"324 S. Azusa Ave.","name":""},
  {"lat":33.89101,"lon":-117.81513,"city":"Yorba Linda","state":"CA","address":"18181 Imperial Hwy.","name":""},
  {"lat":33.43745,"lon":-117.62353,"city":"San Clemente","state":"CA","address":"115 Via Pico Plaza","name":""},
  {"lat":33.5453,"lon":-117.67383,"city":"San Juan Capistrano","state":"CA","address":"28782 Camino Capistrano","name":""},
  {"lat":33.61331,"lon":-117.70842,"city":"Laguna Hills","state":"CA","address":"24001 Avenida de la Carlota","name":""},
  {"lat":33.50027,"lon":-117.66038,"city":"San Juan Capistrano","state":"CA","address":"31791 Del Obispo St.","name":""},
  {"lat":33.56497,"lon":-117.70737,"city":"Laguna Niguel","state":"CA","address":"27380 La Paz Rd.","name":""},
  {"lat":34.70441,"lon":-118.16698,"city":"Lancaster","state":"CA","address":"\"2021 W. Avenue \"\"I\"\"\"","name":""},
  {"lat":34.57934,"lon":-118.12803,"city":"Palmdale","state":"CA","address":"142 E Palmdale Blvd.","name":""},
  {"lat":34.08978,"lon":-117.94092,"city":"West Covina","state":"CA","address":"15610 San Bernardino Rd.","name":""},
  {"lat":33.78813,"lon":-117.81646,"city":"Orange","state":"CA","address":"3501 E. Chapman Ave.","name":""},
  {"lat":33.83196,"lon":-117.83569,"city":"Orange","state":"CA","address":"2585 N. Tustin St.","name":""},
  {"lat":33.72286,"lon":-117.79367,"city":"Tustin","state":"CA","address":"3020 El Camino Real","name":""},
  {"lat":33.99033,"lon":-117.91538,"city":"City Of Industry","state":"CA","address":"17849 E. Colima Road","name":""},
  {"lat":33.91187,"lon":-117.88934,"city":"Brea","state":"CA","address":"1130 E. Imperial Hwy.","name":""},
  {"lat":33.87434,"lon":-117.87841,"city":"Placentia","state":"CA","address":"825 W. Chapman","name":""},
  {"lat":33.76139,"lon":-117.83414,"city":"Santa Ana","state":"CA","address":"1809 N. Tustin Ave.","name":""},
  {"lat":34.03759,"lon":-117.95173,"city":"La Puente","state":"CA","address":"15259 Amar Rd.","name":""},
  {"lat":34.06767,"lon":-117.97349,"city":"Baldwin Park","state":"CA","address":"13850 Francisquito Ave.","name":""},
  {"lat":34.13977,"lon":-118.01124,"city":"Monrovia","state":"CA","address":"560 W. Huntington Dr.","name":""},
  {"lat":33.9244,"lon":-117.92377,"city":"La Habra","state":"CA","address":"2030 E. Lambert Rd.","name":""},
  {"lat":33.69499,"lon":-117.82708,"city":"Tustin","state":"CA","address":"2895 Park Ave.","name":""},
  {"lat":33.81889,"lon":-117.88902,"city":"Anaheim","state":"CA","address":"1168 State College Blvd.","name":""},
  {"lat":34.14532,"lon":-118.03124,"city":"Arcadia","state":"CA","address":"420 N. Santa Anita Ave.","name":""},
  {"lat":34.0194,"lon":-117.9873,"city":"Hacienda Heights","state":"CA","address":"14620 E. Gale","name":""},
  {"lat":33.78528,"lon":-117.8913,"city":"Orange","state":"CA","address":"250 The City Drive South","name":""},
  {"lat":33.86023,"lon":-117.92398,"city":"Fullerton","state":"CA","address":"1180 S. Harbor Blvd.","name":""},
  {"lat":33.65015,"lon":-117.84063,"city":"Irvine","state":"CA","address":"4115 Campus Drive","name":""},
  {"lat":33.7523,"lon":-117.88474,"city":"Santa Ana","state":"CA","address":"815 N. Bristol","name":""},
  {"lat":33.93986,"lon":-117.96633,"city":"La Habra","state":"CA","address":"1761 W. Whittier Blvd.","name":""},
  {"lat":34.09244,"lon":-118.03846,"city":"Temple City","state":"CA","address":"10601 Lower Azusa Rd.","name":""},
  {"lat":33.83873,"lon":-117.94116,"city":"Anaheim","state":"CA","address":"540 N. Euclid Street","name":""},
  {"lat":33.70036,"lon":-117.8851,"city":"Santa Ana","state":"CA","address":"3361 S. Bristol","name":""},
  {"lat":33.82483,"lon":-117.9585,"city":"Anaheim","state":"CA","address":"600 S. Brookhurst St.","name":""},
  {"lat":34.08397,"lon":-118.07301,"city":"Rosemead","state":"CA","address":"4242 N. Rosemead Blvd.","name":""},
  {"lat":34.14948,"lon":-118.1068,"city":"Pasadena","state":"CA","address":"2114 E. Foothill Blvd.","name":""},
  {"lat":33.68773,"lon":-117.9199,"city":"Costa Mesa","state":"CA","address":"3211 Harbor Blvd.","name":""},
  {"lat":33.98,"lon":-118.0505,"city":"Whittier","state":"CA","address":"11802 Whittier Blvd.","name":""},
  {"lat":33.76643,"lon":-117.97211,"city":"Garden Grove","state":"CA","address":"9032 Trask Ave.","name":""},
  {"lat":33.93957,"lon":-118.04684,"city":"Santa Fe Springs","state":"CA","address":"10525 Carmenita","name":""},
  {"lat":33.64369,"lon":-117.92289,"city":"Costa Mesa","state":"CA","address":"594 W. 19th Street","name":""},
  {"lat":33.88254,"lon":-118.02468,"city":"La Mirada","state":"CA","address":"14341 Firestone Blvd.","name":""},
  {"lat":34.03638,"lon":-118.09739,"city":"Monterey Park","state":"CA","address":"5500 Market Place Dr.","name":""},
  {"lat":34.00053,"lon":-118.08306,"city":"Pico Rivera","state":"CA","address":"9070 Whittier Blvd.","name":""},
  {"lat":33.77485,"lon":-117.99318,"city":"Stanton","state":"CA","address":"12975 Beach Blvd.","name":""},
  {"lat":33.84731,"lon":-118.0281,"city":"Buena Park","state":"CA","address":"7926 Valley View St.","name":""},
  {"lat":34.10603,"lon":-118.13437,"city":"Alhambra","state":"CA","address":"1210 N. Atlantic Blvd.","name":""},
  {"lat":33.72998,"lon":-117.99061,"city":"Huntington Beach","state":"CA","address":"7902 Edinger Ave","name":""},
  {"lat":33.70038,"lon":-117.98861,"city":"Huntington Beach","state":"CA","address":"18062 Beach Blvd.","name":""},
  {"lat":33.75871,"lon":-118.01959,"city":"Westminster","state":"CA","address":"6292 Westminster Blvd.","name":""},
  {"lat":33.90119,"lon":-118.08224,"city":"Norwalk","state":"CA","address":"14330 Pioneer Blvd.","name":""},
  {"lat":33.88714,"lon":-118.1021,"city":"Cerritos","state":"CA","address":"10900 Alondra Blvd.","name":""},
  {"lat":33.93609,"lon":-118.12421,"city":"Downey","state":"CA","address":"8767 Firestone Blvd.","name":""},
  {"lat":33.83109,"lon":-118.08485,"city":"Long Beach","state":"CA","address":"7691 Carson St.","name":""},
  {"lat":33.78222,"lon":-118.07251,"city":"Seal Beach","state":"CA","address":"12365 Seal Beach Blvd.","name":""},
  {"lat":34.14868,"lon":-118.22735,"city":"Glendale","state":"CA","address":"310 N. Harvey Dr.","name":""},
  {"lat":34.24106,"lon":-118.26655,"city":"Tujunga","state":"CA","address":"6225 Foothill Blvd.","name":""},
  {"lat":33.8751,"lon":-118.12539,"city":"Bellflower","state":"CA","address":"17325 Bellflower Blvd.","name":""},
  {"lat":33.86098,"lon":-118.12471,"city":"Lakewood","state":"CA","address":"5820 Bellflower Blvd.","name":""},
  {"lat":34.1456,"lon":-118.25545,"city":"Glendale","state":"CA","address":"119 S. Brand Blvd.","name":""},
  {"lat":33.95274,"lon":-118.18831,"city":"South Gate","state":"CA","address":"4601 Firestone Blvd.","name":""},
  {"lat":33.75847,"lon":-118.11117,"city":"Long Beach","state":"CA","address":"6391 E. Pacific Coast Hwy.","name":""},
  {"lat":33.83164,"lon":-118.143,"city":"Long Beach","state":"CA","address":"4041 Lakewood Blvd.","name":""},
  {"lat":33.79119,"lon":-118.14011,"city":"Long Beach","state":"CA","address":"4600 Los Coyotes Dgl.","name":""},
  {"lat":33.98704,"lon":-118.2248,"city":"Huntington Park","state":"CA","address":"6000 Pacific Blvd.","name":""},
  {"lat":34.18497,"lon":-118.31607,"city":"Burbank","state":"CA","address":"761 First Street","name":""},
  {"lat":34.42368,"lon":-118.42316,"city":"Santa Clarita","state":"CA","address":"28368 Sand Canyon Rd.","name":""},
  {"lat":33.81199,"lon":-118.18333,"city":"Signal Hill","state":"CA","address":"799 E. Spring St.","name":""},
  {"lat":33.87269,"lon":-118.24841,"city":"Compton","state":"CA","address":"2200 S. Central Ave.","name":""},
  {"lat":34.09822,"lon":-118.34171,"city":"Hollywood","state":"CA","address":"7009 Sunset Blvd.","name":""},
  {"lat":34.13508,"lon":-118.36062,"city":"Los Angeles","state":"CA","address":"3640 Cahuenga Blvd.","name":""},
  {"lat":34.17746,"lon":-118.38194,"city":"N. Hollywood","state":"CA","address":"5864 Lankershim Blvd","name":""},
  {"lat":34.31139,"lon":-118.43583,"city":"Sylmar","state":"CA","address":"13864 Foothill Blvd.","name":""},
  {"lat":33.84561,"lon":-118.26403,"city":"Carson","state":"CA","address":"20512 Avalon Blvd.","name":""},
  {"lat":34.22201,"lon":-118.43073,"city":"Panorama City","state":"CA","address":"13651 Roscoe Blvd.","name":""},
  {"lat":34.27802,"lon":-118.45306,"city":"San Fernando","state":"CA","address":"11455 Laurel Canyon Blvd.","name":""},
  {"lat":33.94579,"lon":-118.33238,"city":"Inglewood","state":"CA","address":"3411 W. Century Blvd.","name":""},
  {"lat":33.83114,"lon":-118.28839,"city":"Torrance","state":"CA","address":"730 W. Carson St.","name":""},
  {"lat":33.8732,"lon":-118.30729,"city":"Gardena","state":"CA","address":"1701 Artesia Blvd.","name":""},
  {"lat":34.21504,"lon":-118.44821,"city":"Van Nuys","state":"CA","address":"7930 Van Nuys Blvd.","name":""},
  {"lat":34.42546,"lon":-118.53924,"city":"Santa Clarita","state":"CA","address":"26401 Bouquet Canyon Rd.","name":""},
  {"lat":34.02646,"lon":-118.39427,"city":"Los Angeles","state":"CA","address":"9245 W. Venice Blvd.","name":""},
  {"lat":34.1521,"lon":-118.44831,"city":"Sherman Oaks","state":"CA","address":"4444 Van Nuys Blvd.","name":""},
  {"lat":34.25,"lon":-118.50196,"city":"Northridge","state":"CA","address":"9858 Balboa Blvd.","name":""},
  {"lat":33.89208,"lon":-118.36179,"city":"Redondo Beach","state":"CA","address":"3801 Inglewood Ave.","name":""},
  {"lat":33.80279,"lon":-118.32835,"city":"Torrance","state":"CA","address":"24445 Crenshaw Blvd.","name":""},
  {"lat":33.75336,"lon":-118.30862,"city":"San Pedro","state":"CA","address":"1090 N. Western Ave.","name":""},
  {"lat":33.84883,"lon":-118.35312,"city":"Torrance","state":"CA","address":"20150 Hawthorne Blvd","name":""},
  {"lat":33.95369,"lon":-118.39677,"city":"Los Angeles","state":"CA","address":"9149 S. Sepulveda Blvd.","name":""},
  {"lat":34.37714,"lon":-118.56538,"city":"Newhall","state":"CA","address":"25220 N. The Old Road","name":""},
  {"lat":34.42059,"lon":-118.58277,"city":"Valencia","state":"CA","address":"27510 The Old Road","name":""},
  {"lat":34.20186,"lon":-118.5007,"city":"Van Nuys","state":"CA","address":"7220 N. Balboa","name":""},
  {"lat":34.06306,"lon":-118.44803,"city":"Los Angeles","state":"CA","address":"922 Gayley","name":""},
  {"lat":33.92387,"lon":-118.39582,"city":"El Segundo","state":"CA","address":"600 N. Sepulveda Blvd.","name":""},
  {"lat":33.99165,"lon":-118.44626,"city":"Marina Del Rey","state":"CA","address":"13425 Washington Blvd.","name":""},
  {"lat":34.2758,"lon":-118.56807,"city":"Porter Ranch","state":"CA","address":"19901 Rinaldi St.","name":""},
  {"lat":34.23079,"lon":-118.55324,"city":"Northridge","state":"CA","address":"8830 Tampa Ave.","name":""},
  {"lat":34.17195,"lon":-118.56664,"city":"Woodland Hills","state":"CA","address":"19920 Ventura Blvd.","name":""},
  {"lat":34.19492,"lon":-118.60635,"city":"Canoga Park","state":"CA","address":"6841 Topanga Canyon Blvd.","name":""},
  {"lat":36.3569,"lon":-119.29744,"city":"Visalia","state":"CA","address":"506 W. Riggin Ave.","name":""},
  {"lat":39.53557,"lon":-119.75259,"city":"Sparks","state":"NV","address":"280 Pyramid Way","name":""},
  {"lat":36.31346,"lon":-119.31423,"city":"Visalia","state":"CA","address":"1933 S. Mooney Blvd.","name":""},
  {"lat":35.29633,"lon":-119.02855,"city":"Bakersfield","state":"CA","address":"2310 Panama Lane","name":""},
  {"lat":35.35451,"lon":-119.05794,"city":"Bakersfield","state":"CA","address":"5100 Stockdale Hwy.","name":""},
  {"lat":34.28305,"lon":-118.69094,"city":"Simi Valley","state":"CA","address":"2600 Stearns St.","name":""},
  {"lat":34.98345,"lon":-118.94828,"city":"Lebec","state":"CA","address":"5926 Dennis Mccarthy","name":""},
  {"lat":39.45201,"lon":-119.77732,"city":"Reno","state":"NV","address":"8215 S. Virginia St.","name":""},
  {"lat":36.22548,"lon":-119.32403,"city":"Tulare","state":"CA","address":"1591 E. Prosperity Ave.","name":""},
  {"lat":35.38311,"lon":-119.09086,"city":"Bakersfield","state":"CA","address":"7985 Rosedale Hwy.","name":""},
  {"lat":39.10902,"lon":-119.77493,"city":"Carson City","state":"NV","address":"957 Topsy Lane","name":""},
  {"lat":39.52879,"lon":-119.82805,"city":"Reno","state":"NV","address":"915 W. 5th Street","name":""},
  {"lat":35.74714,"lon":-119.24759,"city":"Delano","state":"CA","address":"505 Woollomes Ave.","name":""},
  {"lat":34.14764,"lon":-118.79711,"city":"Westlake Village","state":"CA","address":"30780 Russell Ranch Rd.","name":""},
  {"lat":34.28022,"lon":-118.86544,"city":"Moorpark","state":"CA","address":"856 New Los Angeles Ave.","name":""},
  {"lat":36.83692,"lon":-119.70056,"city":"Clovis","state":"CA","address":"382 N. Clovis Ave.","name":""},
  {"lat":34.18371,"lon":-118.91459,"city":"Newbury Park","state":"CA","address":"1550 Newbury Rd.","name":""},
  {"lat":36.74309,"lon":-119.69979,"city":"Fresno","state":"CA","address":"135 S. Clovis Ave.","name":""},
  {"lat":36.85229,"lon":-119.7904,"city":"Fresno","state":"CA","address":"8010 N. Blackstone Ave.","name":""},
  {"lat":36.32131,"lon":-119.67359,"city":"Hanford","state":"CA","address":"280 S. 12th Ave.","name":""},
  {"lat":36.79612,"lon":-119.78992,"city":"Fresno","state":"CA","address":"4302 N. Blackstone Ave.","name":""},
  {"lat":36.70482,"lon":-119.77024,"city":"Fresno","state":"CA","address":"2657 S. Second St.","name":""},
  {"lat":34.21722,"lon":-119.05295,"city":"Camarillo","state":"CA","address":"1316 Ventura Blvd.","name":""},
  {"lat":36.8085,"lon":-119.88316,"city":"Fresno","state":"CA","address":"5106 W. Shaw St.","name":""},
  {"lat":34.22534,"lon":-119.15536,"city":"Oxnard","state":"CA","address":"1700 East Ventura Blvd.","name":""},
  {"lat":34.23508,"lon":-119.17967,"city":"Oxnard","state":"CA","address":"381 W. Esplanade","name":""},
  {"lat":34.26841,"lon":-119.27283,"city":"Ventura","state":"CA","address":"2070 Harbor Blvd.","name":""},
  {"lat":36.97417,"lon":-120.07839,"city":"Madera","state":"CA","address":"1830 W. Cleveland Ave.","name":""},
  {"lat":35.98616,"lon":-119.95924,"city":"Kettleman City","state":"CA","address":"33464 Bernard Dr.","name":""},
  {"lat":37.29835,"lon":-120.48184,"city":"Merced","state":"CA","address":"1579 M L King Jr Way","name":""},
  {"lat":34.44289,"lon":-119.79074,"city":"Goleta","state":"CA","address":"4865 Calle Real","name":""},
  {"lat":38.72039,"lon":-120.83314,"city":"Placerville","state":"CA","address":"3055 Forni Road","name":""},
  {"lat":37.5205,"lon":-120.8817,"city":"Turlock","state":"CA","address":"3071 Countryside Dr.","name":""},
  {"lat":38.90133,"lon":-121.07483,"city":"Auburn","state":"CA","address":"130 Grass Valley Hwy.","name":""},
  {"lat":37.57993,"lon":-120.93943,"city":"Ceres","state":"CA","address":"2942 Service Road","name":""},
  {"lat":37.68864,"lon":-120.95869,"city":"Modesto","state":"CA","address":"3401 Oakdale Rd.","name":""},
  {"lat":38.64672,"lon":-121.11442,"city":"Folsom","state":"CA","address":"225 Placerville Rd.","name":""},
  {"lat":37.66949,"lon":-121.0356,"city":"Modesto","state":"CA","address":"1616 Sisk Rd.","name":""},
  {"lat":38.80166,"lon":-121.20451,"city":"Rocklin","state":"CA","address":"5490 Crossings Dr.","name":""},
  {"lat":37.6998,"lon":-121.06759,"city":"Modesto","state":"CA","address":"3900 Pelandale Ave.","name":""},
  {"lat":34.93734,"lon":-120.41884,"city":"Santa Maria","state":"CA","address":"1330 S. Bradley Road","name":""},
  {"lat":38.75825,"lon":-121.25955,"city":"Roseville","state":"CA","address":"1803 Taylor","name":""},
  {"lat":37.101,"lon":-121.0146,"city":"Santa Nella","state":"CA","address":"28900 Henry Miller Rd.","name":""},
  {"lat":38.78966,"lon":-121.28319,"city":"Roseville","state":"CA","address":"10309 Fairway Dr.","name":""},
  {"lat":38.61461,"lon":-121.26897,"city":"Rancho Cordova","state":"CA","address":"2475 Sunrise Blvd","name":""},
  {"lat":38.87275,"lon":-121.304,"city":"Lincoln","state":"CA","address":"850 Groveland Lane","name":""},
  {"lat":37.79717,"lon":-121.19248,"city":"Manteca","state":"CA","address":"1490 E. Yosemite Ave.","name":""},
  {"lat":35.49698,"lon":-120.6844,"city":"Atascadero","state":"CA","address":"6000 San Anselmo Rd.","name":""},
  {"lat":35.12729,"lon":-120.59796,"city":"Arroyo Grande","state":"CA","address":"1170 W. Branch St.","name":""},
  {"lat":38.66041,"lon":-121.3571,"city":"Sacramento","state":"CA","address":"4600 Madison Ave.","name":""},
  {"lat":38.11596,"lon":-121.3082,"city":"Lodi","state":"CA","address":"2625 W. Kettleman Ln.","name":""},
  {"lat":37.99696,"lon":-121.31452,"city":"Stockton","state":"CA","address":"5202 Pacific Ave.","name":""},
  {"lat":37.81143,"lon":-121.29806,"city":"Lathrop","state":"CA","address":"16514 Golden Valley Parkway","name":""},
  {"lat":38.42411,"lon":-121.3915,"city":"Elk Grove","state":"CA","address":"9188 E Stockton Blvd.","name":""},
  {"lat":38.59805,"lon":-121.4194,"city":"Sacramento","state":"CA","address":"2001 Alta Arden Expy.","name":""},
  {"lat":37.98471,"lon":-121.34561,"city":"Stockton","state":"CA","address":"2727 W. March Lane","name":""},
  {"lat":38.40867,"lon":-121.41279,"city":"Elk Grove","state":"CA","address":"7620 Elk Grove Blvd.","name":""},
  {"lat":38.63683,"lon":-121.50424,"city":"Sacramento","state":"CA","address":"3501 Truxel Road","name":""},
  {"lat":38.46537,"lon":-121.49298,"city":"Sacramento","state":"CA","address":"8200 Delta Shores Circle","name":""},
  {"lat":38.65535,"lon":-121.52592,"city":"Sacramento","state":"CA","address":"2900 Del Paso Rd.","name":""},
  {"lat":37.76184,"lon":-121.43377,"city":"Tracy","state":"CA","address":"575 Clover Road","name":""},
  {"lat":38.59157,"lon":-121.55012,"city":"West Sacramento","state":"CA","address":"780 Ikea Court","name":""},
  {"lat":39.13592,"lon":-121.63516,"city":"Yuba City","state":"CA","address":"1325 Sunsweet Blvd.","name":""},
  {"lat":38.67024,"lon":-121.72802,"city":"Woodland","state":"CA","address":"2011 Bronze Star Drive","name":""},
  {"lat":39.72393,"lon":-121.8068,"city":"Chico","state":"CA","address":"2050 Business Lane","name":""},
  {"lat":38.54097,"lon":-121.73722,"city":"Davis","state":"CA","address":"1020 Olive Drive","name":""},
  {"lat":37.0238,"lon":-121.56419,"city":"Gilroy","state":"CA","address":"641 Leavesley Rd.","name":""},
  {"lat":37.96115,"lon":-121.74774,"city":"Brentwood","state":"CA","address":"5581 Lone Tree Way","name":""},
  {"lat":37.15249,"lon":-121.6548,"city":"Morgan Hill","state":"CA","address":"895 Cochrane Rd.","name":""},
  {"lat":37.69939,"lon":-121.77326,"city":"Livermore","state":"CA","address":"1881 N. Livermore Ave.","name":""},
  {"lat":38.00537,"lon":-121.83634,"city":"Pittsburg","state":"CA","address":"4550 Delta Gateway Blvd.","name":""},
  {"lat":36.67993,"lon":-121.6409,"city":"Salinas","state":"CA","address":"151 Kern St.","name":""},
  {"lat":38.36646,"lon":-121.96114,"city":"Vacaville","state":"CA","address":"170 Nut Tree Pkwy.","name":""},
  {"lat":37.33009,"lon":-121.81133,"city":"San Jose","state":"CA","address":"2950 E. Capitol Expy.","name":""},
  {"lat":37.25043,"lon":-121.80391,"city":"San Jose","state":"CA","address":"5590 Cottle Road","name":""},
  {"lat":37.70022,"lon":-121.90763,"city":"Pleasanton","state":"CA","address":"6015 Johnson Dr.","name":""},
  {"lat":37.24904,"lon":-121.85943,"city":"San Jose","state":"CA","address":"5611 Santa Teresa","name":""},
  {"lat":37.77914,"lon":-121.97702,"city":"San Ramon","state":"CA","address":"2270 San Ramon Valley","name":""},
  {"lat":37.42629,"lon":-121.92238,"city":"Milpitas","state":"CA","address":"50 Ranch Drive","name":""},
  {"lat":38.25727,"lon":-122.0647,"city":"Fairfield","state":"CA","address":"1364 Holiday Lane","name":""},
  {"lat":37.3503,"lon":-121.92187,"city":"San Jose","state":"CA","address":"550 Newhall Drive","name":""},
  {"lat":37.50421,"lon":-121.97399,"city":"Fremont","state":"CA","address":"43349 Pacific Commons Blvd.","name":""},
  {"lat":37.97596,"lon":-122.06565,"city":"Pleasant Hill","state":"CA","address":"570 Contra Costa Blvd.","name":""},
  {"lat":37.388,"lon":-121.98201,"city":"Santa Clara","state":"CA","address":"3001 Mission College","name":""},
  {"lat":37.6506,"lon":-122.06777,"city":"Hayward","state":"CA","address":"709 Harder Ave.","name":""},
  {"lat":36.60592,"lon":-121.85847,"city":"Seaside","state":"CA","address":"1350 Del Monte Blvd.","name":""},
  {"lat":37.59927,"lon":-122.06561,"city":"Union City","state":"CA","address":"32060 Union Landing","name":""},
  {"lat":37.36097,"lon":-122.02497,"city":"Sunnyvale","state":"CA","address":"604 E. El Camino Real","name":""},
  {"lat":40.58532,"lon":-122.3478,"city":"Redding","state":"CA","address":"1275 Dana Drive","name":""},
  {"lat":40.53852,"lon":-122.34868,"city":"Redding","state":"CA","address":"4681 Churn Creek Rd.","name":""},
  {"lat":37.38038,"lon":-122.07402,"city":"Mountain View","state":"CA","address":"53 W. El Camino Real","name":""},
  {"lat":37.68697,"lon":-122.13113,"city":"San Leandro","state":"CA","address":"15575 Hesperian Blvd.","name":""},
  {"lat":37.42096,"lon":-122.09334,"city":"Mountain View","state":"CA","address":"1159 N. Rengstorff","name":""},
  {"lat":38.12479,"lon":-122.22787,"city":"Vallejo","state":"CA","address":"720 Admiral Callaghan Ln.","name":""},
  {"lat":38.28112,"lon":-122.27624,"city":"Napa","state":"CA","address":"820 Imola Ave.","name":""},
  {"lat":37.78372,"lon":-122.27728,"city":"Alameda","state":"CA","address":"555 Willie Stargell Ave.","name":""},
  {"lat":37.98907,"lon":-122.31071,"city":"Pinole","state":"CA","address":"1417 Fitzgerald Dr.","name":""},
  {"lat":37.49059,"lon":-122.22785,"city":"Redwood City","state":"CA","address":"949 Veterans Blvd","name":""},
  {"lat":37.51288,"lon":-122.25859,"city":"San Carlos","state":"CA","address":"445 Industrial Rd.","name":""},
  {"lat":37.60082,"lon":-122.38243,"city":"Millbrae","state":"CA","address":"11 Rollins Rd.","name":""},
  {"lat":37.80773,"lon":-122.41858,"city":"San Francisco","state":"CA","address":"333 Jefferson","name":""},
  {"lat":37.68821,"lon":-122.47202,"city":"Daly City","state":"CA","address":"260 Washington St.","name":""},
  {"lat":37.66603,"lon":-122.46904,"city":"Daly City","state":"CA","address":"372 Gellert Blvd.","name":""},
  {"lat":37.89661,"lon":-122.5155,"city":"Mill Valley","state":"CA","address":"798 Redwood Hwy.","name":""},
  {"lat":38.0897,"lon":-122.55495,"city":"Novato","state":"CA","address":"216 Vintage Way","name":""},
  {"lat":38.23457,"lon":-122.62086,"city":"Petaluma","state":"CA","address":"1010 Lakeville Hwy.","name":""},
  {"lat":38.41458,"lon":-122.71304,"city":"Santa Rosa","state":"CA","address":"2532 Santa Rosa Ave.","name":""},
  {"lat":38.46063,"lon":-122.72527,"city":"Santa Rosa","state":"CA","address":"2131 County Center Drive","name":""},
  {"lat":38.36124,"lon":-122.71419,"city":"Rohnert Park","state":"CA","address":"5145 Redwood Dr.","name":""},
  {"lat":42.34643,"lon":-122.88006,"city":"Medford","state":"OR","address":"1970 Crater Lake Hwy.","name":""},
  {"lat":39.16879,"lon":-123.2109,"city":"Ukiah","state":"CA","address":"1351 N. State St.","name":""},
  {"lat":42.4625,"lon":-123.32116,"city":"Grants Pass","state":"OR","address":"124 NE Morgan Lane","name":""},
  {"lat":43.24428,"lon":-123.35932,"city":"Roseburg","state":"OR","address":"2844 NW Aviation Dr.","name":""},
  {"lat":45.81844,"lon":-122.68858,"city":"Ridgefield","state":"WA","address":"5801 N. Pioneer Canyon Dr.","name":""},
  {"lat":45.01077,"lon":-122.99449,"city":"Keizer","state":"OR","address":"6280 Keizer Station Blvd.","name":""},
  {"lat":40.78433,"lon":-124.18331,"city":"Eureka","state":"CA","address":"2616 Broadway Street","name":""}]}