{"key":"ingles","displayName":"Ingles","category":"grocery","useLocationName":false,"locations":[
  {"lat":34.1569,"lon":-85.699738,"city":"Centre","state":"AL","address":"1550 West Main St.","name":""},
  {"lat":33.698637,"lon":-85.143194,"city":"Bremen","state":"GA","address":"2865 Music Mill Road","name":""},
  {"lat":34.878758,"lon":-84.2998,"city":"Blue Ridge","state":"GA","address":"5679 Appalachian Hwy.","name":""},
  {"lat":34.879271,"lon":-83.958168,"city":"Blairsville","state":"GA","address":"207 B Hwy. 515","name":""},
  {"lat":33.044589,"lon":-84.172423,"city":"Barnesville","state":"GA","address":"631 Veterans Parkway","name":""},
  {"lat":34.011314,"lon":-83.842441,"city":"Auburn","state":"GA","address":"1502 Atlanta Hwy.","name":""},
  {"lat":34.072061,"lon":-84.677012,"city":"Acworth","state":"GA","address":"5055 Allatoona Gateway","name":""},
  {"lat":34.603883,"lon":-83.762743,"city":"Cleveland","state":"GA","address":"55 Helen Highway","name":""},
  {"lat":34.87992,"lon":-83.396481,"city":"Clayton","state":"GA","address":"176 Hwy. 441","name":""},
  {"lat":34.599904,"lon":-83.519602,"city":"Clarkesville","state":"GA","address":"199 East Louise St","name":""},
  {"lat":34.78277,"lon":-84.789495,"city":"Chatsworth","state":"GA","address":"964 GI Maddox Pkwy","name":""},
  {"lat":34.202008,"lon":-84.802391,"city":"Cartersville","state":"GA","address":"879 Joe Frank Harris Pkwy.","name":""},
  {"lat":33.215401,"lon":-82.383453,"city":"Wrens","state":"GA","address":"633 N. Main St.","name":""},
  {"lat":36.382449,"lon":-81.487664,"city":"West","state":"NC","address":"60 Ashemont Dr.","name":""},
  {"lat":34.660098,"lon":-83.086759,"city":"Westminster","state":"SC","address":"1049 East Main Street","name":""},
  {"lat":35.589888,"lon":-84.470238,"city":"Sweetwater","state":"TN","address":"904 S. Main St.","name":""},
  {"lat":36.84452,"lon":-81.501199,"city":"Marion","state":"VA","address":"1185 N. Main St.","name":""},
  {"lat":36.049734,"lon":-83.997256,"city":"Powell","state":"TN","address":"430 Emory Rd.","name":""},
  {"lat":36.442209,"lon":-83.600696,"city":"New Tazewell","state":"TN","address":"Cumberland Gallery US 33 at 406 S. Broad St.","name":""},
  {"lat":36.19547,"lon":-83.351337,"city":"Morristown","state":"TN","address":"3980 W. Andrew Johnson Hwy.","name":""},
  {"lat":36.226384,"lon":-83.265609,"city":"Morristown","state":"TN","address":"2342 E. Andrew Johnson Hwy.","name":""},
  {"lat":35.498191,"lon":-84.386617,"city":"Madisonville","state":"TN","address":"4629 Highway 411","name":""},
  {"lat":35.80236,"lon":-84.26106,"city":"Lenoir City","state":"TN","address":"404 Highway 321 N","name":""},
  {"lat":35.982327,"lon":-84.09415,"city":"Knoxville","state":"TN","address":"7466 Oak Ridge Hwy. (Karns)","name":""},
  {"lat":36.014544,"lon":-83.96783,"city":"Knoxville","state":"TN","address":"215 Cedar Lane","name":""},
  {"lat":36.08245,"lon":-83.930032,"city":"Knoxville","state":"TN","address":"7220 Norris Fwy","name":""},
  {"lat":36.481387,"lon":-82.497514,"city":"Kingsport","state":"TN","address":"4345 Ft. Henry Dr.","name":""},
  {"lat":36.2932,"lon":-82.496654,"city":"Jonesborough","state":"TN","address":"1200 W. Jackson Blvd.","name":""},
  {"lat":36.383602,"lon":-82.409312,"city":"Johnson City","state":"TN","address":"4470 N. Roan St.","name":""},
  {"lat":35.067192,"lon":-85.638453,"city":"Jasper","state":"TN","address":"Valley Plaza US 41 at East Valley Rd.","name":""},
  {"lat":36.144579,"lon":-82.846311,"city":"Greeneville","state":"TN","address":"615 Asheville Hwy","name":""},
  {"lat":36.182994,"lon":-82.774442,"city":"Greeneville","state":"TN","address":"2845 E. Andrew Johnson Hwy.","name":""},
  {"lat":35.87456,"lon":-84.175572,"city":"Farragut","state":"TN","address":"11847 Kingston Pike","name":""},
  {"lat":36.351258,"lon":-82.233127,"city":"Elizabethton","state":"TN","address":"768 W. Elk Ave.","name":""},
  {"lat":36.091611,"lon":-84.13166,"city":"Clinton","state":"TN","address":"190 Clinch Ave","name":""},
  {"lat":35.448285,"lon":-84.610626,"city":"Athens","state":"TN","address":"917 Decatur Pike","name":""},
  {"lat":34.75373,"lon":-83.045693,"city":"West","state":"SC","address":"180 Scenic Plaza Dr","name":""},
  {"lat":34.995061,"lon":-82.471747,"city":"Travelers Rest","state":"SC","address":"1500 Geer Hwy.","name":""},
  {"lat":35.002234,"lon":-82.007167,"city":"Spartanburg","state":"SC","address":"8650 Asheville Hwy","name":""},
  {"lat":34.934272,"lon":-81.895214,"city":"Spartanburg","state":"SC","address":"2000 S. Pine St.","name":""},
  {"lat":35.023277,"lon":-81.96202,"city":"Spartanburg","state":"SC","address":"2120 Boiling Springs Rd.","name":""},
  {"lat":35.027726,"lon":-81.896722,"city":"Spartanburg","state":"SC","address":"2375 Chesnee Hwy.","name":""},
  {"lat":34.935616,"lon":-82.006998,"city":"Spartanburg","state":"SC","address":"8004 Warren H Abernathy Hwy","name":""},
  {"lat":34.974074,"lon":-81.881003,"city":"Spartanburg","state":"SC","address":"2795 E. Main St.","name":""},
  {"lat":34.709616,"lon":-82.256489,"city":"Simpsonville","state":"SC","address":"621 Fairview Rd.","name":""},
  {"lat":34.700196,"lon":-82.938582,"city":"Seneca","state":"SC","address":"211 Ingles Place - US 76/123 and SC 28/130","name":""},
  {"lat":34.783741,"lon":-82.484713,"city":"Piedmont","state":"SC","address":"10903 Anderson Rd.","name":""},
  {"lat":34.720535,"lon":-82.388806,"city":"Piedmont","state":"SC","address":"7616 Augusta Rd","name":""},
  {"lat":34.893116,"lon":-82.708986,"city":"Pickens","state":"SC","address":"502-A Ann St.","name":""},
  {"lat":34.777607,"lon":-82.311909,"city":"Mauldin","state":"SC","address":"116 W. Butler Rd.","name":""},
  {"lat":34.789411,"lon":-82.688992,"city":"Liberty","state":"SC","address":"429 East Main St.","name":""},
  {"lat":34.493459,"lon":-81.98347,"city":"Laurens","state":"SC","address":"901 East Main St","name":""},
  {"lat":35.180412,"lon":-82.163072,"city":"Landrum","state":"SC","address":"1851 Hwy. 14E (at I-26)","name":""},
  {"lat":35.064296,"lon":-81.999103,"city":"Inman","state":"SC","address":"4600 Hwy 9","name":""},
  {"lat":34.94875,"lon":-82.273613,"city":"Greer","state":"SC","address":"1524 Locust Hill Road","name":""},
  {"lat":34.867923,"lon":-82.465328,"city":"Greenville","state":"SC","address":"6605 White Horse Rd","name":""},
  {"lat":34.894251,"lon":-82.409069,"city":"Greenville","state":"SC","address":"1500 Poinsett Hwy.","name":""},
  {"lat":34.904215,"lon":-82.34907,"city":"Greenville","state":"SC","address":"1335 Stallings Rd.","name":""},
  {"lat":35.08379,"lon":-81.63999,"city":"Gaffney","state":"SC","address":"410 W. Third St.","name":""},
  {"lat":35.09298,"lon":-81.665534,"city":"Gaffney","state":"SC","address":"1627 W. Floyd Baker Blvd.","name":""},
  {"lat":34.824761,"lon":-82.555475,"city":"Easley","state":"SC","address":"5251 Calhoun Memorial Hwy","name":""},
  {"lat":34.802048,"lon":-82.599855,"city":"Easley","state":"SC","address":"410 Pelzer Hwy. (at SC 8)","name":""},
  {"lat":34.888725,"lon":-82.07124,"city":"Duncan","state":"SC","address":"2120 E. Main St.","name":""},
  {"lat":34.453302,"lon":-81.87593,"city":"Clinton","state":"SC","address":"312 Jacobs Hwy.","name":""},
  {"lat":34.681468,"lon":-82.836424,"city":"Clemson","state":"SC","address":"854 Old Greenville Highway","name":""},
  {"lat":34.516073,"lon":-82.483637,"city":"Belton","state":"SC","address":"426 S. Main St.","name":""},
  {"lat":34.508658,"lon":-82.746334,"city":"Anderson","state":"SC","address":"4396 SC-24","name":""},
  {"lat":34.562716,"lon":-82.626631,"city":"Anderson","state":"SC","address":"2404 Hwy. 81","name":""},
  {"lat":34.521579,"lon":-82.656153,"city":"Anderson","state":"SC","address":"1900 N. Main St.","name":""},
  {"lat":34.188025,"lon":-82.399784,"city":"Abbeville","state":"SC","address":"1507 N. Main St.","name":""},
  {"lat":35.703956,"lon":-82.568682,"city":"Weaverville","state":"NC","address":"140 Weaver Blvd.","name":""},
  {"lat":35.505035,"lon":-82.986748,"city":"Waynesville","state":"NC","address":"201 Barber Blvd.","name":""},
  {"lat":35.470471,"lon":-83.005887,"city":"Waynesville","state":"NC","address":"1670 Brown Ave.","name":""},
  {"lat":36.296503,"lon":-80.140697,"city":"Walnut Cove","state":"NC","address":"802 S. Main Street","name":""},
  {"lat":35.857711,"lon":-80.074824,"city":"Thomasville","state":"NC","address":"1122 Randolph St. - Suite 106","name":""},
  {"lat":35.345619,"lon":-83.212613,"city":"Sylva","state":"NC","address":"19 Webster Rd.","name":""},
  {"lat":35.598079,"lon":-82.408054,"city":"Swannanoa","state":"NC","address":"2299 U.S. 70","name":""},
  {"lat":35.845099,"lon":-81.014708,"city":"Statesville","state":"NC","address":"3219 Taylorsville Rd.","name":""},
  {"lat":35.806393,"lon":-80.875929,"city":"Statesville","state":"NC","address":"722 Sullivan Rd.","name":""},
  {"lat":35.914577,"lon":-82.074762,"city":"Spruce Pine","state":"NC","address":"125 Greenwood Rd.","name":""},
  {"lat":35.245784,"lon":-81.509416,"city":"Shelby","state":"NC","address":"1523 S. Post Rd.","name":""},
  {"lat":35.296706,"lon":-81.57244,"city":"Shelby","state":"NC","address":"1818 W. Dixon Blvd.","name":""},
  {"lat":35.273378,"lon":-81.528614,"city":"Shelby","state":"NC","address":"706 E Dixon Blvd","name":""},
  {"lat":35.320106,"lon":-81.51738,"city":"Shelby","state":"NC","address":"1305 Fallston Rd.","name":""},
  {"lat":35.322363,"lon":-83.798726,"city":"Robbinsville","state":"NC","address":"2 Sweetwater Rd.","name":""},
  {"lat":36.077858,"lon":-81.911799,"city":"Newland","state":"NC","address":"955B Cranberry St","name":""},
  {"lat":35.105692,"lon":-84.006542,"city":"Murphy","state":"NC","address":"2060 U.S. 19","name":""},
  {"lat":35.736014,"lon":-81.713514,"city":"Morganton","state":"NC","address":"120 Carbon City Rd.","name":""},
  {"lat":35.399381,"lon":-82.57128,"city":"Mills River","state":"NC","address":"3338 Boylston Hwy","name":""},
  {"lat":35.813481,"lon":-82.67077,"city":"Marshall","state":"NC","address":"5580 Hwy. 25/70","name":""},
  {"lat":35.823592,"lon":-82.544651,"city":"Mars Hill","state":"NC","address":"225 Carl Eller Rd","name":""},
  {"lat":35.679488,"lon":-82.011591,"city":"Marion","state":"NC","address":"625 W. Henderson St.","name":""},
  {"lat":35.478086,"lon":-81.221634,"city":"Lincolnton","state":"NC","address":"2130 East Main Street","name":""},
  {"lat":35.40614,"lon":-82.1961,"city":"Lake Lure","state":"NC","address":"276 Nc Highway 9","name":""},
  {"lat":35.244356,"lon":-81.404065,"city":"Kings Mountain","state":"NC","address":"2111 Shelby Road","name":""},
  {"lat":35.336932,"lon":-82.471274,"city":"Hendersonville","state":"NC","address":"1980 Asheville Hwy","name":""},
  {"lat":35.350378,"lon":-82.432962,"city":"Hendersonville","state":"NC","address":"3643 Howard Gap Rd. (at Hwy 64)","name":""},
  {"lat":35.30585,"lon":-82.456036,"city":"Hendersonville","state":"NC","address":"625 Spartanburg Hwy","name":""},
  {"lat":35.322262,"lon":-82.490895,"city":"Hendersonville","state":"NC","address":"1705 Brevard Rd","name":""},
  {"lat":35.035023,"lon":-83.825646,"city":"Hayesville","state":"NC","address":"230 Highway 64","name":""},
  {"lat":35.803788,"lon":-81.531383,"city":"Granite Falls","state":"NC","address":"2630 Connelly Springs Rd.","name":""},
  {"lat":35.184227,"lon":-83.354081,"city":"Franklin","state":"NC","address":"327 Holly Springs Plaza","name":""},
  {"lat":35.16537,"lon":-83.402257,"city":"Franklin","state":"NC","address":"1257 Georgia Rd","name":""},
  {"lat":35.178851,"lon":-83.386898,"city":"Franklin","state":"NC","address":"152 West Palmer St.","name":""},
  {"lat":35.322291,"lon":-81.881855,"city":"Forest City","state":"NC","address":"756 S Church St","name":""},
  {"lat":35.441108,"lon":-82.513595,"city":"Fletcher","state":"NC","address":"2901 Hendersonville Rd.","name":""},
  {"lat":35.286434,"lon":-82.439367,"city":"Flat Rock","state":"NC","address":"220 North Highland Lake Road","name":""},
  {"lat":35.317269,"lon":-82.605251,"city":"Etowah","state":"NC","address":"6400 Brevard Rd.","name":""},
  {"lat":36.285392,"lon":-80.852759,"city":"Elkin","state":"NC","address":"2095 N. Bridge St.","name":""},
  {"lat":35.316386,"lon":-81.18554,"city":"Dallas","state":"NC","address":"715 W Trade St","name":""},
  {"lat":35.10901,"lon":-83.113499,"city":"Cashiers","state":"NC","address":"203 Highway 64 East","name":""},
  {"lat":35.552238,"lon":-82.850675,"city":"Canton","state":"NC","address":"1465 Champion Dr.","name":""},
  {"lat":35.542532,"lon":-82.656727,"city":"Candler","state":"NC","address":"1572 Sand Hill Road","name":""},
  {"lat":35.914334,"lon":-82.290942,"city":"Burnsville","state":"NC","address":"400 E US Hwy 19","name":""},
  {"lat":35.419916,"lon":-83.452571,"city":"Bryson City","state":"NC","address":"19/23 at Hughes Branch Rd.","name":""},
  {"lat":35.241578,"lon":-82.727474,"city":"Brevard","state":"NC","address":"684 N. Broad St.","name":""},
  {"lat":36.205861,"lon":-81.696699,"city":"Boone","state":"NC","address":"2575 Hwy 105","name":""},
  {"lat":35.256519,"lon":-81.667074,"city":"Boiling Springs","state":"NC","address":"214 N. Main St.","name":""},
  {"lat":35.608821,"lon":-82.321237,"city":"Black Mountain","state":"NC","address":"550 Hwy. 9","name":""},
  {"lat":35.287357,"lon":-81.26054,"city":"Bessemer City","state":"NC","address":"1205 Gastonia Hwy","name":""},
  {"lat":35.565086,"lon":-82.629161,"city":"Asheville","state":"NC","address":"153 Smokey Park Highway","name":""},
  {"lat":35.630653,"lon":-82.552067,"city":"Asheville","state":"NC","address":"915 Merrimon Ave.","name":""},
  {"lat":35.595647,"lon":-82.535513,"city":"Asheville","state":"NC","address":"29 Tunnel Rd.","name":""},
  {"lat":35.585546,"lon":-82.487794,"city":"Asheville","state":"NC","address":"1141 Tunnel Rd.","name":""},
  {"lat":35.545296,"lon":-82.531842,"city":"Asheville","state":"NC","address":"780 Hendersonville Rd.","name":""},
  {"lat":35.530846,"lon":-82.607439,"city":"Asheville","state":"NC","address":"863 Brevard Road","name":""},
  {"lat":35.588004,"lon":-82.596978,"city":"Asheville","state":"NC","address":"7 Leicester Hwy.","name":""},
  {"lat":35.578973,"lon":-82.590914,"city":"Asheville","state":"NC","address":"669 Haywood Rd.","name":""},
  {"lat":35.673002,"lon":-82.580333,"city":"Asheville","state":"NC","address":"499 Weaverville Rd.","name":""},
  {"lat":35.619233,"lon":-82.621869,"city":"Asheville","state":"NC","address":"575 New Leicester Hwy","name":""},
  {"lat":35.550302,"lon":-82.469372,"city":"Asheville","state":"NC","address":"225 Charlotte Hwy","name":""},
  {"lat":35.500485,"lon":-82.523966,"city":"Asheville","state":"NC","address":"1865 Hendersonville Rd.","name":""},
  {"lat":35.449943,"lon":-82.530531,"city":"Arden","state":"NC","address":"352 Airport Rd","name":""},
  {"lat":35.480379,"lon":-82.549474,"city":"Arden","state":"NC","address":"301 Long Shoals Road","name":""},
  {"lat":35.199658,"lon":-83.82858,"city":"Andrews","state":"NC","address":"US 19 / 129 (Main St.)","name":""},
  {"lat":35.338642,"lon":-80.203268,"city":"Albemarle","state":"NC","address":"636 NC 24 27 Byp E","name":""},
  {"lat":32.984659,"lon":-84.574242,"city":"Woodbury","state":"GA","address":"11078 Millarden Rd.","name":""},
  {"lat":34.003096,"lon":-83.707285,"city":"Winder","state":"GA","address":"285 N. Broad St.","name":""},
  {"lat":33.728399,"lon":-82.717726,"city":"Washington","state":"GA","address":"110 Ann Denard Dr","name":""},
  {"lat":33.7264,"lon":-84.93956,"city":"Villa Rica","state":"GA","address":"98 Hwy. 61 Connector","name":""},
  {"lat":34.867981,"lon":-85.510449,"city":"Trenton","state":"GA","address":"12078 S Main Street","name":""},
  {"lat":34.56,"lon":-83.319,"city":"Toccoa","state":"GA","address":"757 Big A Rd S","name":""},
  {"lat":32.897998,"lon":-84.328242,"city":"Thomaston","state":"GA","address":"730 N Church St","name":""},
  {"lat":33.723416,"lon":-85.027806,"city":"Temple","state":"GA","address":"488 Carrollton St","name":""},
  {"lat":34.47398,"lon":-85.35118,"city":"Summerville","state":"GA","address":"416 Highway 114","name":""},
  {"lat":33.786946,"lon":-84.195111,"city":"Stone Mountain","state":"GA","address":"4815 Rockbridge Rd.","name":""},
  {"lat":33.526902,"lon":-84.269485,"city":"Stockbridge","state":"GA","address":"3701 Walt Stephens Road","name":""},
  {"lat":34.010165,"lon":-85.041658,"city":"Rockmart","state":"GA","address":"1100 Nathan Dean Hwy.","name":""},
  {"lat":34.915264,"lon":-85.123924,"city":"Ringgold","state":"GA","address":"5044 Alabama Road","name":""},
  {"lat":33.984106,"lon":-84.213511,"city":"Peachtree Corners","state":"GA","address":"5075 Peachtree Pkwy","name":""},
  {"lat":33.303517,"lon":-83.701702,"city":"Monticello","state":"GA","address":"2340 Hwy. 16 West","name":""},
  {"lat":33.569759,"lon":-83.477651,"city":"Madison","state":"GA","address":"1441 Eatonton Rd","name":""},
  {"lat":33.00602,"lon":-82.396323,"city":"Louisville","state":"GA","address":"131 US 1 North ByPass","name":""},
  {"lat":33.834712,"lon":-83.895201,"city":"Loganville","state":"GA","address":"4565 Atlanta Hwy","name":""},
  {"lat":33.353268,"lon":-84.123568,"city":"Locust Grove","state":"GA","address":"4920 Bill Gardner Parkway","name":""},
  {"lat":33.856377,"lon":-84.140336,"city":"Lilburn","state":"GA","address":"650 Rockbridge Rd.","name":""},
  {"lat":34.465589,"lon":-84.4498,"city":"Jasper","state":"GA","address":"1449 W. Church St.","name":""},
  {"lat":33.292178,"lon":-83.986219,"city":"Jackson","state":"GA","address":"1305 W. 3rd St.","name":""},
  {"lat":34.032528,"lon":-83.315165,"city":"Hull","state":"GA","address":"9161 Hwy. 29","name":""},
  {"lat":33.165895,"lon":-84.88859,"city":"Hogansville","state":"GA","address":"1890 E. Main St.","name":""},
  {"lat":34.949079,"lon":-83.757523,"city":"Hiawassee","state":"GA","address":"94 N. Main St.","name":""},
  {"lat":34.354751,"lon":-82.91217,"city":"Hartwell","state":"GA","address":"1000 E. Franklin St.","name":""},
  {"lat":33.196806,"lon":-84.283141,"city":"Griffin","state":"GA","address":"1735 Zebulon Rd.","name":""},
  {"lat":33.579239,"lon":-83.169155,"city":"Greensboro","state":"GA","address":"1480 E. Broad St.","name":""},
  {"lat":33.008813,"lon":-83.535781,"city":"Gray","state":"GA","address":"261 W Clinton St","name":""},
  {"lat":34.362781,"lon":-83.86626,"city":"Gainesville","state":"GA","address":"1514, 3320 Thompson Bridge Rd #440","name":""},
  {"lat":33.035066,"lon":-83.932017,"city":"Forsyth","state":"GA","address":"260 Tift College Dr.","name":""},
  {"lat":34.189496,"lon":-83.856421,"city":"Flowery Branch","state":"GA","address":"4260 Winder Highway","name":""},
  {"lat":33.428915,"lon":-84.448837,"city":"Fayetteville","state":"GA","address":"135 Hwy. 92 South ( at GA 85)","name":""},
  {"lat":34.684028,"lon":-84.475611,"city":"Ellijay","state":"GA","address":"100 Old Orchard Square","name":""},
  {"lat":33.620312,"lon":-84.239996,"city":"Ellenwood","state":"GA","address":"100 Fairview Rd.","name":""},
  {"lat":34.091787,"lon":-82.847221,"city":"Elberton","state":"GA","address":"901 Lower Heard St.","name":""},
  {"lat":33.3196,"lon":-83.409627,"city":"Eatonton","state":"GA","address":"754 Monticello Rd.","name":""},
  {"lat":33.746538,"lon":-84.697264,"city":"Douglasville","state":"GA","address":"2175 Fairburn Rd","name":""},
  {"lat":33.837452,"lon":-84.8296,"city":"Douglasville","state":"GA","address":"1817 Dallas Nebo Rd","name":""},
  {"lat":34.3639,"lon":-84.041024,"city":"Dawsonville","state":"GA","address":"118 S. 400 Center Lane","name":""},
  {"lat":33.915557,"lon":-84.829445,"city":"Dallas","state":"GA","address":"270 Merchants Square Dr.","name":""},
  {"lat":34.162567,"lon":-84.174897,"city":"Cumming","state":"GA","address":"6055 Bethelview Rd.","name":""},
  {"lat":34.216934,"lon":-84.150557,"city":"Cumming","state":"GA","address":"436 Canton Rd.","name":""},
  {"lat":34.236,"lon":-84.18,"city":"Cumming","state":"GA","address":"2835 Keith Bridge Rd.","name":""},
  {"lat":33.605513,"lon":-83.875919,"city":"Covington","state":"GA","address":"7173 Turner Lake Rd.","name":""},
  {"lat":33.599094,"lon":-83.83293,"city":"Covington","state":"GA","address":"9176 Hwy. 278 NE","name":""},
  {"lat":34.510755,"lon":-83.543539,"city":"Cornelia","state":"GA","address":"199 Habersham County S/C. (US 441)","name":""},
  {"lat":33.62615,"lon":-83.977283,"city":"Conyers","state":"GA","address":"2455 Salem Road South East","name":""},
  {"lat":34.201416,"lon":-83.45554,"city":"Commerce","state":"GA","address":"220 Highway 334","name":""},
  {"lat":34.247004,"lon":-84.845772,"city":"Cartersville","state":"GA","address":"825 West Ave.","name":""},
  {"lat":33.599462,"lon":-85.079125,"city":"Carrollton","state":"GA","address":"1124 N. Park St.","name":""},
  {"lat":34.243727,"lon":-84.491451,"city":"Canton","state":"GA","address":"104 Riverstone Pkwy","name":""}]}