{"key":"irving","displayName":"Irving","category":"gas_station","useLocationName":false,"locations":[
  {"lat":42.7401,"lon":-71.426,"city":"Hudson","state":"NH","address":"4 Executive Dr","name":""},
  {"lat":42.7401,"lon":-71.426,"city":"Hudson","state":"NH","address":"4 Executive Dr","name":""},
  {"lat":42.884899,"lon":-72.54384,"city":"Chesterfield","state":"NH","address":"85 Route 9","name":""},
  {"lat":42.948835,"lon":-72.319989,"city":"Keene","state":"NH","address":"650 Park Ave","name":""},
  {"lat":44.916264,"lon":-69.262853,"city":"Corinna","state":"ME","address":"60 Newport Rd","name":""},
  {"lat":44.910572,"lon":-69.4112,"city":"Saint Albans","state":"ME","address":"6 Main St","name":""},
  {"lat":44.519773,"lon":-72.001505,"city":"Lyndonville","state":"VT","address":"12 Broad St","name":""},
  {"lat":42.866849,"lon":-72.335411,"city":"Swanzey","state":"NH","address":"765 NH-10","name":""},
  {"lat":45.874191,"lon":-68.416101,"city":"Sherman","state":"ME","address":"P.O. BOX 407","name":""},
  {"lat":44.594591,"lon":-69.618292,"city":"Fairfield","state":"ME","address":"204 CENTER ROAD, EXIT 133","name":""},
  {"lat":45.221941,"lon":-67.569119,"city":"Princeton","state":"ME","address":"87 MAIN STREET","name":""},
  {"lat":45.609939,"lon":-68.524208,"city":"Medway","state":"ME","address":"1941 MEDWAY ROAD","name":""},
  {"lat":43.685712,"lon":-70.328218,"city":"Portland","state":"ME","address":"270 RIVERSIDE ST","name":""},
  {"lat":44.3241,"lon":-69.8651,"city":"Manchester","state":"ME","address":"759 Western Ave","name":""},
  {"lat":43.985,"lon":-69.6969,"city":"Wiscasset","state":"ME","address":"639 Bath Rd","name":""},
  {"lat":44.764857,"lon":-68.706557,"city":"Holden","state":"ME","address":"87 MAIN RD","name":""},
  {"lat":44.785594,"lon":-69.731386,"city":"Skowhegan","state":"ME","address":"374 MADISON AVE","name":""},
  {"lat":43.583943,"lon":-70.361732,"city":"Scarborough","state":"ME","address":"401 US ROUTE 1","name":""},
  {"lat":44.348623,"lon":-69.796071,"city":"Augusta","state":"ME","address":"284 CIVIC CENTER DR","name":""},
  {"lat":45.362301,"lon":-68.515862,"city":"Lincoln","state":"ME","address":"114 WEST BROADWAY","name":""},
  {"lat":43.478186,"lon":-70.493858,"city":"Biddeford","state":"ME","address":"513 ALFRED RD","name":""},
  {"lat":43.099384,"lon":-70.747135,"city":"Kittery","state":"ME","address":"103 RTE 1 BYPASS, I-95 EXIT 2","name":""},
  {"lat":44.034695,"lon":-70.26681,"city":"Auburn","state":"ME","address":"1813 WASHINGTON ST, I-95 EXIT 75","name":""},
  {"lat":43.040513,"lon":-71.065125,"city":"Epping","state":"NH","address":"249 CALEF HWY","name":""},
  {"lat":44.335377,"lon":-69.759206,"city":"Augusta","state":"ME","address":"5 Denali Way","name":""},
  {"lat":44.594547,"lon":-69.617937,"city":"Fairfield","state":"ME","address":"204 Centre Rd","name":""},
  {"lat":44.538936,"lon":-68.317704,"city":"Hancock","state":"ME","address":"750 Us Route 1","name":""},
  {"lat":44.829665,"lon":-68.740943,"city":"Bangor","state":"ME","address":"633 Hogan Rd","name":""},
  {"lat":43.862582,"lon":-70.10605,"city":"Freeport","state":"ME","address":"57 Mallett Dr","name":""},
  {"lat":43.842171,"lon":-70.119107,"city":"Freeport","state":"ME","address":"574 Us Route 1","name":""},
  {"lat":44.014295,"lon":-70.361686,"city":"Poland","state":"ME","address":"4 Spring Water Rd","name":""},
  {"lat":44.166761,"lon":-68.691926,"city":"Stonington","state":"ME","address":"1 Burnt Cove Rd","name":""},
  {"lat":44.217478,"lon":-68.67473,"city":"Deer Isle","state":"ME","address":"107 Church St","name":""},
  {"lat":44.590551,"lon":-69.595189,"city":"Fairfield","state":"ME","address":"227 Main St","name":""},
  {"lat":44.761837,"lon":-69.564772,"city":"Canaan","state":"ME","address":"247 Main St","name":""},
  {"lat":44.479935,"lon":-69.509506,"city":"China","state":"ME","address":"1390 Lakeview Dr","name":""},
  {"lat":44.603485,"lon":-69.659597,"city":"Fairfield","state":"ME","address":"149 Norridgewock Rd","name":""},
  {"lat":45.123068,"lon":-67.348841,"city":"Baileyville","state":"ME","address":"32 Houlton Rd","name":""},
  {"lat":45.609737,"lon":-68.523788,"city":"Medway","state":"ME","address":"1941 Medway Rd","name":""},
  {"lat":43.881325,"lon":-70.465297,"city":"Raymond","state":"ME","address":"1239 Roosevelt Trail","name":""},
  {"lat":46.143084,"lon":-67.840147,"city":"Houlton","state":"ME","address":"267 North Street, I-95 Exit 302","name":""},
  {"lat":44.322658,"lon":-69.84615,"city":"Manchester","state":"ME","address":"759 Western Ave","name":""},
  {"lat":45.874425,"lon":-68.416836,"city":"Sherman","state":"ME","address":"18 Main St","name":""},
  {"lat":44.119604,"lon":-69.101996,"city":"Rockland","state":"ME","address":"136 Camden St","name":""},
  {"lat":43.039005,"lon":-71.161958,"city":"Raymond","state":"NH","address":"51 ROUTE 27","name":""},
  {"lat":43.616364,"lon":-71.638432,"city":"New Hampton","state":"NH","address":"290 ROUTE 104","name":""},
  {"lat":43.176255,"lon":-71.529913,"city":"Bow Junction","state":"NH","address":"500 ROUTE 3A, I-93 EXIT 12S","name":""},
  {"lat":44.396613,"lon":-71.194163,"city":"Gorham","state":"NH","address":"350 MAIN STREET","name":""},
  {"lat":43.289242,"lon":-71.833521,"city":"Warner","state":"NH","address":"32 Route 103 West at I-89","name":""},
  {"lat":42.729311,"lon":-71.209967,"city":"Methuen","state":"MA","address":"181 PELHAM ST","name":""},
  {"lat":43.26426,"lon":-72.437267,"city":"Springfield","state":"VT","address":"14 MISSING LINK RD, I-91 EXIT 7","name":""},
  {"lat":44.212485,"lon":-72.575546,"city":"Berlin","state":"VT","address":"159 Paine Turnpike North","name":""},
  {"lat":42.544646,"lon":-71.874956,"city":"Westminster","state":"MA","address":"21 VILLAGE INN RD","name":""},
  {"lat":44.539097,"lon":-68.416206,"city":"Ellsworth","state":"ME","address":"85 High St","name":""},
  {"lat":44.714404,"lon":-67.458093,"city":"Machias","state":"ME","address":"8 Main St","name":""},
  {"lat":44.405115,"lon":-68.99073,"city":"Belfast","state":"ME","address":"209 Northport Ave","name":""},
  {"lat":44.818269,"lon":-68.774376,"city":"Bangor","state":"ME","address":"489 Broadway","name":""},
  {"lat":45.18097,"lon":-67.25982,"city":"Calais","state":"ME","address":"691 Main St","name":""},
  {"lat":44.797583,"lon":-68.760493,"city":"Brewer","state":"ME","address":"304 N Main St","name":""},
  {"lat":45.222116,"lon":-67.569596,"city":"Princeton","state":"ME","address":"87 Main St","name":""},
  {"lat":43.685558,"lon":-70.328583,"city":"Portland","state":"ME","address":"270 Riverside St","name":""},
  {"lat":45.183475,"lon":-69.251892,"city":"Dover-Foxcroft","state":"ME","address":"1021 W Main St","name":""},
  {"lat":43.629366,"lon":-70.293875,"city":"South Portland","state":"ME","address":"327 Main St","name":""},
  {"lat":44.787881,"lon":-68.778404,"city":"Bangor","state":"ME","address":"545 Main St","name":""},
  {"lat":44.906032,"lon":-68.688755,"city":"Orono","state":"ME","address":"2 Stillwater Ave","name":""},
  {"lat":45.184396,"lon":-67.282547,"city":"Calais","state":"ME","address":"175 North St","name":""},
  {"lat":43.91193,"lon":-69.995645,"city":"Brunswick","state":"ME","address":"205 Pleasant St","name":""},
  {"lat":44.619994,"lon":-67.798653,"city":"Harrington","state":"ME","address":"1141 E Main St","name":""},
  {"lat":44.663892,"lon":-70.148794,"city":"Farmington","state":"ME","address":"309 Main St","name":""},
  {"lat":44.101616,"lon":-69.380859,"city":"Waldoboro","state":"ME","address":"1555 Atlantic Hwy","name":""},
  {"lat":44.12051,"lon":-70.203243,"city":"Lewiston","state":"ME","address":"674 Main St","name":""},
  {"lat":43.633571,"lon":-70.314576,"city":"South Portland","state":"ME","address":"474 Westbrook St","name":""},
  {"lat":44.22276,"lon":-70.514599,"city":"South Paris","state":"ME","address":"32 Main St","name":""},
  {"lat":43.862362,"lon":-69.627335,"city":"Boothbay Harbor","state":"ME","address":"199 Townsend Ave","name":""},
  {"lat":43.649054,"lon":-70.333418,"city":"Portland","state":"ME","address":"2282 Congress St","name":""},
  {"lat":42.899763,"lon":-72.429777,"city":"Spofford","state":"NH","address":"1474 Route 9","name":""},
  {"lat":43.422743,"lon":-71.999542,"city":"New London","state":"NH","address":"220 Newport Rd.","name":""},
  {"lat":43.431925,"lon":-72.065769,"city":"Georges Mills","state":"NH","address":"1281 Route 11","name":""},
  {"lat":43.436619,"lon":-71.822372,"city":"Andover","state":"NH","address":"193 Main Street","name":""},
  {"lat":44.081612,"lon":-70.256889,"city":"Auburn","state":"ME","address":"700 Minot Ave","name":""},
  {"lat":43.975711,"lon":-69.708791,"city":"Wiscasset","state":"ME","address":"639 Bath Rd","name":""},
  {"lat":43.305053,"lon":-70.584787,"city":"Wells","state":"ME","address":"1045 Post Rd","name":""},
  {"lat":44.797848,"lon":-69.880938,"city":"Madison","state":"ME","address":"92 Main St","name":""},
  {"lat":44.544959,"lon":-69.676684,"city":"Waterville","state":"ME","address":"445 Kennedy Memorial Dr","name":""},
  {"lat":44.34914,"lon":-69.796247,"city":"Augusta","state":"ME","address":"284 Civic Center Dr","name":""},
  {"lat":43.619347,"lon":-70.30617,"city":"South Portland","state":"ME","address":"690 Main St","name":""},
  {"lat":44.785711,"lon":-69.731662,"city":"Skowhegan","state":"ME","address":"374 Madison Ave","name":""},
  {"lat":45.657469,"lon":-68.691877,"city":"Millinocket","state":"ME","address":"719 Central Avenue","name":""},
  {"lat":44.424946,"lon":-70.797358,"city":"Bethel","state":"ME","address":"211 Mayville Rd","name":""},
  {"lat":43.638509,"lon":-72.264672,"city":"Lebanon","state":"NH","address":"119 Mechanic St","name":""},
  {"lat":46.136308,"lon":-67.839541,"city":"Houlton","state":"ME","address":"112 North St","name":""},
  {"lat":43.040105,"lon":-71.470817,"city":"Hooksett","state":"NH","address":"28 W River Rd","name":""},
  {"lat":43.586095,"lon":-71.206588,"city":"Wolfeboro","state":"NH","address":"28 Center St., Route 28","name":""},
  {"lat":43.121399,"lon":-71.441793,"city":"Allenstown","state":"NH","address":"24 Allenstown Rd","name":""},
  {"lat":42.929044,"lon":-71.46077,"city":"Bedford","state":"NH","address":"4 Technology Dr","name":""},
  {"lat":43.029063,"lon":-71.440579,"city":"Hooksett","state":"NH","address":"6 Bell Ave","name":""},
  {"lat":42.818874,"lon":-71.413928,"city":"Hudson","state":"NH","address":"329 Derry Rd","name":""},
  {"lat":44.781203,"lon":-71.137778,"city":"Errol","state":"NH","address":"25 Main St","name":""},
  {"lat":42.974848,"lon":-71.513835,"city":"Bedford","state":"NH","address":"8 White Ave","name":""},
  {"lat":44.566785,"lon":-71.550482,"city":"Northumberland","state":"NH","address":"611 Lancaster Rd","name":""},
  {"lat":43.042026,"lon":-71.304181,"city":"Candia","state":"NH","address":"285 Old Candia Rd","name":""},
  {"lat":43.199162,"lon":-71.551735,"city":"Concord","state":"NH","address":"190 Pleasant St","name":""},
  {"lat":43.109842,"lon":-71.475688,"city":"Hooksett","state":"NH","address":"530 West River Rd","name":""},
  {"lat":43.444513,"lon":-71.475707,"city":"Belmont","state":"NH","address":"944 Laconia Rd","name":""},
  {"lat":43.259712,"lon":-71.580429,"city":"Concord","state":"NH","address":"114 Fisherville Rd","name":""},
  {"lat":43.362131,"lon":-72.171614,"city":"Newport","state":"NH","address":"27 S Main St","name":""},
  {"lat":44.280337,"lon":-71.686319,"city":"Bethlehem","state":"NH","address":"2164 Main St","name":""},
  {"lat":43.616182,"lon":-71.63864,"city":"New Hampton","state":"NH","address":"290 Route 104","name":""},
  {"lat":43.040548,"lon":-71.065117,"city":"Epping","state":"NH","address":"249 Calef Hwy","name":""},
  {"lat":43.047613,"lon":-71.461246,"city":"Hooksett","state":"NH","address":"86 W River Rd","name":""},
  {"lat":43.195171,"lon":-71.152823,"city":"Northwood","state":"NH","address":"185 1st NH Turnpike","name":""},
  {"lat":43.478086,"lon":-70.49459,"city":"Biddeford","state":"ME","address":"513 Alfred St","name":""},
  {"lat":44.110522,"lon":-71.179358,"city":"Glen","state":"NH","address":"Junction Route 16 & 302","name":""},
  {"lat":43.540769,"lon":-71.465827,"city":"Laconia","state":"NH","address":"535 Union Ave","name":""},
  {"lat":43.584431,"lon":-70.361671,"city":"Scarborough","state":"ME","address":"401 Us Route 1","name":""},
  {"lat":43.150137,"lon":-70.667587,"city":"York","state":"ME","address":"454 Us Route 1","name":""},
  {"lat":43.420532,"lon":-70.757191,"city":"Sanford","state":"ME","address":"1227 Main St","name":""},
  {"lat":45.361958,"lon":-68.515373,"city":"Lincoln","state":"ME","address":"114 W Broadway","name":""},
  {"lat":46.113378,"lon":-68.160403,"city":"Oakfield","state":"ME","address":"236 Smyrna Rd","name":""},
  {"lat":43.528311,"lon":-70.426641,"city":"Saco","state":"ME","address":"775 Portland Rd","name":""},
  {"lat":47.248929,"lon":-68.600977,"city":"Fort Kent","state":"ME","address":"308 W Main St","name":""},
  {"lat":46.863093,"lon":-68.004731,"city":"Caribou","state":"ME","address":"35 Bennett Dr","name":""},
  {"lat":44.102692,"lon":-70.225685,"city":"Auburn","state":"ME","address":"21 Center St","name":""},
  {"lat":44.74423,"lon":-68.837701,"city":"Hampden","state":"ME","address":"63 Main Rd N","name":""},
  {"lat":46.698753,"lon":-68.010002,"city":"Presque Isle","state":"ME","address":"800 Main St","name":""},
  {"lat":44.790078,"lon":-68.811058,"city":"Bangor","state":"ME","address":"301 Odlin Rd","name":""},
  {"lat":43.735507,"lon":-70.296621,"city":"Falmouth","state":"ME","address":"65 Gray Rd W","name":""},
  {"lat":44.570766,"lon":-68.787055,"city":"Bucksport","state":"ME","address":"31 US Route 1","name":""},
  {"lat":43.701986,"lon":-71.109223,"city":"Ossipee","state":"NH","address":"885 Route 16","name":""},
  {"lat":43.038966,"lon":-71.161669,"city":"Raymond","state":"NH","address":"51 Route 27","name":""},
  {"lat":43.129403,"lon":-70.770238,"city":"Eliot","state":"ME","address":"162 Harold L Dow Hwy","name":""},
  {"lat":43.937183,"lon":-69.971321,"city":"Topsham","state":"ME","address":"4 Hamilton Ct","name":""},
  {"lat":43.650467,"lon":-70.257965,"city":"Portland","state":"ME","address":"393 Commercial St","name":""},
  {"lat":43.099048,"lon":-70.747544,"city":"Kittery","state":"ME","address":"103 Route 1 Bypass, I-95 Exit 2","name":""},
  {"lat":44.385586,"lon":-69.359876,"city":"Liberty","state":"ME","address":"498 Belfast Augusta Road","name":""},
  {"lat":43.907047,"lon":-69.935519,"city":"Brunswick","state":"ME","address":"142 Bath Rd","name":""},
  {"lat":44.46947,"lon":-69.834201,"city":"Belgrade","state":"ME","address":"932 Augusta Rd","name":""},
  {"lat":44.400926,"lon":-69.032675,"city":"Belfast","state":"ME","address":"6 Back Belmont Rd","name":""},
  {"lat":45.395557,"lon":-68.135608,"city":"Springfield","state":"ME","address":"985 Main St., Route 6","name":""},
  {"lat":43.175537,"lon":-71.529772,"city":"Bow","state":"NH","address":"500 Route 3A, I-93 Exit 12S","name":""},
  {"lat":43.221939,"lon":-71.494637,"city":"Concord","state":"NH","address":"231 Loudon Rd","name":""},
  {"lat":43.498837,"lon":-71.026205,"city":"Sanbornville","state":"NH","address":"18 Wakefield Rd","name":""},
  {"lat":44.751743,"lon":-72.180782,"city":"Barton","state":"VT","address":"452 Main St","name":""},
  {"lat":45.004254,"lon":-72.100334,"city":"Derby Line","state":"VT","address":"109 Main St N","name":""},
  {"lat":43.613341,"lon":-72.965174,"city":"Rutland","state":"VT","address":"86 Woodstock Ave","name":""},
  {"lat":43.661187,"lon":-72.340679,"city":"Hartford","state":"VT","address":"1477 Maple St","name":""},
  {"lat":43.086315,"lon":-72.439029,"city":"Westminster","state":"VT","address":"5190 Us Route 5","name":""},
  {"lat":42.836877,"lon":-72.565526,"city":"Brattleboro","state":"VT","address":"564 Canal St","name":""},
  {"lat":42.209972,"lon":-71.184375,"city":"Norwood","state":"MA","address":"69 Providence Hwy","name":""},
  {"lat":43.264286,"lon":-72.436442,"city":"Springfield","state":"VT","address":"14 Missing Link Rd, I-91 Exit 7","name":""},
  {"lat":42.14991,"lon":-72.814796,"city":"Westfield","state":"MA","address":"1400 Russell Rd","name":""},
  {"lat":42.354221,"lon":-71.134811,"city":"Boston","state":"MA","address":"434 Cambridge St","name":""},
  {"lat":43.031125,"lon":-70.78712,"city":"Portsmouth","state":"NH","address":"2470 Lafayette Rd","name":""},
  {"lat":42.791817,"lon":-71.235518,"city":"Salem","state":"NH","address":"238 N Broadway","name":""},
  {"lat":42.841517,"lon":-71.718758,"city":"Milford","state":"NH","address":"792 Elm St","name":""},
  {"lat":44.020175,"lon":-71.116052,"city":"Conway","state":"NH","address":"1500 White Mountain Hwy","name":""},
  {"lat":43.289254,"lon":-71.833971,"city":"Warner","state":"NH","address":"32 Rte 103 W","name":""},
  {"lat":43.497305,"lon":-72.134943,"city":"Grantham","state":"NH","address":"84 Route 10 South","name":""},
  {"lat":43.501165,"lon":-71.461633,"city":"Belmont","state":"NH","address":"9 Plummer Hill Rd","name":""},
  {"lat":42.729961,"lon":-71.210342,"city":"Methuen","state":"MA","address":"181 Pelham St","name":""},
  {"lat":43.661511,"lon":-71.494248,"city":"Meredith","state":"NH","address":"81 Nh Route 25","name":""},
  {"lat":43.258174,"lon":-70.97913,"city":"Rochester","state":"NH","address":"201 Gonic Rd","name":""},
  {"lat":42.468971,"lon":-72.613609,"city":"Whately","state":"MA","address":"1 Sunderland Rd","name":""},
  {"lat":42.471191,"lon":-72.615615,"city":"South Deerfield","state":"MA","address":"1 Greenfield Road, Rt 191","name":""},
  {"lat":42.586212,"lon":-72.624565,"city":"Greenfield","state":"MA","address":"223 Mohawk Trail, Rt 91","name":""},
  {"lat":41.787209,"lon":-71.077309,"city":"Freetown","state":"MA","address":"68 S Main St","name":""},
  {"lat":41.819374,"lon":-71.375228,"city":"East Providence","state":"RI","address":"155 Taunton Ave","name":""},
  {"lat":41.770565,"lon":-70.957512,"city":"East Freetown","state":"MA","address":"4 Chace Rd","name":""},
  {"lat":41.666352,"lon":-72.602651,"city":"South Glastonbury","state":"CT","address":"890 Main St","name":""},
  {"lat":44.098743,"lon":-69.864925,"city":"Richmond","state":"ME","address":"712 Main St","name":""},
  {"lat":43.699857,"lon":-72.289706,"city":"Hanover","state":"NH","address":"73 Main Street","name":""},
  {"lat":43.64953,"lon":-72.311014,"city":"Lebanon","state":"NH","address":"89 Main St","name":""},
  {"lat":43.432424,"lon":-71.867103,"city":"Andover","state":"NH","address":"718 Main St","name":""},
  {"lat":44.134242,"lon":-73.083734,"city":"Bristol","state":"VT","address":"42 West St","name":""},
  {"lat":42.152061,"lon":-71.407745,"city":"Medway","state":"MA","address":"71 Main St","name":""},
  {"lat":44.55765,"lon":-72.608514,"city":"Morrisville","state":"VT","address":"621 Laporte Rd","name":""},
  {"lat":44.951603,"lon":-72.156739,"city":"Newport","state":"VT","address":"4397 Route 5","name":""},
  {"lat":44.980631,"lon":-73.454847,"city":"Champlain","state":"NY","address":"985 Route 11","name":""},
  {"lat":42.64047,"lon":-72.004223,"city":"Winchendon","state":"MA","address":"93 Gardner Rd","name":""},
  {"lat":44.203485,"lon":-72.508707,"city":"Barre","state":"VT","address":"411 North Main St","name":""},
  {"lat":43.99167,"lon":-70.292641,"city":"New Gloucester","state":"ME","address":"1029 Lewiston Rd","name":""},
  {"lat":43.823637,"lon":-72.60596,"city":"Bethel","state":"VT","address":"2069 Us Route 107","name":""},
  {"lat":43.188954,"lon":-70.886058,"city":"Dover","state":"NH","address":"171 Silver St","name":""},
  {"lat":43.504293,"lon":-72.132829,"city":"Grantham","state":"NH","address":"249 Route 10 N","name":""},
  {"lat":45.284361,"lon":-69.498997,"city":"Monson","state":"ME","address":"32 Tenney Hill Rd","name":""},
  {"lat":45.02656,"lon":-69.288567,"city":"Dexter","state":"ME","address":"74 Church St","name":""},
  {"lat":45.305844,"lon":-69.035473,"city":"Brownville","state":"ME","address":"253 Main St","name":""},
  {"lat":45.167373,"lon":-69.385861,"city":"Guilford","state":"ME","address":"2 Elm St","name":""},
  {"lat":44.985837,"lon":-69.007112,"city":"Corinth","state":"ME","address":"624 Main Street","name":""},
  {"lat":44.785331,"lon":-69.400141,"city":"Pittsfield","state":"ME","address":"494 Somerset Ave","name":""},
  {"lat":44.938551,"lon":-73.044732,"city":"Highgate","state":"VT","address":"3108 Vt Route 78","name":""},
  {"lat":44.882902,"lon":-68.672565,"city":"Orono","state":"ME","address":"53 Main St","name":""},
  {"lat":42.511738,"lon":-71.043182,"city":"Wakefield","state":"MA","address":"448 Salem St","name":""},
  {"lat":42.744926,"lon":-71.109352,"city":"Haverhill","state":"MA","address":"32 Knipe Rd","name":""},
  {"lat":42.500621,"lon":-70.926594,"city":"Salem","state":"MA","address":"323 Highland Ave","name":""},
  {"lat":42.846369,"lon":-70.915461,"city":"Amesbury","state":"MA","address":"24 Rocky Hill Rd","name":""},
  {"lat":44.39675,"lon":-71.19429,"city":"Gorham","state":"NH","address":"350 Main St","name":""},
  {"lat":43.699163,"lon":-71.643034,"city":"Ashland","state":"NH","address":"19 West St","name":""},
  {"lat":44.459068,"lon":-71.187477,"city":"Berlin","state":"NH","address":"318 Glen Ave","name":""},
  {"lat":43.979159,"lon":-71.116471,"city":"Conway","state":"NH","address":"7 White Mountain Hwy","name":""},
  {"lat":42.974213,"lon":-70.835063,"city":"North Hampton","state":"NH","address":"73 Lafayette Rd","name":""},
  {"lat":43.759867,"lon":-71.679665,"city":"Holderness","state":"NH","address":"95 Nh Route 175A","name":""},
  {"lat":44.296778,"lon":-71.768784,"city":"Littleton","state":"NH","address":"336 Cottage St","name":""},
  {"lat":43.235712,"lon":-70.881303,"city":"Somersworth","state":"NH","address":"425 High St","name":""},
  {"lat":43.070118,"lon":-70.93968,"city":"Newmarket","state":"NH","address":"78 Exeter Rd","name":""},
  {"lat":43.457047,"lon":-71.564067,"city":"Tilton","state":"NH","address":"90 Laconia Rd","name":""},
  {"lat":44.468616,"lon":-71.184068,"city":"Berlin","state":"NH","address":"83 Pleasant St","name":""},
  {"lat":43.178855,"lon":-70.901897,"city":"Dover","state":"NH","address":"165 Knox Marsh Rd","name":""},
  {"lat":43.212049,"lon":-70.994999,"city":"Barrington","state":"NH","address":"143 Route 9","name":""},
  {"lat":42.885464,"lon":-70.869586,"city":"Seabrook","state":"NH","address":"361 Lafayette Rd","name":""},
  {"lat":43.11188,"lon":-71.917684,"city":"Hillsborough","state":"NH","address":"295 W Main St","name":""},
  {"lat":44.2711,"lon":-71.5398,"city":"Bretton Woods","state":"NH","address":"2267 Route 302 E","name":""},
  {"lat":42.994247,"lon":-70.925698,"city":"Stratham","state":"NH","address":"2 Stratham Heights Rd","name":""},
  {"lat":43.010425,"lon":-71.543529,"city":"Goffstown","state":"NH","address":"277 Mast Rd","name":""},
  {"lat":42.902329,"lon":-71.319635,"city":"Derry","state":"NH","address":"55 Bypass 28","name":""},
  {"lat":43.644088,"lon":-71.735213,"city":"Bridgewater","state":"NH","address":"408 Mayhew Turnpike","name":""},
  {"lat":43.288918,"lon":-72.472423,"city":"Springfield","state":"VT","address":"197 Clinton St","name":""},
  {"lat":42.914579,"lon":-71.366566,"city":"Londonderry","state":"NH","address":"124 Rockingham Rd","name":""},
  {"lat":42.914653,"lon":-71.450127,"city":"Manchester","state":"NH","address":"20 Roundstone Dr","name":""},
  {"lat":43.375823,"lon":-72.334165,"city":"Claremont","state":"NH","address":"58 Washington St","name":""},
  {"lat":44.41441,"lon":-72.132314,"city":"Danville","state":"VT","address":"421 Route 2 E","name":""},
  {"lat":41.547745,"lon":-73.019026,"city":"Waterbury","state":"CT","address":"1405 East Main St","name":""},
  {"lat":44.418678,"lon":-72.029527,"city":"Saint Johnsbury","state":"VT","address":"85 US Route 2 West","name":""},
  {"lat":44.280139,"lon":-72.421333,"city":"Plainfield","state":"VT","address":"8132 US Route 2","name":""},
  {"lat":44.802133,"lon":-73.088323,"city":"Saint Albans","state":"VT","address":"171 S Main St","name":""},
  {"lat":44.03465,"lon":-70.266935,"city":"Auburn","state":"ME","address":"1813 Washington St, I-95 Exit 75","name":""},
  {"lat":44.934757,"lon":-72.211624,"city":"Newport","state":"VT","address":"273-283 Main St","name":""},
  {"lat":44.6359,"lon":-70.153312,"city":"Farmington","state":"ME","address":"507 Wilton Rd","name":""},
  {"lat":43.002613,"lon":-70.919753,"city":"Stratham","state":"NH","address":"44 Portsmouth Ave","name":""},
  {"lat":42.755,"lon":-72.0047,"city":"Rindge","state":"NH","address":"462 US Route 202","name":""},
  {"lat":44.836449,"lon":-69.287328,"city":"Newport","state":"ME","address":"18 Moosehead Trl","name":""},
  {"lat":42.93329,"lon":-72.293383,"city":"Keene","state":"NH","address":"410 West St","name":""},
  {"lat":44.064142,"lon":-71.686746,"city":"Lincoln","state":"NH","address":"467 US Route 3","name":""},
  {"lat":44.419027,"lon":-71.474328,"city":"Jefferson","state":"NH","address":"764 Presidential Hwy","name":""},
  {"lat":44.214646,"lon":-71.907913,"city":"Lisbon","state":"NH","address":"79 N Main St","name":""},
  {"lat":42.273457,"lon":-71.766579,"city":"Worcester","state":"MA","address":"310 Belmont St","name":""},
  {"lat":43.148301,"lon":-71.006055,"city":"Lee","state":"NH","address":"48 Concord Rd","name":""},
  {"lat":43.834204,"lon":-70.438392,"city":"North Windham","state":"ME","address":"746 Roosevelt Trail","name":""},
  {"lat":44.18089,"lon":-70.515842,"city":"Oxford","state":"ME","address":"1332 Main St","name":""},
  {"lat":43.838967,"lon":-70.415972,"city":"Windham","state":"ME","address":"201 Tandberg Trl","name":""},
  {"lat":44.014937,"lon":-70.982818,"city":"Fryeburg","state":"ME","address":"501 Main St","name":""},
  {"lat":41.968941,"lon":-71.021034,"city":"Bridgewater","state":"MA","address":"1385 Pleasant St","name":""},
  {"lat":43.718427,"lon":-70.52381,"city":"Gorham","state":"ME","address":"435 Ossipee Trl","name":""},
  {"lat":44.024888,"lon":-70.691078,"city":"Bridgton","state":"ME","address":"443 Portland Rd","name":""},
  {"lat":41.545193,"lon":-72.784477,"city":"Meriden","state":"CT","address":"978 Broad St","name":""},
  {"lat":44.193698,"lon":-70.136944,"city":"Greene","state":"ME","address":"748 Route 202","name":""},
  {"lat":42.791757,"lon":-71.184414,"city":"Methuen","state":"MA","address":"5 Ayers Village Rd","name":""},
  {"lat":44.328598,"lon":-72.744961,"city":"Waterbury","state":"VT","address":"1 River Rd","name":""},
  {"lat":44.098538,"lon":-70.191619,"city":"Lewiston","state":"ME","address":"449 Sabattus St","name":""},
  {"lat":44.118361,"lon":-70.225368,"city":"Auburn","state":"ME","address":"484 Center St","name":""},
  {"lat":44.07904,"lon":-70.19325,"city":"Lewiston","state":"ME","address":"1103 Lisbon St","name":""},
  {"lat":44.785399,"lon":-72.859154,"city":"East Fairfield","state":"VT","address":"9431 VT-36","name":""},
  {"lat":43.649035,"lon":-72.005928,"city":"Canaan","state":"NH","address":"70 NH-118","name":""},
  {"lat":43.079562,"lon":-72.42618,"city":"Walpole","state":"NH","address":"51 Main St.","name":""},
  {"lat":45.154199,"lon":-67.404306,"city":"Baileyville","state":"ME","address":"102 Main St","name":""},
  {"lat":43.644577,"lon":-72.146667,"city":"Enfield","state":"NH","address":"297 U.S. 4","name":""},
  {"lat":42.755,"lon":-72.0047,"city":"Rindge","state":"NH","address":"1044 NH-119","name":""},
  {"lat":44.40633,"lon":-68.595287,"city":"Blue Hill","state":"ME","address":"36 South St.","name":""},
  {"lat":44.15078,"lon":-68.20647,"city":"Bass Harbor","state":"ME","address":"42 Tremont Rd","name":""},
  {"lat":41.916043,"lon":-71.359601,"city":"Attleboro","state":"MA","address":"466 Washington street","name":""},
  {"lat":44.310788,"lon":-68.668624,"city":"Sargentville","state":"ME","address":"119 Caterpillar Hill Rd","name":""},
  {"lat":43.641466,"lon":-70.240878,"city":"South Portland","state":"ME","address":"682 Broadway St","name":""},
  {"lat":42.8602,"lon":-71.174,"city":"Hampstead","state":"NH","address":"235 Stage Rd","name":""},
  {"lat":43.998009,"lon":-70.062102,"city":"Lisbon Falls","state":"ME","address":"689 Lisbon St","name":""},
  {"lat":43.109035,"lon":-71.476965,"city":"Hooksett","state":"NH","address":"25 Springer Rd","name":""},
  {"lat":44.764723,"lon":-68.70602,"city":"Holden","state":"ME","address":"87 Main Rd","name":""},
  {"lat":43.395567,"lon":-70.531108,"city":"Kennebunk","state":"ME","address":"59 Portland Street","name":""},
  {"lat":42.926809,"lon":-72.612258,"city":"Dummerston","state":"VT","address":"2557 W River Rd","name":""},
  {"lat":43.0968,"lon":-72.444,"city":"Westminster","state":"VT","address":"6023 US Route 5","name":""},
  {"lat":42.841705,"lon":-70.945899,"city":"Amesbury","state":"MA","address":"60 Haverhill Road, Rte 110","name":""},
  {"lat":43.13327,"lon":-70.920201,"city":"Durham","state":"NH","address":"4A Dover Rd","name":""},
  {"lat":41.902843,"lon":-70.969231,"city":"Middleboro","state":"MA","address":"47 Harding St","name":""},
  {"lat":45.448973,"lon":-69.590567,"city":"Greenville","state":"ME","address":"148 Moosehead Lake Rd","name":""},
  {"lat":43.369466,"lon":-71.043174,"city":"Farmington","state":"NH","address":"449 Route 11","name":""},
  {"lat":43.725469,"lon":-70.231838,"city":"Falmouth","state":"ME","address":"264 Us Route 1","name":""},
  {"lat":43.849835,"lon":-71.666259,"city":"Campton","state":"NH","address":"2122 Route 3","name":""},
  {"lat":44.257778,"lon":-69.774722,"city":"Farmingdale","state":"ME","address":"554 Maine Avenue","name":""},
  {"lat":41.886667,"lon":-71.135,"city":"Taunton","state":"MA","address":"148 North Walker Street","name":""},
  {"lat":44.923898,"lon":-69.673421,"city":"Athens","state":"ME","address":"8 Main St","name":""},
  {"lat":45.183275,"lon":-69.25122,"city":"Dover-Foxcroft","state":"ME","address":"1021 WEST MAIN STREET P.O. BOX 334","name":""},
  {"lat":44.985679,"lon":-69.006807,"city":"Corinth","state":"ME","address":"624 MAIN STREET","name":""},
  {"lat":43.650644,"lon":-70.257548,"city":"Portland","state":"ME","address":"393 COMMERCIAL ST","name":""},
  {"lat":44.980725,"lon":-73.454804,"city":"Champlain","state":"NY","address":"3 SPIEGLE DRIVE","name":""},
  {"lat":44.543894,"lon":-69.670673,"city":"Waterville","state":"ME","address":"320 Kennedy Memorial Drive","name":""},
  {"lat":44.328075,"lon":-69.781634,"city":"Augusta","state":"ME","address":"132 Mount Vernon Avenue","name":""},
  {"lat":43.088593,"lon":-70.73619,"city":"Kittery","state":"ME","address":"2 Shapleigh Rd","name":""},
  {"lat":43.726161,"lon":-70.231379,"city":"Falmouth","state":"ME","address":"265 Us Route 1","name":""},
  {"lat":44.335377,"lon":-69.759206,"city":"Augusta","state":"ME","address":"5 Denali Way","name":""},
  {"lat":43.810918,"lon":-72.188791,"city":"Thetford","state":"VT","address":"2930 U.S. 5","name":""},
  {"lat":43.65056,"lon":-72.24173,"city":"Lebanon","state":"NH","address":"151 Heater Rd","name":""},
  {"lat":44.919334,"lon":-73.124802,"city":"Swanton","state":"VT","address":"31 Grand Ave","name":""},
  {"lat":43.802288,"lon":-70.189987,"city":"Yarmouth","state":"ME","address":"281 Main St","name":""},
  {"lat":43.7711,"lon":-71.7223,"city":"Plymouth","state":"NH","address":"484 Tenney Mountain Highway","name":""},
  {"lat":43.610007,"lon":-73.208165,"city":"Castleton","state":"VT","address":"111 Route 30","name":""},
  {"lat":44.315155,"lon":-69.804079,"city":"Augusta","state":"ME","address":"262 Western Ave","name":""},
  {"lat":43.710457,"lon":-71.45934,"city":"Moultonborough","state":"NH","address":"11 Whittier Highway","name":""},
  {"lat":42.02399,"lon":-71.49167,"city":"Bellingham","state":"MA","address":"310 Pulaski Boulevard","name":""},
  {"lat":42.103596,"lon":-70.803006,"city":"Pembroke","state":"MA","address":"92 Washington Street","name":""},
  {"lat":42.670808,"lon":-71.49752,"city":"Dunstable","state":"MA","address":"238 PLEASANT ST","name":""},
  {"lat":44.964866,"lon":-70.162076,"city":"Kingfield","state":"ME","address":"363 Main St","name":""},
  {"lat":43.590544,"lon":-72.968836,"city":"Rutland","state":"VT","address":"258 South Main Street","name":""},
  {"lat":42.950115,"lon":-71.434854,"city":"Manchester","state":"NH","address":"1805 South Willow Street","name":""},
  {"lat":42.088919,"lon":-71.047982,"city":"Brockton","state":"MA","address":"683 Pleasant Street","name":""},
  {"lat":44.824398,"lon":-68.808964,"city":"Bangor","state":"ME","address":"1019 Ohio Street","name":""},
  {"lat":44.836172,"lon":-68.791448,"city":"Bangor","state":"ME","address":"1123 Broadway","name":""},
  {"lat":44.11501,"lon":-70.10277,"city":"Sabattus","state":"ME","address":"7 Middle Road","name":""},
  {"lat":44.51999,"lon":-69.66817,"city":"Waterville","state":"ME","address":"288 West River Road","name":""},
  {"lat":44.37462,"lon":-69.79702,"city":"Augusta","state":"ME","address":"670 Civic Center Drive","name":""},
  {"lat":44.813405,"lon":-71.88108,"city":"Island Pond","state":"VT","address":"99 Cross St","name":""},
  {"lat":43.0434,"lon":-71.6825,"city":"Weare","state":"NH","address":"421 South Stark Hwy","name":""},
  {"lat":42.544308,"lon":-71.874435,"city":"Westminster","state":"MA","address":"21 Village Inn Rd","name":""},
  {"lat":43.043376,"lon":-70.930962,"city":"Newfields","state":"NH","address":"31 NH Route 108","name":""},
  {"lat":41.545287,"lon":-72.651599,"city":"Middletown","state":"CT","address":"405 South Main Street","name":""},
  {"lat":41.548723,"lon":-72.63955,"city":"Middletown","state":"CT","address":"302 East Main Street","name":""},
  {"lat":44.089037,"lon":-69.808196,"city":"Richmond","state":"ME","address":"115 Main St.","name":""},
  {"lat":43.47909,"lon":-70.6042,"city":"Lyman","state":"ME","address":"1486 Alfred Road","name":""},
  {"lat":44.32469,"lon":-70.55016,"city":"West Paris","state":"ME","address":"175 Bethel Road","name":""},
  {"lat":44.40289,"lon":-70.12945,"city":"Livermore Falls","state":"ME","address":"1247 Park Street","name":""},
  {"lat":44.412842,"lon":-70.795036,"city":"Bethel","state":"ME","address":"33 Mayville Road","name":""},
  {"lat":44.21236,"lon":-70.5292,"city":"Norway","state":"ME","address":"59 Paris Street","name":""},
  {"lat":41.830051,"lon":-71.427986,"city":"Providence","state":"RI","address":"38 Pleasant Valley Pkwy","name":""},
  {"lat":44.53289,"lon":-70.5441,"city":"Rumford","state":"ME","address":"876 U.S. 2","name":""},
  {"lat":44.869512,"lon":-68.934135,"city":"Levant","state":"ME","address":"3508 Union St","name":""},
  {"lat":41.813987,"lon":-71.447558,"city":"Providence","state":"RI","address":"280 Plainfield St","name":""},
  {"lat":43.590544,"lon":-72.968836,"city":"Rutland","state":"VT","address":"258 South Main Street","name":""},
  {"lat":43.8278,"lon":-72.575,"city":"South Royalton","state":"VT","address":"462 VT Route 107","name":""},
  {"lat":43.34648,"lon":-71.46618,"city":"Loudon","state":"NH","address":"904 Route 106 North","name":""},
  {"lat":41.830051,"lon":-71.427986,"city":"Providence","state":"RI","address":"38 Pleasant Valley Pkwy","name":""},
  {"lat":44.03465,"lon":-70.266935,"city":"Auburn","state":"ME","address":"1813 Washington St, I-95 Exit 75","name":""},
  {"lat":44.790078,"lon":-68.811058,"city":"Bangor","state":"ME","address":"301 Odlin Rd","name":""},
  {"lat":44.836449,"lon":-69.287328,"city":"Newport","state":"ME","address":"18 Moosehead Trl","name":""},
  {"lat":44.31031,"lon":-69.79271,"city":"Augusta","state":"ME","address":"183 Capitol Street","name":""},
  {"lat":46.12315,"lon":-67.8442,"city":"Houlton","state":"ME","address":"3 Military Street","name":""},
  {"lat":43.90911,"lon":-69.94917,"city":"Brunswick","state":"ME","address":"39 Bath Road","name":""},
  {"lat":43.92798,"lon":-69.94671,"city":"Topsham","state":"ME","address":"38 Middlesex Road","name":""},
  {"lat":44.213345,"lon":-72.575389,"city":"Berlin","state":"VT","address":"159 Paine Turnpike North","name":""},
  {"lat":44.1773,"lon":-72.504654,"city":"Barre","state":"VT","address":"370 S Barre Rd","name":""},
  {"lat":43.226871,"lon":-71.360382,"city":"Epsom","state":"NH","address":"910 Suncook Valley Highway South","name":""},
  {"lat":43.44647,"lon":-71.62566,"city":"Franklin","state":"NH","address":"901 Central Street","name":""},
  {"lat":46.85997,"lon":-68.0095,"city":"Caribou","state":"ME","address":"89 High Street","name":""},
  {"lat":41.813987,"lon":-71.447558,"city":"Providence","state":"RI","address":"280 Plainfield St","name":""},
  {"lat":46.67728,"lon":-68.01646,"city":"Presque Isle","state":"ME","address":"283 Main Street","name":""},
  {"lat":43.17371,"lon":-70.86299,"city":"Dover","state":"NH","address":"30 Dover Point Road","name":""},
  {"lat":43.73086,"lon":-70.54247,"city":"Standish","state":"ME","address":"125 Ossipee Trail East","name":""},
  {"lat":44.677642,"lon":-69.923199,"city":"Mercer","state":"ME","address":"1431 Mercer Road","name":""},
  {"lat":44.145204,"lon":-69.089339,"city":"Rockport","state":"ME","address":"849 Commercial Street","name":""},
  {"lat":44.54309,"lon":-70.54872,"city":"Rumford","state":"ME","address":"5 Bridge Street","name":""},
  {"lat":43.9188,"lon":-70.35593,"city":"Gray","state":"ME","address":"255 Shaker Road","name":""},
  {"lat":44.306879,"lon":-69.75155,"city":"Augusta","state":"ME","address":"216 Eastern Avenue","name":""},
  {"lat":44.42285,"lon":-69.02609,"city":"Belfast","state":"ME","address":"22 Belmont Avenue","name":""},
  {"lat":42.9963,"lon":-70.81763,"city":"North Hampton","state":"NH","address":"180 Lafayette Road","name":""},
  {"lat":44.249337,"lon":-70.259486,"city":"Turner","state":"ME","address":"1051 Auburn Rd","name":""},
  {"lat":44.157322,"lon":-70.492371,"city":"Oxford","state":"ME","address":"930 Main Street","name":""},
  {"lat":42.886093,"lon":-71.326309,"city":"Derry","state":"NH","address":"56 Crystal Avenue","name":""}]}