{"key":"irving","displayName":"Irving","category":"gas_station","useLocationName":false,"locations":[
  {"lat":42.7401,"lon":-71.426,"city":"Hudson","state":"NH","address":"4 Executive Dr, Hudson, New Hampshire 03051","name":""},
  {"lat":42.7401,"lon":-71.426,"city":"Hudson","state":"NH","address":"4 Executive Dr, Hudson, New Hampshire 03051","name":""},
  {"lat":48.433621,"lon":-72.07903,"city":"Chambord","state":"QC","address":"1778 Rue Principale, Chambord, Quebec G0W 1G0","name":""},
  {"lat":46.89672,"lon":-67.39471,"city":"Plaster Rock","state":"ME","address":"162 Main St, Plaster Rock, New Brunswick E7G 2E4","name":""},
  {"lat":47.020006,"lon":-65.444666,"city":"Chatham","state":"NB","address":"186 King Street, Chatham, New Brunswick E1N 2P2","name":""},
  {"lat":45.97932,"lon":-66.59311,"city":"Fredericton","state":"NB","address":"253 Canada St, Fredericton, New Brunswick E3A 4A3","name":""},
  {"lat":45.98051,"lon":-66.65854,"city":"Fredericton","state":"NB","address":"95 Main St, Fredericton, New Brunswick E3A 1C2","name":""},
  {"lat":46.936913,"lon":-71.309842,"city":"Lac Beauport","state":"QC","address":"1015 Boul Du Lac, Lac Beauport, Quebec G0A 2C0","name":""},
  {"lat":45.850672,"lon":-66.56177,"city":"Waasis","state":"NB","address":"415 Nevers Rd, Waasis, New Brunswick E3B 9E1","name":""},
  {"lat":45.93865,"lon":-66.65844,"city":"Fredericton","state":"NB","address":"1169 Regent St, Fredericton, New Brunswick E3B 3Z2","name":""},
  {"lat":46.85662,"lon":-71.34683,"city":"Quebec","state":"QC","address":"41, Rue Valvue, Quebec, Quebec G2A 2G1","name":""},
  {"lat":46.891267,"lon":-71.149722,"city":"Quebec","state":"QC","address":"2567, Ave Royale, Quebec, Quebec G1C 1S3","name":""},
  {"lat":46.80585,"lon":-71.31597,"city":"Quebec","state":"QC","address":"3945, Boul Hamel, Quebec, Quebec G1P 2J3","name":""},
  {"lat":46.79316,"lon":-71.17363,"city":"Levis","state":"QC","address":"70, Route Du President-Kennedy, Levis, Quebec G6V 6C6","name":""},
  {"lat":46.820752,"lon":-71.268434,"city":"Quebec","state":"QC","address":"610, Boul Pierre Bertrand, Quebec, Quebec G1M 3A3","name":""},
  {"lat":46.86251,"lon":-71.19257,"city":"Quebec","state":"QC","address":"71 Rue Des Cascades, Quebec, Quebec G1E 6T5","name":""},
  {"lat":46.89672,"lon":-71.207432,"city":"Quebec","state":"QC","address":"2438, Boul Louis XIV, Quebec, Quebec G1C 1B3","name":""},
  {"lat":46.844104,"lon":-71.25612,"city":"Quebec","state":"QC","address":"4750, 3E Ave Ouest, Quebec, Quebec G1H 6G1","name":""},
  {"lat":46.87644,"lon":-71.16649,"city":"Quebec","state":"QC","address":"1375, Boul Des Chutes, Quebec, Quebec G1C 1W3","name":""},
  {"lat":46.799344,"lon":-71.258727,"city":"Quebec","state":"QC","address":"470 Av St-Sacrement, Quebec, Quebec G1N 3Y3","name":""},
  {"lat":46.847571,"lon":-71.23459,"city":"Quebec","state":"QC","address":"2800, Rue Champfleury, Quebec, Quebec G1J 5J4","name":""},
  {"lat":46.712859,"lon":-71.29903,"city":"Bernieres","state":"QC","address":"475, Chemin Vire-Crêpes à Lévis, Bernieres, Quebec G7A 1N3","name":""},
  {"lat":46.84568,"lon":-71.32122,"city":"Quebec","state":"QC","address":"1970, Boul Chauveau, Quebec, Quebec G2C 1A9","name":""},
  {"lat":46.85532,"lon":-71.27913,"city":"Quebec","state":"QC","address":"527, Boul Louis XIV, Quebec, Quebec G1H 4N7","name":""},
  {"lat":46.739158,"lon":-71.291142,"city":"Saint-Nicolas","state":"QC","address":"158 Route Marie-Victorin à Lévis, Saint-Nicolas, Quebec G7A 2T4","name":""},
  {"lat":46.721475,"lon":-71.199665,"city":"Lévis","state":"QC","address":"952 Avenue Taniata, Lévis, Quebec G6Z 3G8","name":""},
  {"lat":46.7228,"lon":-71.2665,"city":"Lévis","state":"QC","address":"8025, Ave Des Eglises, Lévis, Quebec G6X 1X6","name":""},
  {"lat":46.85481,"lon":-71.21714,"city":"Quebec","state":"QC","address":"3190, Rue Alexandra, Quebec, Quebec G1E 6W2","name":""},
  {"lat":46.81004,"lon":-71.26018,"city":"Quebec","state":"QC","address":"1000, Boul Wilfred-Hamel, Quebec, Quebec G1M 2S2","name":""},
  {"lat":45.892265,"lon":-72.512507,"city":"Drummondville","state":"QC","address":"690 Boul St-Joseph, Drummondville, Quebec J2C 2C1","name":""},
  {"lat":45.132414,"lon":-71.799388,"city":"Coaticook","state":"QC","address":"295 rue Main, Coaticook, Quebec J1A 1P6","name":""},
  {"lat":45.862759,"lon":-72.474421,"city":"Drummondville","state":"QC","address":"1000 Jean-De Bréboeuf, Drummondville, Quebec J2B 4T3","name":""},
  {"lat":46.75248,"lon":-71.43087,"city":"Saint-Augustin-de-Desmaures","state":"QC","address":"20, Rue De Toulon, Saint-Augustin-de-Desmaures, Quebec G3A 3A9","name":""},
  {"lat":46.82263,"lon":-71.33666,"city":"Quebec","state":"QC","address":"6480, De L'Ormiere, Quebec, Quebec G1P 1K7","name":""},
  {"lat":46.80762,"lon":-71.162969,"city":"Levis","state":"QC","address":"6665 Boul Guillaume-Couture, Levis, Quebec G6V 9H5","name":""},
  {"lat":46.853588,"lon":-71.194893,"city":"Quebec","state":"QC","address":"3475 Boul Ste-Anne, Quebec, Quebec G1E 3L5","name":""},
  {"lat":47.020004,"lon":-70.93428,"city":"Sainte-Anne-De-Beaupre","state":"QC","address":"9687 Boul Ste Anne, Sainte-Anne-De-Beaupre, Quebec G0A 3C0","name":""},
  {"lat":47.076917,"lon":-67.767706,"city":"St. Andre","state":"ME","address":"121 Route 255, St. Andre, New Brunswick E3Y 3N5","name":""},
  {"lat":47.698218,"lon":-65.436755,"city":"Janeville","state":"NB","address":"5912 Route 11, Janeville, New Brunswick E2A 5L2","name":""},
  {"lat":46.11486,"lon":-64.83683,"city":"Moncton","state":"NB","address":"1515 Mountain Rd, Moncton, New Brunswick E1G 1A3","name":""},
  {"lat":46.05122,"lon":-65.06224,"city":"Salisbury","state":"NB","address":"2986 Fredericton Rd, Salisbury, New Brunswick E4J 2G1","name":""},
  {"lat":46.845014,"lon":-71.251453,"city":"Quebec","state":"QC","address":"4660 1E Ave, Quebec, Quebec G1H 2T2","name":""},
  {"lat":46.11365,"lon":-64.77339,"city":"Moncton","state":"NB","address":"301 Elmwood Dr, Moncton, New Brunswick E1A 1X5","name":""},
  {"lat":46.09379,"lon":-64.75585,"city":"Dieppe","state":"NB","address":"64 Champlain St, Dieppe, New Brunswick E1A 1N3","name":""},
  {"lat":46.08556,"lon":-64.8071,"city":"Moncton","state":"NB","address":"650 St George Blvd, Moncton, New Brunswick E1E 2C5","name":""},
  {"lat":47.4333,"lon":-68.38714,"city":"Saint-Jacques","state":"NB","address":"129 Rue Principale, Saint-Jacques, New Brunswick E7B 1V6","name":""},
  {"lat":46.06536,"lon":-64.79958,"city":"Riverview","state":"NB","address":"414 Coverdale Rd, Riverview, New Brunswick E1B 3J9","name":""},
  {"lat":46.08536,"lon":-64.73323,"city":"Dieppe","state":"NB","address":"312 Amirault St, Dieppe, New Brunswick E1A 1G2","name":""},
  {"lat":46.73043,"lon":-65.830274,"city":"Blackville","state":"NB","address":"100 Main St, Blackville, New Brunswick E9B 1N8","name":""},
  {"lat":46.122511,"lon":-64.852799,"city":"Moncton","state":"NB","address":"1930 Mountain Road, Moncton, New Brunswick E1G 1A9","name":""},
  {"lat":46.467837,"lon":-65.243897,"city":"Harcourt","state":"NB","address":"7899 Route 126, Harcourt, New Brunswick E4T 2Z1","name":""},
  {"lat":46.73544,"lon":-64.96913,"city":"Saint-Louis De Kent","state":"NB","address":"10495, Rue Principale, Saint-Louis De Kent, New Brunswick E4X 1E6","name":""},
  {"lat":46.674162,"lon":-64.867895,"city":"Richibucto","state":"NB","address":"1 Acadie Street, Richibucto, New Brunswick E4W 3T8","name":""},
  {"lat":46.122652,"lon":-67.605679,"city":"Beardsley","state":"ME","address":"198 Beardsley Rd, Hwy 2, Exit 191, Beardsley, New Brunswick E7M 3Z7","name":""},
  {"lat":48.883637,"lon":-72.249048,"city":"Dolbeau Mistassini","state":"QC","address":"2222 Boul Wallberg, Dolbeau Mistassini, Quebec G8L 1J9","name":""},
  {"lat":46.221489,"lon":-62.971702,"city":"Charlottetown","state":"PE","address":"9557 PE- 1, Charlottetown, Prince Edward Island C0A 1H3","name":""},
  {"lat":46.32259,"lon":-63.60048,"city":"Kinkora","state":"PE","address":"62 Anderson Rd, Kinkora, Prince Edward Island C0B 1N0","name":""},
  {"lat":46.43668,"lon":-63.63766,"city":"Kensington","state":"PE","address":"61 Victoria St, Kensington, Prince Edward Island C0B 1MO","name":""},
  {"lat":46.415612,"lon":-63.291528,"city":"Rustico","state":"PE","address":"1980 Route 6, Rustico, Prince Edward Island C0A 1N0","name":""},
  {"lat":46.316896,"lon":-62.508415,"city":"Cardigan","state":"PE","address":"1351 Cumberland Hill, Cardigan, Prince Edward Island C0A 1G0","name":""},
  {"lat":46.887005,"lon":-64.139557,"city":"St-Louis","state":"PE","address":"3677 Union Rd, St-Louis, Prince Edward Island C0B 1Z0","name":""},
  {"lat":46.69452,"lon":-71.892074,"city":"Portneuf","state":"QC","address":"100 Rue Provencher, Portneuf, Quebec G0A 2Y0","name":""},
  {"lat":47.043136,"lon":-70.896395,"city":"Beaupre","state":"QC","address":"11005 Boul Sainte-Anne, Beaupre, Quebec G0A 1E0","name":""},
  {"lat":46.814643,"lon":-71.149851,"city":"Lévis","state":"QC","address":"7500 Boul Guillaume-Couture, Lévis, Quebec G6V 6S5","name":""},
  {"lat":46.716734,"lon":-71.276974,"city":"Lévis","state":"QC","address":"4000 Ave Des Chutes, Lévis, Quebec G6X 1B7","name":""},
  {"lat":46.752865,"lon":-71.238288,"city":"Lévis","state":"QC","address":"2035 Boul Guillaume-Couture, Lévis, Quebec G6W 2S5","name":""},
  {"lat":46.816842,"lon":-71.144044,"city":"Lévis","state":"QC","address":"8025 Boul Guillaume-Couture, Lévis, Quebec G6V 7W1","name":""},
  {"lat":46.804456,"lon":-71.179655,"city":"Levis","state":"QC","address":"515 Boul Alphonse-Desjardins, Levis, Quebec G6V 5T3","name":""},
  {"lat":46.855541,"lon":-71.414869,"city":"Val Belair","state":"QC","address":"1034 Boul Pie-Xi N, Val Belair, Quebec G3K 2S4","name":""},
  {"lat":46.852156,"lon":-71.238877,"city":"Quebec","state":"QC","address":"4660, Rue De Gaulle, Quebec, Quebec G1H 4J2","name":""},
  {"lat":46.85436,"lon":-71.27639,"city":"Quebec","state":"QC","address":"545 76E Rue O, Quebec, Quebec G1H 4S4","name":""},
  {"lat":46.844621,"lon":-71.615163,"city":"Sainte-Catherine","state":"QC","address":"4694 Route De Fossambault, Sainte-Catherine, Quebec G3N 1T2","name":""},
  {"lat":46.861067,"lon":-71.427592,"city":"Val Belair","state":"QC","address":"1305, Boul Pie-Xi Nord, Val Belair, Quebec G3J 1G5","name":""},
  {"lat":49.586594,"lon":-57.905331,"city":"Rocky Harbour","state":"NL","address":"3 West Link, Rocky Harbour, Newfoundland and Labrador A0K 4N0","name":""},
  {"lat":47.573949,"lon":-53.285472,"city":"Bay Roberts","state":"NL","address":"278 Conception Bay Hwy, Bay Roberts, Newfoundland and Labrador A0A 1G0","name":""},
  {"lat":47.766748,"lon":-53.241098,"city":"Victoria Cb","state":"NL","address":"229 Hwy 70, Victoria Cb, Newfoundland and Labrador A0A 4G0","name":""},
  {"lat":47.701137,"lon":-52.728399,"city":"Flat Rock","state":"NL","address":"268 Pouch Cove Highway, Flat Rock, Newfoundland and Labrador A1K 1C8","name":""},
  {"lat":47.406018,"lon":-53.150182,"city":"Holyrood","state":"NL","address":"678 Conception Bay Hwy, Holyrood, Newfoundland and Labrador A0A 2R0","name":""},
  {"lat":48.185005,"lon":-58.781552,"city":"St Davids","state":"NL","address":"Trans-Canada Hwy #1, St Davids, Newfoundland and Labrador A0N 1X0","name":""},
  {"lat":46.25197,"lon":-63.12133,"city":"Charlottetown","state":"PE","address":"76 St Peters Rd, Charlottetown, Prince Edward Island C1A 5N8","name":""},
  {"lat":46.24394,"lon":-63.11282,"city":"Charlottetown","state":"PE","address":"8 Riverside Dr, Charlottetown, Prince Edward Island C1A 7K7","name":""},
  {"lat":46.35537,"lon":-63.349475,"city":"Hunter River","state":"PE","address":"19782 Malpeque Rd, Hunter River, Prince Edward Island C0A 1N0","name":""},
  {"lat":46.26325,"lon":-63.14597,"city":"Charlottetown","state":"PE","address":"644 University Ave, Charlottetown, Prince Edward Island C1E 1E3","name":""},
  {"lat":46.95117,"lon":-64.03378,"city":"Tignish","state":"PE","address":"282 Business St, Tignish, Prince Edward Island C0B 2B0","name":""},
  {"lat":46.423178,"lon":-63.683292,"city":"New Annan","state":"PE","address":"25553 Veterans Memorial Hwy, New Annan, Prince Edward Island C0B 1M0","name":""},
  {"lat":46.16682,"lon":-62.64971,"city":"Montague","state":"PE","address":"537 Main St, Montague, Prince Edward Island C0A 1R0","name":""},
  {"lat":46.367246,"lon":-62.875352,"city":"Mount Stewart","state":"PE","address":"10693 Route 2, Mount Stewart, Prince Edward Island C0A 1T0","name":""},
  {"lat":46.35529,"lon":-62.2559,"city":"Souris","state":"PE","address":"63 Main St, Souris, Prince Edward Island C0A 2B0","name":""},
  {"lat":46.39036,"lon":-63.78218,"city":"Summerside","state":"PE","address":"96 Water St, Summerside, Prince Edward Island C1N 1A5","name":""},
  {"lat":46.42527,"lon":-63.8108,"city":"Summerside","state":"PE","address":"82 North Dr, Summerside, Prince Edward Island C1N 4G1","name":""},
  {"lat":46.41614,"lon":-62.70124,"city":"Morell","state":"PE","address":"7621 St. Peter's Hwy, Morell, Prince Edward Island C0A 1S0","name":""},
  {"lat":46.456343,"lon":-66.417638,"city":"Boiestown","state":"NB","address":"6138 Route 8, Boiestown, New Brunswick E6A 1M5","name":""},
  {"lat":46.646785,"lon":-64.875255,"city":"Rexton","state":"NB","address":"126 Main St, Rexton, New Brunswick E4W 2B4","name":""},
  {"lat":46.361635,"lon":-64.750767,"city":"Saint-Antoine","state":"NB","address":"4515 Rue Principale, Saint-Antoine, New Brunswick E4V 1P4","name":""},
  {"lat":46.468123,"lon":-64.727642,"city":"Bouctouche","state":"NB","address":"131 Irving Blvd, Bouctouche, New Brunswick E4S 3K2","name":""},
  {"lat":48.00321,"lon":-66.68301,"city":"Campbellton","state":"NB","address":"157 Roseberry St, Campbellton, New Brunswick E3N 2G6","name":""},
  {"lat":48.462756,"lon":-68.516986,"city":"Rimouski","state":"QC","address":"355 Rue Jessop, Rimouski, Quebec G5L 1M9","name":""},
  {"lat":46.81241,"lon":-71.31035,"city":"Quebec","state":"QC","address":"2845 Boul Pere Lelievre, Quebec, Quebec G1P 2X9","name":""},
  {"lat":46.17411,"lon":-65.882789,"city":"Chipman","state":"NB","address":"279 Main St, Chipman, New Brunswick E4A 2M8","name":""},
  {"lat":48.06024,"lon":-66.3698,"city":"Dalhousie","state":"QC","address":"173 Renfrew Street, Dalhousie, New Brunswick E8C 2J1","name":""},
  {"lat":48.85196,"lon":-67.51309,"city":"Matane","state":"QC","address":"521 Av Du Phare E, Matane, Quebec G4W 1A5","name":""},
  {"lat":47.369315,"lon":-68.323755,"city":"Edmundston","state":"NB","address":"191 Victoria St, Edmundston, New Brunswick E3V 2J1","name":""},
  {"lat":45.9641,"lon":-66.64885,"city":"Fredericton","state":"NB","address":"181 King St, Fredericton, New Brunswick E3B 1C8","name":""},
  {"lat":45.93924,"lon":-66.61178,"city":"Fredericton","state":"NB","address":"536 Riverside Drive, Fredericton, New Brunswick E3A 8C2","name":""},
  {"lat":45.88545,"lon":-66.68921,"city":"New Maryland","state":"NB","address":"510 New Maryland Hwy, New Maryland, New Brunswick E3C 1K1","name":""},
  {"lat":45.07012,"lon":-64.44177,"city":"New Minas","state":"NS","address":"9319 Commercial St., New Minas, Nova Scotia B4N 3G2","name":""},
  {"lat":44.205798,"lon":-66.140345,"city":"Meteghan Centre","state":"NS","address":"8762 Hwy 1, Meteghan Centre, Nova Scotia B0W 2K0","name":""},
  {"lat":45.970144,"lon":-61.133945,"city":"Waycobah","state":"NS","address":"9243 Hwy 105, Waycobah, Nova Scotia B0E 3M0","name":""},
  {"lat":48.14485,"lon":-53.955853,"city":"Clarenville","state":"NL","address":"130 Trans CA Hwy, Clarenville, Newfoundland and Labrador A0E 1J0","name":""},
  {"lat":47.945751,"lon":-53.950714,"city":"Goobies","state":"NL","address":"Trans Canada Hwy, Goobies, Newfoundland and Labrador A0B 1N0","name":""},
  {"lat":51.081685,"lon":-56.876886,"city":"Plum Point","state":"QC","address":"Route 430, Plum Point, Newfoundland and Labrador A0K 4A0","name":""},
  {"lat":49.013245,"lon":-57.601147,"city":"Pasadena","state":"NL","address":"63 Main St, Pasadena, Newfoundland and Labrador A0L 1K0","name":""},
  {"lat":48.952621,"lon":-57.948343,"city":"Corner Brook","state":"NL","address":"5 Mill Rd, Corner Brook, Newfoundland and Labrador A2H 6C2","name":""},
  {"lat":48.94198,"lon":-57.91641,"city":"Corner Brook","state":"NL","address":"8 Confederation Dr, Corner Brook, Newfoundland and Labrador A2H 7K5","name":""},
  {"lat":49.188209,"lon":-57.427459,"city":"Deer Lake","state":"NL","address":"62 Hwy 1/Trans Canada Hwy, Deer Lake, Newfoundland and Labrador A8A 2E4","name":""},
  {"lat":48.949943,"lon":-54.616964,"city":"Gander","state":"NL","address":"104 Trans Canada Hwy, Gander, Newfoundland and Labrador A1V 1P8","name":""},
  {"lat":48.961455,"lon":-54.64782,"city":"Gander","state":"NL","address":"300 Trans Canada Hwy, Gander, Newfoundland and Labrador A1V 1W8","name":""},
  {"lat":49.009135,"lon":-55.507886,"city":"Bishop Falls","state":"NL","address":"100 Trans Canada Hwy, Bishop Falls, Newfoundland and Labrador A0H 1C0","name":""},
  {"lat":47.543151,"lon":-53.277483,"city":"Clarkes Beach","state":"NL","address":"55 Conception Bay N Hwy, Clarkes Beach, Newfoundland and Labrador A0A 1W0","name":""},
  {"lat":48.504684,"lon":-58.435933,"city":"Stephenville Crossing","state":"NL","address":"2 Main St, Stephenville Crossing, Newfoundland and Labrador A0N 2C0","name":""},
  {"lat":47.590073,"lon":-59.161881,"city":"Port Aux Basques","state":"NL","address":"1 High Street, Port Aux Basques, Newfoundland and Labrador A0M 1C0","name":""},
  {"lat":47.54018,"lon":-52.75778,"city":"St. John'S","state":"NL","address":"32 Frecker Dr, St. John'S, Newfoundland and Labrador A1E 5Z2","name":""},
  {"lat":47.61412,"lon":-52.72183,"city":"St. John's","state":"NL","address":"2 Stavanger Dr, St. John's, Newfoundland and Labrador A1A 5E8","name":""},
  {"lat":47.53495,"lon":-52.847731,"city":"Paradise","state":"NL","address":"1641 Topsail Road, Paradise, Newfoundland and Labrador A1L 1V1","name":""},
  {"lat":47.523667,"lon":-52.748355,"city":"Kilbride","state":"NL","address":"12 Bay Bulls Rd, Kilbride, Newfoundland and Labrador A1G 1A5","name":""},
  {"lat":47.58184,"lon":-52.71257,"city":"St. John'S","state":"NL","address":"71 Elizabeth Ave, St. John'S, Newfoundland and Labrador A1A 1W8","name":""},
  {"lat":47.520769,"lon":-52.947353,"city":"Conception Bay South","state":"NL","address":"22 Conception Bay Hwy, Conception Bay South, Newfoundland and Labrador A1W 3A1","name":""},
  {"lat":42.884899,"lon":-72.54384,"city":"Chesterfield","state":"VT","address":"85 Route 9, Chesterfield, New Hampshire 03466","name":""},
  {"lat":42.948835,"lon":-72.319989,"city":"Keene","state":"NH","address":"650 Park Ave, Keene, New Hampshire 03431","name":""},
  {"lat":44.916264,"lon":-69.262853,"city":"Corinna","state":"ME","address":"60 Newport Rd, Corinna, Maine 04928","name":""},
  {"lat":44.910572,"lon":-69.4112,"city":"St Albans","state":"ME","address":"6 Main St, St Albans, Maine 04971","name":""},
  {"lat":44.519773,"lon":-72.001505,"city":"Lyndonville","state":"VT","address":"12 Broad St, Lyndonville, Vermont 05851","name":""},
  {"lat":42.866849,"lon":-72.335411,"city":"West Swanzey","state":"NH","address":"765 NH-10, West Swanzey, New Hampshire 03469","name":""},
  {"lat":45.055466,"lon":-74.775957,"city":"Cornwall","state":"ON","address":"3250 Brookdale Ave, Cornwall, Ontario K6K 1W3","name":""},
  {"lat":45.798974,"lon":-77.114396,"city":"Pembroke","state":"ON","address":"1751 Paul Martin Dr, Pembroke, Ontario K8A 6W5","name":""},
  {"lat":46.98232,"lon":-70.561395,"city":"Montmagny","state":"QC","address":"20 Boul Tache E, Montmagny, Quebec G5V 1B7","name":""},
  {"lat":47.5257,"lon":-52.76917,"city":"St. John's","state":"NL","address":"632 Topsail Rd, St. John's, Newfoundland and Labrador A1E 2C9","name":""},
  {"lat":47.519149,"lon":-52.807746,"city":"Mount Pearl","state":"NL","address":"22 Commonwealth Ave, Mount Pearl, Newfoundland and Labrador A1N 1W6","name":""},
  {"lat":47.594845,"lon":-52.709345,"city":"St. John's","state":"NL","address":"184 Torbay Rd, St. John's, Newfoundland and Labrador A1A 2H3","name":""},
  {"lat":47.449611,"lon":-53.560216,"city":"Whitbourne","state":"NL","address":"679 Whitbourne Rd, Whitbourne, Newfoundland and Labrador A0B 3K0","name":""},
  {"lat":47.503859,"lon":-52.859044,"city":"Donovans","state":"NL","address":"2630 Trans Canada Hwy, Donovans, Newfoundland and Labrador A1L 2A9","name":""},
  {"lat":47.390085,"lon":-53.121569,"city":"Holyrood","state":"NL","address":"377 Conception Bay Hwy, Holyrood, Newfoundland and Labrador A0A 2R0","name":""},
  {"lat":47.652824,"lon":-52.725202,"city":"Torbay","state":"NL","address":"1206 Torbay Rd, Torbay, Newfoundland and Labrador A0A 3Z0","name":""},
  {"lat":47.522265,"lon":-52.838455,"city":"Mount Pearl","state":"NL","address":"65 Clyde Ave, Mount Pearl, Newfoundland and Labrador A1N 4R8","name":""},
  {"lat":47.4646,"lon":-52.77161,"city":"Goulds","state":"NL","address":"358 Main Rd, Goulds, Newfoundland and Labrador A1S 1J1","name":""},
  {"lat":51.370026,"lon":-55.597869,"city":"St Anthony","state":"NL","address":"48 West St, St Anthony, Newfoundland and Labrador A0K 4S0","name":""},
  {"lat":48.391399,"lon":-53.629181,"city":"Southern Bay","state":"NL","address":"1 Discovery Trail, Southern Bay, Newfoundland and Labrador A0C 2M0","name":""},
  {"lat":47.074667,"lon":-55.823818,"city":"Fortune","state":"NL","address":"59 Bayview Street, Fortune, Newfoundland and Labrador A0E 1P0","name":""},
  {"lat":50.21617,"lon":-66.379073,"city":"Sept-Iles","state":"QC","address":"646, Boul Laure, Sept-Iles, Quebec G4R 1X9","name":""},
  {"lat":50.025636,"lon":-66.893584,"city":"Port Cartier","state":"QC","address":"60, Route 138, Port Cartier, Quebec G5B 2J6","name":""},
  {"lat":50.23121,"lon":-66.39272,"city":"Sept-Iles","state":"QC","address":"1114, Boul Laure, Sept-Iles, Quebec G4S 1C4","name":""},
  {"lat":48.58004,"lon":-68.18441,"city":"Mont Joli","state":"QC","address":"1810, Boul Gaboury, Mont Joli, Quebec G5H 3J2","name":""},
  {"lat":50.878642,"lon":-56.117327,"city":"Roddickton","state":"NL","address":"65 Major St, Roddickton, Newfoundland and Labrador A0K 4P0","name":""},
  {"lat":49.959607,"lon":-55.594307,"city":"La Scie","state":"NL","address":"119 Water St, La Scie, Newfoundland and Labrador A0K 3M0","name":""},
  {"lat":50.605052,"lon":-57.171993,"city":"Hawkes Bay","state":"NL","address":"38 Main Street, Hawkes Bay, Newfoundland and Labrador A0K 3B0","name":""},
  {"lat":49.126227,"lon":-66.483504,"city":"Sainte-Anne-Des-Monts","state":"QC","address":"5 Boul Ste Anne, Sainte-Anne-Des-Monts, Quebec G4V 1P4","name":""},
  {"lat":46.292859,"lon":-63.176676,"city":"Winsloe","state":"PE","address":"537 Malpeque Rd, Winsloe, Prince Edward Island C1E 1Z2","name":""},
  {"lat":48.98065,"lon":-56.03456,"city":"Badger","state":"NL","address":"2 Badger Rd, Badger, Newfoundland and Labrador A0H 1A0","name":""},
  {"lat":46.8046,"lon":-71.24385,"city":"Quebec","state":"QC","address":"750 Boul Charest O, Quebec, Quebec G1N 2C5","name":""},
  {"lat":45.907413,"lon":-66.58232,"city":"Fredericton","state":"NB","address":"1769 Lincoln Rd, Fredericton, New Brunswick E3B 8P4","name":""},
  {"lat":46.305883,"lon":-67.530298,"city":"Hartland","state":"NB","address":"550 Main St, Hartland, New Brunswick E7P 2N5","name":""},
  {"lat":45.054741,"lon":-66.787074,"city":"Black'S Harbour","state":"ME","address":"2 Wallace Cove Rd, Black'S Harbour, New Brunswick E5H 1H1","name":""},
  {"lat":45.352707,"lon":-65.543062,"city":"St Martins","state":"NB","address":"198 Main St, St Martins, New Brunswick E5R 1B6","name":""},
  {"lat":45.932438,"lon":-65.167766,"city":"Petitcodiac","state":"NB","address":"16 Smith St, Petitcodiac, New Brunswick E4Z 4W1","name":""},
  {"lat":45.90791,"lon":-64.37285,"city":"Sackville","state":"NB","address":"211 Main St, Sackville, New Brunswick E4L 4B5","name":""},
  {"lat":45.502995,"lon":-65.975091,"city":"Kingston","state":"NB","address":"878 Route 845, Kingston, New Brunswick E5N 1V3","name":""},
  {"lat":45.430835,"lon":-65.944501,"city":"Quispamsis","state":"NB","address":"525 Hampton Rd, Quispamsis, New Brunswick E2G 1C2","name":""},
  {"lat":46.127511,"lon":-64.831661,"city":"Moncton","state":"NB","address":"595 Lady Ada, Moncton, New Brunswick E1A 8P2","name":""},
  {"lat":46.223764,"lon":-64.422917,"city":"Grand Barachois","state":"NB","address":"1343 Rt 133, Grand Barachois, New Brunswick E4P 8C7","name":""},
  {"lat":45.973349,"lon":-64.565872,"city":"Memramcook","state":"NB","address":"603 Central Street, Memramcook, New Brunswick E4K 3W4","name":""},
  {"lat":46.441706,"lon":-67.649621,"city":"Florenceville","state":"NB","address":"305 Route 110, Florenceville, New Brunswick E7L 3P8","name":""},
  {"lat":45.34757,"lon":-66.01757,"city":"Saint John","state":"NB","address":"1700 Rothesay Rd, Saint John, New Brunswick E2H 2J4","name":""},
  {"lat":45.375559,"lon":-65.980979,"city":"Rothesay","state":"NB","address":"2870 Hwy 1, Exit 137B, Rothesay, New Brunswick E2E 6H1","name":""},
  {"lat":48.822922,"lon":-64.478137,"city":"Gaspe","state":"QC","address":"31 Boul de York E, Gaspe, Quebec G4X 2K9","name":""},
  {"lat":45.29494,"lon":-66.09736,"city":"Saint John","state":"NB","address":"701 Millidge Ave, Saint John, New Brunswick E2K 2N7","name":""},
  {"lat":45.41761,"lon":-65.94329,"city":"Quispamsis","state":"NB","address":"8 Millennium Dr, Quispamsis, New Brunswick E2E 4B1","name":""},
  {"lat":45.306459,"lon":-66.195577,"city":"Grand Bay-Westfield","state":"NB","address":"309 River Valley Dr, Grand Bay-Westfield, New Brunswick E5K 1A8","name":""},
  {"lat":45.27958,"lon":-66.05978,"city":"Saint John","state":"NB","address":"56 City Rd, Saint John, New Brunswick E2L 3M7","name":""},
  {"lat":45.52534,"lon":-65.82727,"city":"Hampton","state":"NB","address":"632 Main St, Hampton, New Brunswick E5N 6C5","name":""},
  {"lat":45.29899,"lon":-66.00744,"city":"Saint John","state":"NB","address":"830 Loch Lomond Rd, Saint John, New Brunswick E2J 1Z2","name":""},
  {"lat":47.63876,"lon":-65.705153,"city":"Bathurst","state":"NB","address":"1750 Vanier Boulevard, Bathurst, New Brunswick E2A 7B7","name":""},
  {"lat":45.33023,"lon":-65.89223,"city":"Saint John","state":"NB","address":"4207 Loch Lomond Rd, Saint John, New Brunswick E2N 1C6","name":""},
  {"lat":46.787411,"lon":-71.3525,"city":"Ancienne Lorette","state":"QC","address":"1241 Boul Duplessis, Ancienne Lorette, Quebec G2G 2B4","name":""},
  {"lat":46.174128,"lon":-65.883049,"city":"Chipman","state":"NB","address":"17 Bridge Street, Chipman, New Brunswick E4A 1R6","name":""},
  {"lat":46.737677,"lon":-71.216651,"city":"Lévis","state":"QC","address":"665 Av Taniata, Lévis, Quebec G6Z 2C1","name":""},
  {"lat":46.87205,"lon":-71.19426,"city":"Quebec","state":"QC","address":"222 Seigneuriale, Quebec, Quebec G1E 4E6","name":""},
  {"lat":46.703056,"lon":-71.286732,"city":"Saint-Redempteur","state":"QC","address":"2201, Route des Rivières à Lévis, Saint-Redempteur, Quebec G6K 1A6","name":""},
  {"lat":45.687895,"lon":-72.806439,"city":"St-Liboire","state":"QC","address":"1145 Rang St Edouard, Hwy 20, Exit 147, St-Liboire, Quebec J0H 1R0","name":""},
  {"lat":46.205381,"lon":-70.773806,"city":"Beauceville","state":"QC","address":"646 Boul Renault, Beauceville, Quebec G5X 1M4","name":""},
  {"lat":46.381713,"lon":-72.545128,"city":"Cap De La Madeleine","state":"QC","address":"605 Rue Thibeau, Cap De La Madeleine, Quebec G8T 6Z6","name":""},
  {"lat":46.128105,"lon":-70.685995,"city":"Saint-Georges-De-Beauce","state":"QC","address":"10275 Boul Lacroix, Saint-Georges-De-Beauce, Quebec G5Y 1K2","name":""},
  {"lat":46.187465,"lon":-70.708837,"city":"Notre Dame Des Pins","state":"QC","address":"2605 Route Kennedy, Notre Dame Des Pins, Quebec G0M 1K0","name":""},
  {"lat":46.098844,"lon":-71.32056,"city":"Thetford Mines","state":"QC","address":"505, Boul Smith Sud, Thetford Mines, Quebec G6G 1N5","name":""},
  {"lat":46.11503,"lon":-70.676744,"city":"St-Georges De Beauce","state":"QC","address":"1790, 6E Ave Ouest, St-Georges De Beauce, Quebec G5Y 3W5","name":""},
  {"lat":46.123046,"lon":-70.670425,"city":"St Georges","state":"QC","address":"11755 Boul Lacroix, St Georges, Quebec G5Y 1L4","name":""},
  {"lat":46.44179,"lon":-71.02174,"city":"Sainte-Marie","state":"QC","address":"200, Boul Vachon Nord, Sainte-Marie, Quebec G6E 4G7","name":""},
  {"lat":48.42293,"lon":-71.24357,"city":"Jonquiere","state":"QC","address":"3754 Boul Du Royaume, Jonquiere, Quebec G7X 1Y3","name":""},
  {"lat":45.408536,"lon":-72.729975,"city":"Granby","state":"QC","address":"223, Rue St Hubert, Granby, Quebec J2G 5M9","name":""},
  {"lat":45.393071,"lon":-72.681577,"city":"Granby","state":"QC","address":"554, Chemin Denison E, Granby, Quebec J2G 8C7","name":""},
  {"lat":45.399385,"lon":-72.734929,"city":"Granby","state":"QC","address":"111, Rue St Charles Sud, Granby, Quebec J2G 7A2","name":""},
  {"lat":45.421189,"lon":-72.746412,"city":"Granby","state":"QC","address":"250, Rue St Jude Nord, Granby, Quebec J2G 8C8","name":""},
  {"lat":49.225775,"lon":-68.191173,"city":"Baie-Comeau","state":"QC","address":"104 Boul Comeau, Baie-Comeau, Quebec G4Z 3A8","name":""},
  {"lat":45.386938,"lon":-71.936642,"city":"Sherbrooke","state":"QC","address":"2558, Rue Galt Ouest, Sherbrooke, Quebec J1K 1L6","name":""},
  {"lat":48.588978,"lon":-72.331388,"city":"Saint-Prime","state":"QC","address":"489 Rue Principale, Saint-Prime, Quebec G8J 1S5","name":""},
  {"lat":45.210298,"lon":-72.768893,"city":"Cowansville","state":"QC","address":"427, Rue Riviere, Cowansville, Quebec J2K 1N4","name":""},
  {"lat":45.132679,"lon":-71.803551,"city":"Coaticook","state":"QC","address":"87, Rue Principale, Coaticook, Quebec J1A 1N1","name":""},
  {"lat":48.42113,"lon":-71.23499,"city":"Jonquiere","state":"QC","address":"3635 Boul du Royaume, Jonquiere, Quebec G7X 9Z5","name":""},
  {"lat":45.377355,"lon":-71.977943,"city":"Rock Forest","state":"QC","address":"4475, Rue Bourque, Rock Forest, Quebec J1N 1C7","name":""},
  {"lat":48.839597,"lon":-67.565887,"city":"Matane","state":"QC","address":"1399 Av du Phare O, Matane, Quebec G4W 3N3","name":""},
  {"lat":46.71561,"lon":-71.34787,"city":"Levis","state":"QC","address":"845 Rue Marie-Victorin, Levis, Quebec G7A 3S8","name":""},
  {"lat":46.055822,"lon":-71.945949,"city":"Victoriaville","state":"QC","address":"199 Boul Bois-Francs S, Victoriaville, Quebec G6P 3V1","name":""},
  {"lat":46.51722,"lon":-72.74968,"city":"Shawinigan SUD","state":"QC","address":"2255 5E AV, Shawinigan SUD, Quebec G9P 1P2","name":""},
  {"lat":46.999452,"lon":-65.567589,"city":"Miramichi","state":"NB","address":"221 Pleasant St, Miramichi, New Brunswick EIV 2T3","name":""},
  {"lat":45.59516,"lon":-67.312224,"city":"McAdam","state":"ME","address":"153 Harvey Rd, McAdam, New Brunswick E6J 1A1","name":""},
  {"lat":45.941985,"lon":-65.831615,"city":"Youngs Cove","state":"NB","address":"10995 Route 10, Youngs Cove, New Brunswick E4C 2G5","name":""},
  {"lat":45.636063,"lon":-65.691344,"city":"Norton","state":"NB","address":"19 Route 124, Norton, New Brunswick E5T 2C3","name":""},
  {"lat":45.992945,"lon":-72.235909,"city":"Sainte-Clotilde-De-Horton","state":"QC","address":"6 Route 122, Sainte-Clotilde-De-Horton, Quebec J0A 1H0","name":""},
  {"lat":45.66381,"lon":-66.61476,"city":"Fredericton Junction","state":"NB","address":"207 Sunbury Dr, Fredericton Junction, New Brunswick E5L 1R7","name":""},
  {"lat":46.816027,"lon":-71.373754,"city":"Sainte-Foy","state":"QC","address":"4409 Boul Chauveau O, Sainte-Foy, Quebec G2E 1A2","name":""},
  {"lat":48.42554,"lon":-71.26148,"city":"Jonquiere","state":"QC","address":"4024, Boul Du Royaume, Jonquiere, Quebec G7X 1Y7","name":""},
  {"lat":48.657272,"lon":-72.450461,"city":"St-Felicien","state":"QC","address":"1335, Boul Du Sacre Coeur, St-Felicien, Quebec G8K 2R1","name":""},
  {"lat":48.42466,"lon":-71.18044,"city":"Jonquiere","state":"QC","address":"2005, Boul Mellon, Jonquiere, Quebec G7S 4K8","name":""},
  {"lat":48.881264,"lon":-72.232053,"city":"Dolbeau Mistassini","state":"QC","address":"1721, Boul Wallberg, Dolbeau Mistassini, Quebec G8L 1H7","name":""},
  {"lat":48.555819,"lon":-71.639442,"city":"Alma","state":"QC","address":"404 Du Pont Ave N, Alma, Quebec G8B 5E3","name":""},
  {"lat":48.33723,"lon":-70.88857,"city":"La Baie","state":"QC","address":"1542, Rue Bagot, La Baie, Quebec G7B 2P8","name":""},
  {"lat":48.403288,"lon":-71.25002,"city":"Jonquiere","state":"QC","address":"2600, Rue St-Hubert S, Jonquiere, Quebec G7X 8S3","name":""},
  {"lat":48.54514,"lon":-71.65965,"city":"Alma","state":"QC","address":"490 Bl St Judes, Alma, Quebec G8B 3J9","name":""},
  {"lat":48.438469,"lon":-71.0613,"city":"Chicoutimi Nord","state":"QC","address":"2082, Rue Roussel, Chicoutimi Nord, Quebec G7G 1W1","name":""},
  {"lat":46.054636,"lon":-71.983436,"city":"Victoriaville","state":"QC","address":"775 Notre Dame O, Victoriaville, Quebec G6P 1T9","name":""},
  {"lat":48.11167,"lon":-66.224564,"city":"Saint-Omer","state":"QC","address":"122, Route 132 Ouest, Saint-Omer, Quebec G0C 2Z0","name":""},
  {"lat":48.347337,"lon":-64.700482,"city":"Chandler","state":"QC","address":"519, Boul Rene Levesque O, Chandler, Quebec G0C 1K0","name":""},
  {"lat":48.174071,"lon":-65.982782,"city":"Maria","state":"QC","address":"511 Boul Perron, Maria, Quebec G0C 1Y0","name":""},
  {"lat":48.028337,"lon":-65.25233,"city":"Paspebiac","state":"QC","address":"41, Boul Gerard D Levesque O, Paspebiac, Quebec G0C 2K0","name":""},
  {"lat":46.433901,"lon":-71.011505,"city":"Sainte-Marie de Beauce","state":"QC","address":"609 Boul Vachon Sud, Sainte-Marie de Beauce, Quebec G6E 3H4","name":""},
  {"lat":47.423901,"lon":-72.784947,"city":"La Tuque","state":"QC","address":"1042, Boul Ducharme, La Tuque, Quebec G9X 3C4","name":""},
  {"lat":48.045934,"lon":-65.494931,"city":"Bonaventure","state":"QC","address":"102, Rue Port Royal, Bonaventure, Quebec G0C 1E0","name":""},
  {"lat":46.104424,"lon":-64.70771,"city":"Dieppe","state":"NB","address":"330 Dieppe Blvd, Dieppe, New Brunswick E1A 6P8","name":""},
  {"lat":46.863311,"lon":-71.330277,"city":"Quebec","state":"QC","address":"1085 Ave Lapierre, Quebec, Quebec G3E 1H8","name":""},
  {"lat":45.20765,"lon":-67.27015,"city":"St. Stephen","state":"ME","address":"5 NB 170, St. Stephen, New Brunswick E3L 2C1","name":""},
  {"lat":45.25195,"lon":-66.09886,"city":"Saint John","state":"NB","address":"783 Fairville Blvd, Saint John, New Brunswick E2M 5T9","name":""},
  {"lat":45.948257,"lon":-72.446015,"city":"Saint-Cyrille-De-Wendover","state":"QC","address":"4505 de la Sortie 185, Saint-Cyrille-De-Wendover, Quebec J1Z 1B4","name":""},
  {"lat":45.3037,"lon":-65.99287,"city":"Saint John","state":"NB","address":"1233 Loch Lomond Rd, Saint John, New Brunswick E2J 3V4","name":""},
  {"lat":45.112921,"lon":-66.731569,"city":"Pennfield","state":"NB","address":"5030 Route 1, Pennfield, New Brunswick E5H0B4","name":""},
  {"lat":46.215194,"lon":-64.269794,"city":"Cap Pele","state":"NB","address":"2660 Rue Acadie, Cap Pele, New Brunswick E4N 1E5","name":""},
  {"lat":45.39595,"lon":-65.98258,"city":"Rothesay","state":"NB","address":"4 Marr Rd, Rothesay, New Brunswick E2E 3L3","name":""},
  {"lat":46.22463,"lon":-64.51385,"city":"Shediac","state":"NB","address":"584 Main St, Shediac, New Brunswick E4P 2H2","name":""},
  {"lat":45.722784,"lon":-65.506252,"city":"Sussex","state":"NB","address":"653 Main St, Sussex, New Brunswick E4E 7H6","name":""},
  {"lat":45.124784,"lon":-66.81815,"city":"St George","state":"NB","address":"82 L'Etete Rd, St George, New Brunswick E5C 3H6","name":""},
  {"lat":45.736381,"lon":-65.499792,"city":"Four Corners","state":"NB","address":"11 Route 890, Four Corners, New Brunswick E4G 2V8","name":""},
  {"lat":46.14226,"lon":-67.582628,"city":"Woodstock","state":"ME","address":"195 Broadway St, Woodstock, New Brunswick E7M 1B8","name":""},
  {"lat":45.177,"lon":-67.29607,"city":"Milltown","state":"ME","address":"419 Milltown Blvd, Milltown, New Brunswick E3L 1J5","name":""},
  {"lat":46.75361,"lon":-71.37877,"city":"Saint-Augustin-De-Desmaures","state":"QC","address":"3652 Rue de L'Hetriere, Saint-Augustin-De-Desmaures, Quebec G3A 2L4","name":""},
  {"lat":46.78387,"lon":-71.28789,"city":"Quebec","state":"QC","address":"2481 Ch Sainte-Foy, Quebec, Quebec G1V 1T7","name":""},
  {"lat":45.45551,"lon":-66.341844,"city":"Welsford","state":"NB","address":"1669 Route 7, Welsford, New Brunswick E5K 3Y9","name":""},
  {"lat":46.889249,"lon":-71.189647,"city":"Quebec","state":"QC","address":"490 Boul Raymond, Quebec, Quebec G1C 7E2","name":""},
  {"lat":46.77147,"lon":-71.14313,"city":"Pintendre","state":"QC","address":"580 Route du Président-Kennedy, Pintendre, Quebec G6C 1M9","name":""},
  {"lat":45.869804,"lon":-64.280276,"city":"Aulac","state":"NS","address":"170 Aulac Rd, Hwy 2, EXIT 513A, Aulac, New Brunswick E4L 2X2","name":""},
  {"lat":45.81197,"lon":-64.20317,"city":"Amherst","state":"NS","address":"213 South Albion St, Amherst, Nova Scotia B4H 3Y4","name":""},
  {"lat":44.375846,"lon":-64.608163,"city":"Newcombville","state":"NS","address":"3916 Highway 325, Newcombville, Nova Scotia B4V 7V8","name":""},
  {"lat":44.763606,"lon":-65.499392,"city":"Granville Ferry","state":"NS","address":"4793 Highway 1, Granville Ferry, Nova Scotia B0S 1A0","name":""},
  {"lat":43.521584,"lon":-65.615535,"city":"Barrington Passage","state":"NS","address":"3714 Route 3, Barrington Passage, Nova Scotia B0W 1G0","name":""},
  {"lat":45.613332,"lon":-62.009465,"city":"Antigonish","state":"NS","address":"3085 Hwy 4, Antigonish, Nova Scotia B2G 2K5","name":""},
  {"lat":45.939402,"lon":-66.611833,"city":"FREDERICTON","state":"NB","address":"536 RIVERSIDE DR, FREDERICTON, New Brunswick E3A8C2","name":""},
  {"lat":47.505857,"lon":-67.392525,"city":"SAINT-QUENTIN","state":"NB","address":"131 RUE CANADA, SAINT-QUENTIN, New Brunswick E8A 1J4","name":""},
  {"lat":46.34692,"lon":-60.998744,"city":"Margaree Centre","state":"NS","address":"231 Granton Crossroads, Margaree Centre, Nova Scotia B0E 1Z0","name":""},
  {"lat":46.896346,"lon":-67.395279,"city":"PLASTER ROCK","state":"ME","address":"162 MAIN STREET, Route 108, PLASTER ROCK, New Brunswick E7G2E4","name":""},
  {"lat":47.020398,"lon":-65.44517,"city":"CHATHAM","state":"NB","address":"184 KING ST, CHATHAM, New Brunswick E1N2P2","name":""},
  {"lat":45.25161,"lon":-66.100163,"city":"SAINT JOHN","state":"NB","address":"783 FAIRVILLE BLVD, EXIT 119 B, SAINT JOHN, New Brunswick E2M5T9","name":""},
  {"lat":45.736764,"lon":-65.500472,"city":"Four Corners","state":"NB","address":"11 Route 890, Four Corners, New Brunswick E4G 2V8","name":""},
  {"lat":44.698009,"lon":-63.604116,"city":"DARTMOUTH","state":"NS","address":"626 WINDMILL RD, DARTMOUTH, Nova Scotia B3B1B5","name":""},
  {"lat":44.3914,"lon":-64.527287,"city":"BRIDGEWATER","state":"NS","address":"463 NORTH ST, EXIT 12, BRIDGEWATER, Nova Scotia B4V2W1","name":""},
  {"lat":44.635926,"lon":-63.677094,"city":"BEECHVILLE","state":"NS","address":"1075 ST MARGARETS BAY RD, BEECHVILLE, Nova Scotia B3T1A6","name":""},
  {"lat":46.897979,"lon":-71.123652,"city":"BOISCHATEL","state":"QC","address":"5550 BOUL ST ANNE, BOISCHATEL, Quebec G0A1H0","name":""},
  {"lat":43.844682,"lon":-66.108973,"city":"YARMOUTH","state":"NS","address":"65 STARRS RD, YARMOUTH, Nova Scotia B5A2T2","name":""},
  {"lat":46.787245,"lon":-71.352129,"city":"ANCIENNE LORETTE","state":"QC","address":"1241 BOUL DUPLESSIS ROUTE 20, ANCIENNE LORETTE, Quebec G2G2B4","name":""},
  {"lat":46.25242,"lon":-63.121241,"city":"CHARLOTTETOWN","state":"PE","address":"76 ST. PETERS RD, CHARLOTTETOWN, Prince Edward Island C1A5N8","name":""},
  {"lat":45.687874,"lon":-72.805065,"city":"ST-LIBOIRE","state":"QC","address":"1145 RANG ST EDOUARD, HWY 20 EXIT 145, ST-LIBOIRE, Quebec J0H 1R0","name":""},
  {"lat":45.567373,"lon":-73.522585,"city":"MONTREAL","state":"QC","address":"5910 RUE NOTRE DAME EST, MONTREAL, Quebec HIN 2C5","name":""},
  {"lat":46.737869,"lon":-71.215631,"city":"ST. JEAN CHRYSOSTOME","state":"QC","address":"665 Avenue Taniata à Lévis, ST. JEAN CHRYSOSTOME, Quebec G6Z 2C1","name":""},
  {"lat":46.122188,"lon":-67.606161,"city":"BEARDSLEY","state":"ME","address":"198 BEARDSLEY RD, HWY 2, EXIT 191, BEARDSLEY, New Brunswick E2M3Z7","name":""},
  {"lat":45.055795,"lon":-74.776161,"city":"CORNWALL","state":"ON","address":"3250 BROOKDALE AVE, CORNWALL, Ontario K6J 5R9","name":""},
  {"lat":45.948858,"lon":-72.445248,"city":"ST. CYRILLE DE WENDOVER","state":"QC","address":"4505 SORTIE 185, AUT 20, ST. CYRILLE DE WENDOVER, Quebec J1Z 1B4","name":""},
  {"lat":46.898223,"lon":-71.123085,"city":"Boischatel","state":"QC","address":"5550 Boul Ste Anne, Boischatel, Quebec G0A 1H0","name":""},
  {"lat":48.433652,"lon":-72.078614,"city":"CHAMBORD","state":"QC","address":"1778 RUE PRINCIPALE, CHAMBORD, Quebec G0W1G0","name":""},
  {"lat":49.192186,"lon":-68.302461,"city":"BAIE COMEAU","state":"QC","address":"2929 BOUL LAFLECHE, BAIE COMEAU, Quebec G5C1E6","name":""},
  {"lat":47.487796,"lon":-69.431365,"city":"ST. ANTONIN","state":"QC","address":"960 ROUTE des Roches, ST. ANTONIN, Quebec G0L2J0","name":""},
  {"lat":50.025844,"lon":-66.893221,"city":"PORT CARTIER","state":"QC","address":"60 ROUTE 138, PORT CARTIER, Quebec G5B2J6","name":""},
  {"lat":48.184752,"lon":-58.780735,"city":"DOYLES","state":"NL","address":"P.O. BOX 213, DOYLES, Newfoundland and Labrador A0N1J0","name":""},
  {"lat":49.1266,"lon":-66.484885,"city":"STE ANNE DES MONTS","state":"QC","address":"5 BOUL STE. ANNE OUEST, STE ANNE DES MONTS, Quebec G0E2G0","name":""},
  {"lat":48.580366,"lon":-68.183838,"city":"MONT JOLI","state":"QC","address":"1810 RUE GABOURY, MONT JOLI, Quebec G5H3J2","name":""},
  {"lat":45.874191,"lon":-68.416101,"city":"SHERMAN","state":"ME","address":"P.O. BOX 407, SHERMAN, Maine 04776","name":""},
  {"lat":47.422924,"lon":-72.784994,"city":"LA TUQUE","state":"QC","address":"1044 BOUL DUCHARME, LA TUQUE, Quebec G9X3C4","name":""},
  {"lat":44.594591,"lon":-69.618292,"city":"FAIRFIELD","state":"ME","address":"204 CENTER ROAD, EXIT 133, FAIRFIELD, Maine 04937","name":""},
  {"lat":45.221941,"lon":-67.569119,"city":"PRINCETON","state":"ME","address":"87 MAIN STREET, PRINCETON, Maine 04668","name":""},
  {"lat":45.609939,"lon":-68.524208,"city":"MEDWAY","state":"ME","address":"1941 MEDWAY ROAD, MEDWAY, Maine 04460","name":""},
  {"lat":43.685712,"lon":-70.328218,"city":"PORTLAND","state":"ME","address":"270 RIVERSIDE ST, PORTLAND, Maine 04103","name":""},
  {"lat":44.3241,"lon":-69.8651,"city":"Manchester","state":"ME","address":"759 Western Ave, Manchester, Maine 04351","name":""},
  {"lat":43.985,"lon":-69.6969,"city":"Wiscasset","state":"ME","address":"639 Bath Rd, Wiscasset, Maine 04578","name":""},
  {"lat":44.764857,"lon":-68.706557,"city":"HOLDEN","state":"ME","address":"87 MAIN RD, HOLDEN, Maine 04429","name":""},
  {"lat":44.785594,"lon":-69.731386,"city":"SKOWHEGAN","state":"ME","address":"374 MADISON AVE, SKOWHEGAN, Maine 04976","name":""},
  {"lat":43.583943,"lon":-70.361732,"city":"SCARBOROUGH","state":"ME","address":"401 US ROUTE 1, SCARBOROUGH, Maine 04074","name":""},
  {"lat":44.348623,"lon":-69.796071,"city":"AUGUSTA","state":"ME","address":"284 CIVIC CENTER DR, AUGUSTA, Maine 04332","name":""},
  {"lat":45.362301,"lon":-68.515862,"city":"LINCOLN","state":"ME","address":"114 WEST BROADWAY, LINCOLN, Maine 04457","name":""},
  {"lat":43.478186,"lon":-70.493858,"city":"BIDDEFORD","state":"ME","address":"513 ALFRED RD, BIDDEFORD, Maine 04005","name":""},
  {"lat":43.099384,"lon":-70.747135,"city":"KITTERY","state":"ME","address":"103 RTE 1 BYPASS, I-95 EXIT 2, KITTERY, Maine 03904","name":""},
  {"lat":44.034695,"lon":-70.26681,"city":"AUBURN","state":"ME","address":"1813 WASHINGTON ST, I-95 EXIT 75, AUBURN, Maine 04210","name":""},
  {"lat":43.040513,"lon":-71.065125,"city":"EPPING","state":"NH","address":"249 CALEF HWY, EPPING, New Hampshire 03042","name":""},
  {"lat":44.335377,"lon":-69.759206,"city":"Augusta","state":"ME","address":"5 Denali Way, Augusta, Maine 04330","name":""},
  {"lat":47.411166,"lon":-70.402386,"city":"Saint-Bernard-Sur-Mer","state":"QC","address":"1233 Ch des Coudriers, Saint-Bernard-Sur-Mer, Quebec G0A 3J0","name":""},
  {"lat":47.484011,"lon":-69.275923,"city":"Saint-Eleuthere","state":"QC","address":"1818 Rue Principale, Saint-Eleuthere, Quebec G0L 1J0","name":""},
  {"lat":50.272604,"lon":-66.415529,"city":"Sept-Iles","state":"QC","address":"2121, Boul Laure, Sept-Iles, Quebec G4R 4K1","name":""},
  {"lat":47.657836,"lon":-70.119649,"city":"La Malbaie","state":"QC","address":"170 Boul Malcolm Fraser, La Malbaie, Quebec G5A 2M1","name":""},
  {"lat":45.409275,"lon":-71.849202,"city":"Fleurimont","state":"QC","address":"1780, Rue King Est, Fleurimont, Quebec J1H 5H2","name":""},
  {"lat":47.829306,"lon":-69.533265,"city":"Riviere Du Loup","state":"QC","address":"446, Rue Lafontaine, Riviere Du Loup, Quebec G5R 3B8","name":""},
  {"lat":45.420149,"lon":-71.873371,"city":"Sherbrooke","state":"QC","address":"825, Des Quatre Saisons, Sherbrooke, Quebec J1E 3S1","name":""},
  {"lat":45.388475,"lon":-71.960042,"city":"Sherbrooke","state":"QC","address":"3935, Rue King Ouest, Sherbrooke, Quebec J1L 1W7","name":""},
  {"lat":48.519444,"lon":-72.225247,"city":"Roberval","state":"QC","address":"912 Boul Marcotte, Roberval, Quebec G8H 1Z8","name":""},
  {"lat":44.594547,"lon":-69.617937,"city":"Fairfield","state":"ME","address":"204 Centre Rd, Fairfield, Maine 04937","name":""},
  {"lat":44.538936,"lon":-68.317704,"city":"Hancock","state":"ME","address":"750 Us Route 1, Hancock, Maine 04640","name":""},
  {"lat":44.829665,"lon":-68.740943,"city":"Bangor","state":"ME","address":"633 Hogan Rd, Bangor, Maine 04401","name":""},
  {"lat":43.862582,"lon":-70.10605,"city":"Freeport","state":"ME","address":"57 Mallett Dr, Freeport, Maine 04032","name":""},
  {"lat":43.842171,"lon":-70.119107,"city":"Freeport","state":"ME","address":"574 Us Route 1, Freeport, Maine 04032","name":""},
  {"lat":44.014295,"lon":-70.361686,"city":"Poland","state":"ME","address":"4 Spring Water Rd, Poland, Maine 04274","name":""},
  {"lat":44.166761,"lon":-68.691926,"city":"Stonington","state":"ME","address":"1 Burnt Cove Rd, Stonington, Maine 04681","name":""},
  {"lat":44.217478,"lon":-68.67473,"city":"Deer Isle","state":"ME","address":"107 Church St, Deer Isle, Maine 04627","name":""},
  {"lat":44.590551,"lon":-69.595189,"city":"Fairfield","state":"ME","address":"227 Main St, Fairfield, Maine 04937","name":""},
  {"lat":44.761837,"lon":-69.564772,"city":"Canaan","state":"ME","address":"247 Main St, Canaan, Maine 04924","name":""},
  {"lat":44.479935,"lon":-69.509506,"city":"China","state":"ME","address":"1390 Lakeview Dr, China, Maine 04358","name":""},
  {"lat":44.603485,"lon":-69.659597,"city":"Fairfield","state":"ME","address":"149 Norridgewock Rd, Fairfield, Maine 04937","name":""},
  {"lat":45.123068,"lon":-67.348841,"city":"Baileyville","state":"ME","address":"32 Houlton Rd, Baileyville, Maine 04694","name":""},
  {"lat":45.609737,"lon":-68.523788,"city":"Medway","state":"ME","address":"1941 Medway Rd, Medway, Maine 04460","name":""},
  {"lat":43.881325,"lon":-70.465297,"city":"Raymond","state":"ME","address":"1239 Roosevelt Trail, Raymond, Maine 04071","name":""},
  {"lat":46.143084,"lon":-67.840147,"city":"Houlton","state":"ME","address":"267 North Street, I-95 Exit 302, Houlton, Maine 04730","name":""},
  {"lat":44.322658,"lon":-69.84615,"city":"Manchester","state":"ME","address":"759 Western Ave, Manchester, Maine 04351","name":""},
  {"lat":45.874425,"lon":-68.416836,"city":"Sherman","state":"ME","address":"18 Main St, Sherman, Maine 04776","name":""},
  {"lat":45.04198,"lon":-64.73443,"city":"Berwick","state":"NS","address":"174 Commercial St, Berwick, Nova Scotia B0P 1E0","name":""},
  {"lat":44.119604,"lon":-69.101996,"city":"Rockland","state":"ME","address":"136 Camden St, Rockland, Maine 04841","name":""},
  {"lat":44.3763,"lon":-64.32552,"city":"Lunenburg","state":"NS","address":"150 Victoria Rd, Lunenburg, Nova Scotia B0J 2C0","name":""},
  {"lat":44.729304,"lon":-65.491358,"city":"Annapolis Royal","state":"NS","address":"9543 Route 8, Annapolis Royal, Nova Scotia B0S 1A0","name":""},
  {"lat":44.546617,"lon":-64.724236,"city":"New Germany","state":"NS","address":"5254 Route 10, New Germany, Nova Scotia B0R 1E0","name":""},
  {"lat":44.391452,"lon":-64.527727,"city":"Bridgewater","state":"NS","address":"463 North St, Bridgewater, Nova Scotia B4V 2W6","name":""},
  {"lat":44.3718,"lon":-64.537683,"city":"Bridgewater","state":"NS","address":"2742 Hwy 325, Rte 5, Bridgewater, Nova Scotia B4V 2W4","name":""},
  {"lat":44.377406,"lon":-64.33995,"city":"Lunenburg","state":"NS","address":"11261 Hwy 3, Lunenburg, Nova Scotia B0J 2C0","name":""},
  {"lat":44.546457,"lon":-64.236395,"city":"Chester","state":"NS","address":"3839 North St, Chester, Nova Scotia B0J 1J0","name":""},
  {"lat":49.21763,"lon":-68.16626,"city":"Baie Comeau","state":"QC","address":"193, Boul Lasalle, Baie Comeau, Quebec G4Z 1S7","name":""},
  {"lat":49.192236,"lon":-68.301959,"city":"Baie Comeau","state":"QC","address":"2929, Boul Lafleche, Baie Comeau, Quebec G5C 1E6","name":""},
  {"lat":44.598344,"lon":-65.771241,"city":"Digby","state":"NS","address":"510 Route 303, Digby, Nova Scotia B0V 1A0","name":""},
  {"lat":44.724519,"lon":-63.703957,"city":"Bedford","state":"NS","address":"30 Gary Martin Dr, Bedford, Nova Scotia B4B 0P7","name":""},
  {"lat":44.65309,"lon":-63.59326,"city":"Halifax","state":"NS","address":"2499 Robie St, Halifax, Nova Scotia B3K 4N2","name":""},
  {"lat":44.59405,"lon":-63.63883,"city":"Halifax","state":"NS","address":"503 Old Sambro Rd, Halifax, Nova Scotia B3V 1A1","name":""},
  {"lat":46.33165,"lon":-72.59411,"city":"Trois Rivieres","state":"QC","address":"5850 Boul Jean Xxiii, Trois Rivieres, Quebec G8Z 4B5","name":""},
  {"lat":44.688267,"lon":-63.87993,"city":"Tantallon","state":"NS","address":"5210 St Margarets Bay Rd, Tantallon, Nova Scotia B3Z 1E3","name":""},
  {"lat":44.78529,"lon":-63.59778,"city":"Waverley","state":"NS","address":"2599 Rocky Lake Dr, Waverley, Nova Scotia B2R 1S6","name":""},
  {"lat":44.6438,"lon":-63.60359,"city":"Halifax","state":"NS","address":"6515 Quinpool Rd, Halifax, Nova Scotia B3L 1B4","name":""},
  {"lat":44.84554,"lon":-63.801513,"city":"Mount Uniacke","state":"NS","address":"31 Route 1, Mount Uniacke, Nova Scotia B0N 1Z0","name":""},
  {"lat":45.339176,"lon":-64.786205,"city":"Advocate Harbour","state":"NS","address":"3554 Route 209, Advocate Harbour, Nova Scotia B0M 1A0","name":""},
  {"lat":44.63619,"lon":-63.67736,"city":"Beechville","state":"NS","address":"1075 St Margarets Bay Rd, Beechville, Nova Scotia B3T 1A6","name":""},
  {"lat":44.68359,"lon":-63.66053,"city":"Halifax","state":"NS","address":"389 Bedford Hwy, Halifax, Nova Scotia B3M 2L3","name":""},
  {"lat":44.65921,"lon":-63.67086,"city":"Halifax","state":"NS","address":"15 Fairfax Dr, Halifax, Nova Scotia B3S 1T3","name":""},
  {"lat":47.449255,"lon":-70.519878,"city":"Baie St Paul","state":"QC","address":"1066, Blvd Mgr De Laval, Baie St Paul, Quebec G3Z 2W9","name":""},
  {"lat":43.039005,"lon":-71.161958,"city":"RAYMOND","state":"NH","address":"51 ROUTE 27, RAYMOND, New Hampshire 03077","name":""},
  {"lat":43.616364,"lon":-71.638432,"city":"NEW HAMPTON","state":"NH","address":"290 ROUTE 104, NEW HAMPTON, New Hampshire 03256","name":""},
  {"lat":43.176255,"lon":-71.529913,"city":"BOW JUNCTION","state":"NH","address":"500 ROUTE 3A, I-93 EXIT 12S, BOW JUNCTION, New Hampshire 03304","name":""},
  {"lat":44.396613,"lon":-71.194163,"city":"GORHAM","state":"NH","address":"350 MAIN STREET, GORHAM, New Hampshire 03581","name":""},
  {"lat":43.289242,"lon":-71.833521,"city":"WARNER","state":"NH","address":"32 Route 103 West at I-89, WARNER, New Hampshire 03278","name":""},
  {"lat":42.729311,"lon":-71.209967,"city":"METHUEN","state":"MA","address":"181 PELHAM ST, METHUEN, Massachusetts 01844","name":""},
  {"lat":43.26426,"lon":-72.437267,"city":"SPRINGFIELD","state":"NH","address":"14 MISSING LINK RD, I-91 EXIT 7, SPRINGFIELD, Vermont 05156","name":""},
  {"lat":44.212485,"lon":-72.575546,"city":"Berlin","state":"VT","address":"159 Paine Turnpike North, Berlin, Vermont 05602","name":""},
  {"lat":42.544646,"lon":-71.874956,"city":"WESTMINSTER","state":"MA","address":"21 VILLAGE INN RD, WESTMINSTER, Massachusetts 01473","name":""},
  {"lat":44.539097,"lon":-68.416206,"city":"Ellsworth","state":"ME","address":"85 High St, Ellsworth, Maine 04605","name":""},
  {"lat":44.714404,"lon":-67.458093,"city":"Machias","state":"ME","address":"8 Main St, Machias, Maine 04654","name":""},
  {"lat":44.405115,"lon":-68.99073,"city":"Belfast","state":"ME","address":"209 Northport Ave, Belfast, Maine 04915","name":""},
  {"lat":44.818269,"lon":-68.774376,"city":"Bangor","state":"ME","address":"489 Broadway, Bangor, Maine 04401","name":""},
  {"lat":45.18097,"lon":-67.25982,"city":"Calais","state":"ME","address":"691 Main St, Calais, Maine 04619","name":""},
  {"lat":44.797583,"lon":-68.760493,"city":"Brewer","state":"ME","address":"304 N Main St, Brewer, Maine 04412","name":""},
  {"lat":45.222116,"lon":-67.569596,"city":"Princeton","state":"ME","address":"87 Main St, Princeton, Maine 04668","name":""},
  {"lat":43.685558,"lon":-70.328583,"city":"Portland","state":"ME","address":"270 Riverside St, Portland, Maine 04103","name":""},
  {"lat":45.183475,"lon":-69.251892,"city":"Dover-Foxcroft","state":"ME","address":"1021 W Main St, Dover-Foxcroft, Maine 04426","name":""},
  {"lat":43.629366,"lon":-70.293875,"city":"South Portland","state":"ME","address":"327 Main St, South Portland, Maine 04106","name":""},
  {"lat":44.787881,"lon":-68.778404,"city":"Bangor","state":"ME","address":"545 Main St, Bangor, Maine 04401","name":""},
  {"lat":44.906032,"lon":-68.688755,"city":"Orono","state":"ME","address":"2 Stillwater Ave, Orono, Maine 04473","name":""},
  {"lat":45.184396,"lon":-67.282547,"city":"Calais","state":"ME","address":"175 North St, Calais, Maine 04619","name":""},
  {"lat":43.91193,"lon":-69.995645,"city":"Brunswick","state":"ME","address":"205 Pleasant St, Brunswick, Maine 04011","name":""},
  {"lat":44.619994,"lon":-67.798653,"city":"Harrington","state":"ME","address":"1141 E Main St, Harrington, Maine 04643","name":""},
  {"lat":44.663892,"lon":-70.148794,"city":"Farmington","state":"ME","address":"309 Main St, Farmington, Maine 04938","name":""},
  {"lat":44.101616,"lon":-69.380859,"city":"Waldoboro","state":"ME","address":"1555 Atlantic Hwy, Waldoboro, Maine 04572","name":""},
  {"lat":44.12051,"lon":-70.203243,"city":"Lewiston","state":"ME","address":"674 Main St, Lewiston, Maine 04210","name":""},
  {"lat":43.633571,"lon":-70.314576,"city":"South Portland","state":"ME","address":"474 Westbrook St, South Portland, Maine 04106","name":""},
  {"lat":44.22276,"lon":-70.514599,"city":"South Paris","state":"ME","address":"32 Main St, South Paris, Maine 04281","name":""},
  {"lat":43.862362,"lon":-69.627335,"city":"Boothbay Harbor","state":"ME","address":"199 Townsend Ave, Boothbay Harbor, Maine 04538","name":""},
  {"lat":44.60798,"lon":-63.67309,"city":"Goodwood","state":"NS","address":"599 Prospect Rd, Goodwood, Nova Scotia B3T 1P2","name":""},
  {"lat":43.649054,"lon":-70.333418,"city":"Portland","state":"ME","address":"2282 Congress St, Portland, Maine 04101","name":""},
  {"lat":42.899763,"lon":-72.429777,"city":"Spofford","state":"NH","address":"1474 Route 9, Spofford, New Hampshire 03462","name":""},
  {"lat":43.422743,"lon":-71.999542,"city":"New London","state":"NH","address":"220 Newport Rd., New London, New Hampshire 03257","name":""},
  {"lat":43.431925,"lon":-72.065769,"city":"Georges Mills","state":"NH","address":"1281 Route 11, Georges Mills, New Hampshire 03751","name":""},
  {"lat":46.8591,"lon":-71.2636,"city":"Quebec","state":"QC","address":"14045 Boul. Henri-Bourassa, Quebec, Quebec G1H 3E6","name":""},
  {"lat":43.436619,"lon":-71.822372,"city":"Andover","state":"NH","address":"193 Main Street, Andover, New Hampshire 03216","name":""},
  {"lat":44.081612,"lon":-70.256889,"city":"Auburn","state":"ME","address":"700 Minot Ave, Auburn, Maine 04210","name":""},
  {"lat":43.975711,"lon":-69.708791,"city":"Wiscasset","state":"ME","address":"639 Bath Rd, Wiscasset, Maine 04578","name":""},
  {"lat":43.305053,"lon":-70.584787,"city":"Wells","state":"ME","address":"1045 Post Rd, Wells, Maine 04090","name":""},
  {"lat":44.797848,"lon":-69.880938,"city":"Madison","state":"ME","address":"92 Main St, Madison, Maine 04950","name":""},
  {"lat":44.544959,"lon":-69.676684,"city":"Waterville","state":"ME","address":"445 Kennedy Memorial Dr, Waterville, Maine 04901","name":""},
  {"lat":44.34914,"lon":-69.796247,"city":"Augusta","state":"ME","address":"284 Civic Center Dr, Augusta, Maine 04332","name":""},
  {"lat":43.619347,"lon":-70.30617,"city":"South Portland","state":"ME","address":"690 Main St, South Portland, Maine 04106","name":""},
  {"lat":44.785711,"lon":-69.731662,"city":"Skowhegan","state":"ME","address":"374 Madison Ave, Skowhegan, Maine 04976","name":""},
  {"lat":45.657469,"lon":-68.691877,"city":"Millinocket","state":"ME","address":"719 Central Avenue, Millinocket, Maine 04462","name":""},
  {"lat":44.424946,"lon":-70.797358,"city":"Bethel","state":"ME","address":"211 Mayville Rd, Bethel, Maine 04217","name":""},
  {"lat":43.638509,"lon":-72.264672,"city":"Lebanon","state":"NH","address":"119 Mechanic St, Lebanon, New Hampshire 03766","name":""},
  {"lat":46.136308,"lon":-67.839541,"city":"Houlton","state":"ME","address":"112 North St, Houlton, Maine 04730","name":""},
  {"lat":43.040105,"lon":-71.470817,"city":"Hooksett","state":"NH","address":"28 W River Rd, Hooksett, New Hampshire 03106","name":""},
  {"lat":43.586095,"lon":-71.206588,"city":"Wolfeboro","state":"NH","address":"28 Center St., Route 28, Wolfeboro, New Hampshire 03894","name":""},
  {"lat":43.121399,"lon":-71.441793,"city":"Allenstown","state":"NH","address":"24 Allenstown Rd, Allenstown, New Hampshire 03275","name":""},
  {"lat":42.929044,"lon":-71.46077,"city":"Bedford","state":"NH","address":"4 Technology Dr, Bedford, New Hampshire 03110","name":""},
  {"lat":43.029063,"lon":-71.440579,"city":"Hooksett","state":"NH","address":"6 Bell Ave, Hooksett, New Hampshire 03106","name":""},
  {"lat":42.818874,"lon":-71.413928,"city":"Hudson","state":"NH","address":"329 Derry Rd, Hudson, New Hampshire 03051","name":""},
  {"lat":44.781203,"lon":-71.137778,"city":"Errol","state":"NH","address":"25 Main St, Errol, New Hampshire 03579","name":""},
  {"lat":42.974848,"lon":-71.513835,"city":"Bedford","state":"NH","address":"8 White Ave, Bedford, New Hampshire 03110","name":""},
  {"lat":44.566785,"lon":-71.550482,"city":"Northumberland","state":"NH","address":"611 Lancaster Rd, Northumberland, New Hampshire 03582","name":""},
  {"lat":43.042026,"lon":-71.304181,"city":"Candia","state":"NH","address":"285 Old Candia Rd, Candia, New Hampshire 03034","name":""},
  {"lat":43.199162,"lon":-71.551735,"city":"Concord","state":"NH","address":"190 Pleasant St, Concord, New Hampshire 03301","name":""},
  {"lat":43.109842,"lon":-71.475688,"city":"Hooksett","state":"NH","address":"530 West River Rd, Hooksett, New Hampshire 03106","name":""},
  {"lat":43.444513,"lon":-71.475707,"city":"Belmont","state":"NH","address":"944 Laconia Rd, Belmont, New Hampshire 03220","name":""},
  {"lat":43.259712,"lon":-71.580429,"city":"Concord","state":"NH","address":"114 Fisherville Rd, Concord, New Hampshire 03301","name":""},
  {"lat":43.362131,"lon":-72.171614,"city":"Newport","state":"NH","address":"27 S Main St, Newport, New Hampshire 03773","name":""},
  {"lat":44.280337,"lon":-71.686319,"city":"Bethlehem","state":"NH","address":"2164 Main St, Bethlehem, New Hampshire 03574","name":""},
  {"lat":43.616182,"lon":-71.63864,"city":"New Hampton","state":"NH","address":"290 Route 104, New Hampton, New Hampshire 03256","name":""},
  {"lat":43.040548,"lon":-71.065117,"city":"Epping","state":"NH","address":"249 Calef Hwy, Epping, New Hampshire 03042","name":""},
  {"lat":43.047613,"lon":-71.461246,"city":"Hooksett","state":"NH","address":"86 W River Rd, Hooksett, New Hampshire 03106","name":""},
  {"lat":43.195171,"lon":-71.152823,"city":"Northwood","state":"NH","address":"185 1st NH Turnpike, Northwood, New Hampshire 03261","name":""},
  {"lat":43.478086,"lon":-70.49459,"city":"Biddeford","state":"ME","address":"513 Alfred St, Biddeford, Maine 04005","name":""},
  {"lat":44.110522,"lon":-71.179358,"city":"Glen","state":"NH","address":"Junction Route 16 & 302, Glen, New Hampshire 03838","name":""},
  {"lat":43.540769,"lon":-71.465827,"city":"Laconia","state":"NH","address":"535 Union Ave, Laconia, New Hampshire 03246","name":""},
  {"lat":43.584431,"lon":-70.361671,"city":"Scarborough","state":"ME","address":"401 Us Route 1, Scarborough, Maine 04074","name":""},
  {"lat":43.150137,"lon":-70.667587,"city":"York","state":"ME","address":"454 Us Route 1, York, Maine 03909","name":""},
  {"lat":43.420532,"lon":-70.757191,"city":"Sanford","state":"ME","address":"1227 Main St, Sanford, Maine 04073","name":""},
  {"lat":45.361958,"lon":-68.515373,"city":"Lincoln","state":"ME","address":"114 W Broadway, Lincoln, Maine 04457","name":""},
  {"lat":46.113378,"lon":-68.160403,"city":"Oakfield","state":"ME","address":"236 Smyrna Rd, Oakfield, Maine 04763","name":""},
  {"lat":43.528311,"lon":-70.426641,"city":"Saco","state":"ME","address":"775 Portland Rd, Saco, Maine 04072","name":""},
  {"lat":47.248929,"lon":-68.600977,"city":"Fort Kent","state":"ME","address":"308 W Main St, Fort Kent, Maine 04743","name":""},
  {"lat":46.863093,"lon":-68.004731,"city":"Caribou","state":"ME","address":"35 Bennett Dr, Caribou, Maine 04736","name":""},
  {"lat":44.102692,"lon":-70.225685,"city":"Auburn","state":"ME","address":"21 Center St, Auburn, Maine 04210","name":""},
  {"lat":44.74423,"lon":-68.837701,"city":"Hampden","state":"ME","address":"63 Main Rd N, Hampden, Maine 04444","name":""},
  {"lat":46.698753,"lon":-68.010002,"city":"Presque Isle","state":"ME","address":"800 Main St, Presque Isle, Maine 04769","name":""},
  {"lat":44.790078,"lon":-68.811058,"city":"Bangor","state":"ME","address":"301 Odlin Rd, Bangor, Maine 04401","name":""},
  {"lat":43.735507,"lon":-70.296621,"city":"Falmouth","state":"ME","address":"65 Gray Rd W, Falmouth, Maine 04105","name":""},
  {"lat":44.570766,"lon":-68.787055,"city":"Bucksport","state":"ME","address":"31 US Route 1, Bucksport, Maine 04416","name":""},
  {"lat":44.6835,"lon":-63.6747,"city":"Halifax","state":"NS","address":"122 Kearney Lake Rd, Halifax, Nova Scotia B3M 3P1","name":""},
  {"lat":44.73496,"lon":-63.79152,"city":"Hammonds Plains","state":"NS","address":"2200 Hammonds Plains Rd, Hammonds Plains, Nova Scotia B4B 1M5","name":""},
  {"lat":47.638668,"lon":-70.146804,"city":"La Malbaie","state":"QC","address":"330, Boul De La Comporte, La Malbaie, Quebec G5A 2Y7","name":""},
  {"lat":44.69827,"lon":-63.60407,"city":"Dartmouth","state":"NS","address":"626 Windmill Rd, Dartmouth, Nova Scotia B3B 1B5","name":""},
  {"lat":45.98578,"lon":-59.99357,"city":"Catalone","state":"NS","address":"5790 Louisbourg Hwy, Catalone, Nova Scotia B1C 2G5","name":""},
  {"lat":45.70742,"lon":-63.28422,"city":"Tatamagouche","state":"NS","address":"389 Main St, Tatamagouche, Nova Scotia B0K 1V0","name":""},
  {"lat":45.09146,"lon":-64.50108,"city":"Kentville","state":"NS","address":"466 Aldershot Rd, Kentville, Nova Scotia B4N 3A4","name":""},
  {"lat":45.6103,"lon":-62.0013,"city":"Antigonish","state":"NS","address":"32 Nova Landing, West River, Antigonish, Nova Scotia B2G 0G6","name":""},
  {"lat":44.636765,"lon":-64.070906,"city":"Hubbards","state":"NS","address":"90 Main St, Hubbards, Nova Scotia B0J 1T0","name":""},
  {"lat":44.77644,"lon":-63.69508,"city":"Lower Sackville","state":"NS","address":"857 Sackville Dr, Lower Sackville, Nova Scotia B4E 1S1","name":""},
  {"lat":44.67303,"lon":-63.48108,"city":"Cole Harbour","state":"NS","address":"1207 Cole Harbour Rd, Cole Harbour, Nova Scotia B2V 1M9","name":""},
  {"lat":44.692591,"lon":-63.545737,"city":"Dartmouth","state":"NS","address":"200 Waverley Rd, Dartmouth, Nova Scotia B2X 2C1","name":""},
  {"lat":47.760633,"lon":-69.432145,"city":"St-Antonin","state":"QC","address":"960, Route des Roches, St-Antonin, Quebec G0L 2J0","name":""},
  {"lat":47.457692,"lon":-69.202709,"city":"Pohenegamook","state":"QC","address":"908 Rue Principale, Pohenegamook, Quebec G0L 1J0","name":""},
  {"lat":45.10328,"lon":-64.305161,"city":"Grand Pre","state":"NS","address":"11671 Route 1, Grand Pre, Nova Scotia B0P 1M0","name":""},
  {"lat":45.084755,"lon":-64.397515,"city":"Greenwich","state":"NS","address":"10095 Route 1, Greenwich, Nova Scotia B4P 2R2","name":""},
  {"lat":45.05691,"lon":-64.47046,"city":"New Minas","state":"NS","address":"5477 Prospect Rd, Hwy 101W, Exit 12, New Minas, Nova Scotia B4N 3K9","name":""},
  {"lat":44.96969,"lon":-64.9385,"city":"Greenwood","state":"NS","address":"741 Central Ave, Greenwood, Nova Scotia B0P 1H0","name":""},
  {"lat":44.44997,"lon":-64.38093,"city":"Mahone Bay","state":"NS","address":"33 Edgewater St, Mahone Bay, Nova Scotia B0J 2E0","name":""},
  {"lat":44.045491,"lon":-64.72221,"city":"Liverpool","state":"NS","address":"167 Bristol Ave, Liverpool, Nova Scotia B0T 1K0","name":""},
  {"lat":44.407869,"lon":-65.996079,"city":"Weymouth","state":"NS","address":"4544 Hwy 1, Weymouth, Nova Scotia B0W 3T0","name":""},
  {"lat":43.701986,"lon":-71.109223,"city":"Ossipee","state":"NH","address":"885 Route 16, Ossipee, New Hampshire 03864","name":""},
  {"lat":44.302588,"lon":-66.121281,"city":"Little Brook","state":"NS","address":"999 Route 1, Little Brook, Nova Scotia B0W 1Z0","name":""},
  {"lat":44.943608,"lon":-65.066673,"city":"Middleton","state":"NS","address":"369 Main St, Middleton, Nova Scotia B0S 1P0","name":""},
  {"lat":43.038966,"lon":-71.161669,"city":"Raymond","state":"NH","address":"51 Route 27, Raymond, New Hampshire 03077","name":""},
  {"lat":44.9242,"lon":-62.53991,"city":"Sheet Harbour","state":"NS","address":"22512 Route 7, Sheet Harbour, Nova Scotia B0J 3B0","name":""},
  {"lat":45.649021,"lon":-61.43913,"city":"Auld's Cove","state":"NS","address":"13239 Route 104, Auld's Cove, Nova Scotia B0H 1P0","name":""},
  {"lat":45.567609,"lon":-62.644461,"city":"New Glasgow","state":"NS","address":"5197 East River Rd, New Glasgow, Nova Scotia B2H 5C5","name":""},
  {"lat":45.576314,"lon":-62.725743,"city":"Westville","state":"NS","address":"2500 Hwy 4, Westville, Nova Scotia B0K 2A0","name":""},
  {"lat":46.2064,"lon":-60.25188,"city":"North Sydney","state":"NS","address":"183 Commercial St, North Sydney, Nova Scotia B2A 1B5","name":""},
  {"lat":43.129403,"lon":-70.770238,"city":"Eliot","state":"ME","address":"162 Harold L Dow Hwy, Eliot, Maine 03903","name":""},
  {"lat":43.937183,"lon":-69.971321,"city":"Topsham","state":"ME","address":"4 Hamilton Ct, Topsham, Maine 04086","name":""},
  {"lat":43.650467,"lon":-70.257965,"city":"Portland","state":"ME","address":"393 Commercial St, Portland, Maine 04101","name":""},
  {"lat":43.099048,"lon":-70.747544,"city":"Kittery","state":"ME","address":"103 Route 1 Bypass, I-95 Exit 2, Kittery, Maine 03904","name":""},
  {"lat":44.385586,"lon":-69.359876,"city":"Liberty","state":"ME","address":"498 Belfast Augusta Road, Liberty, Maine 04949","name":""},
  {"lat":43.907047,"lon":-69.935519,"city":"Brunswick","state":"ME","address":"142 Bath Rd, Brunswick, Maine 04011","name":""},
  {"lat":44.46947,"lon":-69.834201,"city":"Belgrade","state":"ME","address":"932 Augusta Rd, Belgrade, Maine 04917","name":""},
  {"lat":44.400926,"lon":-69.032675,"city":"Belfast","state":"ME","address":"6 Back Belmont Rd, Belfast, Maine 04915","name":""},
  {"lat":45.395557,"lon":-68.135608,"city":"Springfield","state":"ME","address":"985 Main St., Route 6, Springfield, Maine 04487","name":""},
  {"lat":43.175537,"lon":-71.529772,"city":"Bow","state":"NH","address":"500 Route 3A, I-93 Exit 12S, Bow, New Hampshire 03304","name":""},
  {"lat":43.221939,"lon":-71.494637,"city":"Concord","state":"NH","address":"231 Loudon Rd, Concord, New Hampshire 03301","name":""},
  {"lat":43.498837,"lon":-71.026205,"city":"Sanbornville","state":"NH","address":"18 Wakefield Rd, Sanbornville, New Hampshire 03872","name":""},
  {"lat":44.751743,"lon":-72.180782,"city":"Barton","state":"VT","address":"452 Main St, Barton, Vermont 05822","name":""},
  {"lat":45.004254,"lon":-72.100334,"city":"Derby Line","state":"VT","address":"109 Main St N, Derby Line, Vermont 05830","name":""},
  {"lat":43.613341,"lon":-72.965174,"city":"Rutland","state":"VT","address":"86 Woodstock Ave, Rutland, Vermont 05701","name":""},
  {"lat":43.661187,"lon":-72.340679,"city":"Hartford","state":"VT","address":"1477 Maple St, Hartford, Vermont 05047","name":""},
  {"lat":43.086315,"lon":-72.439029,"city":"Westminster","state":"VT","address":"5190 Us Route 5, Westminster, Vermont 05159","name":""},
  {"lat":42.836877,"lon":-72.565526,"city":"Brattleboro","state":"VT","address":"564 Canal St, Brattleboro, Vermont 05301","name":""},
  {"lat":42.209972,"lon":-71.184375,"city":"Norwood","state":"MA","address":"69 Providence Hwy, Norwood, Massachusetts 02062","name":""},
  {"lat":43.264286,"lon":-72.436442,"city":"Springfield","state":"NH","address":"14 Missing Link Rd, I-91 Exit 7, Springfield, Vermont 05156","name":""},
  {"lat":42.14991,"lon":-72.814796,"city":"Westfield","state":"MA","address":"1400 Russell Rd, Westfield, Massachusetts 01085","name":""},
  {"lat":42.354221,"lon":-71.134811,"city":"Allston","state":"MA","address":"434 Cambridge St, Allston, Massachusetts 02134","name":""},
  {"lat":43.031125,"lon":-70.78712,"city":"Portsmouth","state":"NH","address":"2470 Lafayette Rd, Portsmouth, New Hampshire 03801","name":""},
  {"lat":42.791817,"lon":-71.235518,"city":"Salem","state":"NH","address":"238 N Broadway, Salem, New Hampshire 03079","name":""},
  {"lat":42.841517,"lon":-71.718758,"city":"Milford","state":"NH","address":"792 Elm St, Milford, New Hampshire 03055","name":""},
  {"lat":44.020175,"lon":-71.116052,"city":"North Conway","state":"NH","address":"1500 White Mountain Hwy, North Conway, New Hampshire 03860","name":""},
  {"lat":43.289254,"lon":-71.833971,"city":"Warner","state":"NH","address":"32 Rte 103 W, Warner, New Hampshire 03278","name":""},
  {"lat":43.497305,"lon":-72.134943,"city":"Grantham","state":"NH","address":"84 Route 10 South, Grantham, New Hampshire 03753","name":""},
  {"lat":43.501165,"lon":-71.461633,"city":"Belmont","state":"NH","address":"9 Plummer Hill Rd, Belmont, New Hampshire 03220","name":""},
  {"lat":42.729961,"lon":-71.210342,"city":"Methuen","state":"MA","address":"181 Pelham St, Methuen, Massachusetts 01844","name":""},
  {"lat":43.661511,"lon":-71.494248,"city":"Meredith","state":"NH","address":"81 Nh Route 25, Meredith, New Hampshire 03253","name":""},
  {"lat":43.258174,"lon":-70.97913,"city":"Rochester","state":"NH","address":"201 Gonic Rd, Rochester, New Hampshire 03839","name":""},
  {"lat":42.468971,"lon":-72.613609,"city":"Whately","state":"MA","address":"1 Sunderland Rd, Whately, Massachusetts 01093","name":""},
  {"lat":42.471191,"lon":-72.615615,"city":"South Deerfield","state":"MA","address":"1 Greenfield Road, Rt 191, South Deerfield, Massachusetts 01373","name":""},
  {"lat":42.586212,"lon":-72.624565,"city":"Greenfield","state":"MA","address":"223 Mohawk Trail, Rt 91, Greenfield, Massachusetts 01301","name":""},
  {"lat":41.787209,"lon":-71.077309,"city":"Assonet","state":"MA","address":"68 S Main St, Assonet, Massachusetts 02702","name":""},
  {"lat":41.819374,"lon":-71.375228,"city":"East Providence","state":"RI","address":"155 Taunton Ave, East Providence, Rhode Island 02914","name":""},
  {"lat":41.770565,"lon":-70.957512,"city":"East Freetown","state":"MA","address":"4 Chace Rd, East Freetown, Massachusetts 02717","name":""},
  {"lat":41.666352,"lon":-72.602651,"city":"S. Glastonbury","state":"CT","address":"890 Main St, S. Glastonbury, Connecticut 06073","name":""},
  {"lat":44.098743,"lon":-69.864925,"city":"Richmond","state":"ME","address":"712 Main St, Richmond, Maine 04357","name":""},
  {"lat":43.699857,"lon":-72.289706,"city":"Hanover","state":"NH","address":"73 Main Street, Hanover, New Hampshire 03755","name":""},
  {"lat":43.64953,"lon":-72.311014,"city":"West Lebanon","state":"VT","address":"89 Main St, West Lebanon, New Hampshire 03784","name":""},
  {"lat":43.432424,"lon":-71.867103,"city":"Andover","state":"NH","address":"718 Main St, Andover, New Hampshire 03216","name":""},
  {"lat":44.134242,"lon":-73.083734,"city":"Bristol","state":"VT","address":"42 West St, Bristol, Vermont 05443","name":""},
  {"lat":42.152061,"lon":-71.407745,"city":"Medway","state":"MA","address":"71 Main St, Medway, Massachusetts 02053","name":""},
  {"lat":44.55765,"lon":-72.608514,"city":"Morrisville","state":"VT","address":"621 Laporte Rd, Morrisville, Vermont 05661","name":""},
  {"lat":44.951603,"lon":-72.156739,"city":"Newport","state":"VT","address":"4397 Route 5, Newport, Vermont 05855","name":""},
  {"lat":44.980631,"lon":-73.454847,"city":"Champlain","state":"NY","address":"985 Route 11, Champlain, New York 12919","name":""},
  {"lat":42.64047,"lon":-72.004223,"city":"Winchendon","state":"MA","address":"93 Gardner Rd, Winchendon, Massachusetts 01475","name":""},
  {"lat":44.203485,"lon":-72.508707,"city":"Barre","state":"VT","address":"411 North Main St, Barre, Vermont 05641","name":""},
  {"lat":43.99167,"lon":-70.292641,"city":"New Gloucester","state":"ME","address":"1029 Lewiston Rd, New Gloucester, Maine 04260","name":""},
  {"lat":43.823637,"lon":-72.60596,"city":"Bethel","state":"VT","address":"2069 Us Route 107, Bethel, Vermont 05032","name":""},
  {"lat":43.188954,"lon":-70.886058,"city":"Dover","state":"NH","address":"171 Silver St, Dover, New Hampshire 03820","name":""},
  {"lat":43.504293,"lon":-72.132829,"city":"Grantham","state":"NH","address":"249 Route 10 N, Grantham, New Hampshire 03753","name":""},
  {"lat":45.284361,"lon":-69.498997,"city":"Monson","state":"ME","address":"32 Tenney Hill Rd, Monson, Maine 04464","name":""},
  {"lat":45.02656,"lon":-69.288567,"city":"Dexter","state":"ME","address":"74 Church St, Dexter, Maine 04930","name":""},
  {"lat":45.305844,"lon":-69.035473,"city":"Brownville","state":"ME","address":"253 Main St, Brownville, Maine 04414","name":""},
  {"lat":45.167373,"lon":-69.385861,"city":"Guilford","state":"ME","address":"2 Elm St, Guilford, Maine 04443","name":""},
  {"lat":44.985837,"lon":-69.007112,"city":"Corinth","state":"ME","address":"624 Main Street, Corinth, Maine 04427","name":""},
  {"lat":44.785331,"lon":-69.400141,"city":"Pittsfield","state":"ME","address":"494 Somerset Ave, Pittsfield, Maine 04967","name":""},
  {"lat":44.938551,"lon":-73.044732,"city":"Highgate","state":"VT","address":"3108 Vt Route 78, Highgate, Vermont 05459","name":""},
  {"lat":48.552637,"lon":-71.640644,"city":"Alma","state":"QC","address":"220 Av du Pont N, Alma, Quebec G8B 5C5","name":""},
  {"lat":45.112989,"lon":-66.732245,"city":"PENNFIELD","state":"NB","address":"5030 Route 1, PENNFIELD, New Brunswick E5H 0B2","name":""},
  {"lat":45.567779,"lon":-62.644093,"city":"NEW GLASGOW","state":"NS","address":"5197 E RIVER RD, NEW GLASGOW, Nova Scotia B2H5C5","name":""},
  {"lat":46.30776,"lon":-72.58598,"city":"Trois Rivieres","state":"QC","address":"7710 Rue Notre Dame, Trois Rivieres, Quebec G9B 1L9","name":""},
  {"lat":46.612732,"lon":-72.695203,"city":"Grand-Mere","state":"QC","address":"800, 6ieme Avenue, Grand-Mere, Quebec G9T 3B1","name":""},
  {"lat":44.882902,"lon":-68.672565,"city":"Orono","state":"ME","address":"53 Main St, Orono, Maine 04473","name":""},
  {"lat":45.67677,"lon":-62.71297,"city":"Pictou","state":"NS","address":"91 Church St, Pictou, Nova Scotia B0K 1H0","name":""},
  {"lat":44.926951,"lon":-63.536457,"city":"Enfield","state":"NS","address":"6757 Hwy 2, Exit 7, Enfield, Nova Scotia B2T 1C8","name":""},
  {"lat":43.773007,"lon":-65.329642,"city":"Shelburne","state":"NS","address":"41 Falls Lane, Shelburne, Nova Scotia B0T 1W0","name":""},
  {"lat":42.511738,"lon":-71.043182,"city":"Wakefield","state":"MA","address":"448 Salem St, Wakefield, Massachusetts 01880","name":""},
  {"lat":46.13537,"lon":-60.19114,"city":"Sydney","state":"NS","address":"565 George St, Sydney, Nova Scotia B1K 1K8","name":""},
  {"lat":42.744926,"lon":-71.109352,"city":"Haverhill","state":"MA","address":"32 Knipe Rd, Haverhill, Massachusetts 01835","name":""},
  {"lat":42.500621,"lon":-70.926594,"city":"Salem","state":"MA","address":"323 Highland Ave, Salem, Massachusetts 01970","name":""},
  {"lat":42.846369,"lon":-70.915461,"city":"Amesbury","state":"MA","address":"24 Rocky Hill Rd, Amesbury, Massachusetts 01913","name":""},
  {"lat":44.39675,"lon":-71.19429,"city":"Gorham","state":"NH","address":"350 Main St, Gorham, New Hampshire 03581","name":""},
  {"lat":43.699163,"lon":-71.643034,"city":"Ashland","state":"NH","address":"19 West St, Ashland, New Hampshire 03217","name":""},
  {"lat":44.459068,"lon":-71.187477,"city":"Berlin","state":"NH","address":"318 Glen Ave, Berlin, New Hampshire 03570","name":""},
  {"lat":43.979159,"lon":-71.116471,"city":"Conway","state":"NH","address":"7 White Mountain Hwy, Conway, New Hampshire 03818","name":""},
  {"lat":42.974213,"lon":-70.835063,"city":"North Hampton","state":"NH","address":"73 Lafayette Rd, North Hampton, New Hampshire 03862","name":""},
  {"lat":43.759867,"lon":-71.679665,"city":"Holderness","state":"NH","address":"95 Nh Route 175A, Holderness, New Hampshire 03245","name":""},
  {"lat":44.296778,"lon":-71.768784,"city":"Littleton","state":"NH","address":"336 Cottage St, Littleton, New Hampshire 03561","name":""},
  {"lat":43.235712,"lon":-70.881303,"city":"Somersworth","state":"NH","address":"425 High St, Somersworth, New Hampshire 03878","name":""},
  {"lat":43.070118,"lon":-70.93968,"city":"Newmarket","state":"NH","address":"78 Exeter Rd, Newmarket, New Hampshire 03857","name":""},
  {"lat":43.457047,"lon":-71.564067,"city":"Tilton","state":"NH","address":"90 Laconia Rd, Tilton, New Hampshire 03276","name":""},
  {"lat":44.468616,"lon":-71.184068,"city":"Berlin","state":"NH","address":"83 Pleasant St, Berlin, New Hampshire 03570","name":""},
  {"lat":43.178855,"lon":-70.901897,"city":"Dover","state":"NH","address":"165 Knox Marsh Rd, Dover, New Hampshire 03820","name":""},
  {"lat":43.212049,"lon":-70.994999,"city":"Barrington","state":"NH","address":"143 Route 9, Barrington, New Hampshire 03825","name":""},
  {"lat":42.885464,"lon":-70.869586,"city":"Seabrook","state":"NH","address":"361 Lafayette Rd, Seabrook, New Hampshire 03874","name":""},
  {"lat":43.11188,"lon":-71.917684,"city":"Hillsborough","state":"NH","address":"295 W Main St, Hillsborough, New Hampshire 03244","name":""},
  {"lat":44.2711,"lon":-71.5398,"city":"Bretton Woods","state":"NH","address":"2267 Route 302 E, Bretton Woods, New Hampshire 03595","name":""},
  {"lat":42.994247,"lon":-70.925698,"city":"Stratham","state":"NH","address":"2 Stratham Heights Rd, Stratham, New Hampshire 03885","name":""},
  {"lat":43.010425,"lon":-71.543529,"city":"Goffstown","state":"NH","address":"277 Mast Rd, Goffstown, New Hampshire 03045","name":""},
  {"lat":46.087385,"lon":-60.252977,"city":"Sydney","state":"NS","address":"1948 Kings Rd, Sydney, Nova Scotia B1L 1C6","name":""},
  {"lat":45.3497,"lon":-63.31088,"city":"Truro","state":"NS","address":"86 Connector Rd, Hwy 102S, Exit 13, Truro, Nova Scotia B2N 5B6","name":""},
  {"lat":45.36797,"lon":-63.31782,"city":"Truro","state":"NS","address":"7 Robie St, Truro, Nova Scotia B2N 1K8","name":""},
  {"lat":42.902329,"lon":-71.319635,"city":"Derry","state":"NH","address":"55 Bypass 28, Derry, New Hampshire 03038","name":""},
  {"lat":44.975053,"lon":-63.50736,"city":"Elmsdale","state":"NS","address":"248 Hwy 214, Elmsdale, Nova Scotia B2S 1J9","name":""},
  {"lat":44.974574,"lon":-64.110053,"city":"Garlands Crossing","state":"NS","address":"4164 Route 1, Garlands Crossing, Nova Scotia B0N 2T0","name":""},
  {"lat":46.08772,"lon":-60.780122,"city":"Baddeck","state":"NS","address":"8250 Shore Rd, Baddeck, Nova Scotia B0E 1B0","name":""},
  {"lat":45.72544,"lon":-63.87941,"city":"Oxford","state":"NS","address":"4602 Upper Main St, Oxford, Nova Scotia B0M 1P0","name":""},
  {"lat":44.994092,"lon":-64.148215,"city":"Falmouth","state":"NS","address":"2113 Route 1, Falmouth, Nova Scotia B0P 1L0","name":""},
  {"lat":44.989904,"lon":-64.119837,"city":"Windsor","state":"NS","address":"169 Wentworth Rd, Windsor, Nova Scotia B0N 2T0","name":""},
  {"lat":43.84429,"lon":-66.10897,"city":"Yarmouth","state":"NS","address":"65 Starrs Rd, Yarmouth, Nova Scotia B5A 2T2","name":""},
  {"lat":46.19703,"lon":-59.95779,"city":"Glace Bay","state":"NS","address":"632 Main St, Glace Bay, Nova Scotia B1A 4X8","name":""},
  {"lat":43.85169,"lon":-66.11469,"city":"Yarmouth","state":"NS","address":"632 Main Street, Yarmouth, Nova Scotia B5A 1K3","name":""},
  {"lat":44.65485,"lon":-63.52858,"city":"Dartmouth","state":"NS","address":"275 Baker Dr, Dartmouth, Nova Scotia B2W 0L6","name":""},
  {"lat":43.644088,"lon":-71.735213,"city":"Bridgewater","state":"NH","address":"408 Mayhew Turnpike, Bridgewater, New Hampshire 03222","name":""},
  {"lat":43.288918,"lon":-72.472423,"city":"Springfield","state":"VT","address":"197 Clinton St, Springfield, Vermont 05156","name":""},
  {"lat":42.914579,"lon":-71.366566,"city":"Londonderry","state":"NH","address":"124 Rockingham Rd, Londonderry, New Hampshire 03053","name":""},
  {"lat":42.914653,"lon":-71.450127,"city":"Manchester","state":"NH","address":"20 Roundstone Dr, Manchester, New Hampshire 03103","name":""},
  {"lat":43.375823,"lon":-72.334165,"city":"Claremont","state":"NH","address":"58 Washington St, Claremont, New Hampshire 03743","name":""},
  {"lat":44.41441,"lon":-72.132314,"city":"Danville","state":"VT","address":"421 Route 2 E, Danville, Vermont 05828","name":""},
  {"lat":41.547745,"lon":-73.019026,"city":"Waterbury","state":"CT","address":"1405 East Main St, Waterbury, Connecticut 06706","name":""},
  {"lat":44.418678,"lon":-72.029527,"city":"Saint Johnsbury","state":"VT","address":"85 US Route 2 West, Saint Johnsbury, Vermont 05819","name":""},
  {"lat":44.280139,"lon":-72.421333,"city":"Plainfield","state":"VT","address":"8132 US Route 2, Plainfield, Vermont 05667","name":""},
  {"lat":44.802133,"lon":-73.088323,"city":"St Albans","state":"VT","address":"171 S Main St, St Albans, Vermont 05478","name":""},
  {"lat":44.03465,"lon":-70.266935,"city":"Auburn","state":"ME","address":"1813 Washington St, I-95 Exit 75, Auburn, Maine 04210","name":""},
  {"lat":44.934757,"lon":-72.211624,"city":"Newport","state":"VT","address":"273-283 Main St, Newport, Vermont 05855","name":""},
  {"lat":44.6359,"lon":-70.153312,"city":"Farmington","state":"ME","address":"507 Wilton Rd, Farmington, Maine 04938","name":""},
  {"lat":43.002613,"lon":-70.919753,"city":"Stratham","state":"NH","address":"44 Portsmouth Ave, Stratham, New Hampshire 03885","name":""},
  {"lat":42.755,"lon":-72.0047,"city":"Rindge","state":"NH","address":"462 US Route 202, Rindge, New Hampshire 03461","name":""},
  {"lat":44.836449,"lon":-69.287328,"city":"Newport","state":"ME","address":"18 Moosehead Trl, Newport, Maine 04953","name":""},
  {"lat":42.93329,"lon":-72.293383,"city":"Keene","state":"NH","address":"410 West St, Keene, New Hampshire 03431","name":""},
  {"lat":44.064142,"lon":-71.686746,"city":"Lincoln","state":"NH","address":"467 US Route 3, Lincoln, New Hampshire 03251","name":""},
  {"lat":44.419027,"lon":-71.474328,"city":"Jefferson","state":"NH","address":"764 Presidential Hwy, Jefferson, New Hampshire 03583","name":""},
  {"lat":44.214646,"lon":-71.907913,"city":"Lisbon","state":"NH","address":"79 N Main St, Lisbon, New Hampshire 03585","name":""},
  {"lat":42.273457,"lon":-71.766579,"city":"Worcester","state":"MA","address":"310 Belmont St, Worcester, Massachusetts 01604","name":""},
  {"lat":43.148301,"lon":-71.006055,"city":"Lee","state":"NH","address":"48 Concord Rd, Lee, New Hampshire 03824","name":""},
  {"lat":43.834204,"lon":-70.438392,"city":"North Windham","state":"ME","address":"746 Roosevelt Trail, North Windham, Maine 04062","name":""},
  {"lat":44.18089,"lon":-70.515842,"city":"Oxford","state":"ME","address":"1332 Main St, Oxford, Maine 04270","name":""},
  {"lat":43.838967,"lon":-70.415972,"city":"Windham","state":"ME","address":"201 Tandberg Trl, Windham, Maine 04062","name":""},
  {"lat":44.014937,"lon":-70.982818,"city":"Fryeburg","state":"ME","address":"501 Main St, Fryeburg, Maine 04037","name":""},
  {"lat":41.968941,"lon":-71.021034,"city":"Bridgewater","state":"MA","address":"1385 Pleasant St, Bridgewater, Massachusetts 02324","name":""},
  {"lat":43.718427,"lon":-70.52381,"city":"Gorham","state":"ME","address":"435 Ossipee Trl, Gorham, Maine 04038","name":""},
  {"lat":44.024888,"lon":-70.691078,"city":"Bridgton","state":"ME","address":"443 Portland Rd, Bridgton, Maine 04009","name":""},
  {"lat":41.545193,"lon":-72.784477,"city":"Meriden","state":"CT","address":"978 Broad St, Meriden, Connecticut 06450","name":""},
  {"lat":44.193698,"lon":-70.136944,"city":"Greene","state":"ME","address":"748 Route 202, Greene, Maine 04236","name":""},
  {"lat":46.086779,"lon":-64.839516,"city":"MONCTON","state":"NB","address":"505 EDINBURG DR, MONCTON, New Brunswick E1E 4E3","name":""},
  {"lat":42.791757,"lon":-71.184414,"city":"Methuen","state":"NH","address":"5 Ayers Village Rd, Methuen, Massachusetts 01844","name":""},
  {"lat":44.328598,"lon":-72.744961,"city":"Waterbury","state":"VT","address":"1 River Rd, Waterbury, Vermont 05676","name":""},
  {"lat":44.098538,"lon":-70.191619,"city":"Lewiston","state":"ME","address":"449 Sabattus St, Lewiston, Maine 04240","name":""},
  {"lat":44.118361,"lon":-70.225368,"city":"Auburn","state":"ME","address":"484 Center St, Auburn, Maine 04210","name":""},
  {"lat":44.07904,"lon":-70.19325,"city":"Lewiston","state":"ME","address":"1103 Lisbon St, Lewiston, Maine 04240","name":""},
  {"lat":47.6181,"lon":-65.6511,"city":"BATHURST","state":"NB","address":"1395 St. Peters Av., BATHURST, New Brunswick E2A 3A7","name":""},
  {"lat":48.943886,"lon":-57.942673,"city":"CORNER BROOK","state":"NL","address":"95 MT. BERNARD AVENUE, CORNER BROOK, Newfoundland and Labrador A2H 5G3","name":""},
  {"lat":44.744233,"lon":-63.285056,"city":"Porters Lake","state":"NS","address":"5204 Highway 7, Porters Lake, Nova Scotia B3E 1J7","name":""},
  {"lat":47.607419,"lon":-52.743007,"city":"PORTUGAL COVE","state":"NL","address":"1429 PORTUGAL COVE ROAD, PORTUGAL COVE, Newfoundland and Labrador A1M 3J8","name":""},
  {"lat":45.612908,"lon":-62.013593,"city":"ANTIGONISH","state":"NS","address":"3084 HWY 104, ANTIGONISH, Nova Scotia B2G 2H7","name":""},
  {"lat":47.580769,"lon":-53.279333,"city":"Bay Roberts","state":"NL","address":"151 Conception Bay HWY, Bay Roberts, Newfoundland and Labrador A0A 1G0","name":""},
  {"lat":44.785399,"lon":-72.859154,"city":"East Fairfield","state":"VT","address":"9431 VT-36, East Fairfield, Vermont 05448","name":""},
  {"lat":45.06756,"lon":-64.566087,"city":"Coldbrook","state":"NS","address":"7194 HWY 1, Coldbrook, Nova Scotia B4R 1A2","name":""},
  {"lat":44.661847,"lon":-63.656958,"city":"Halifax","state":"NS","address":"280 Lacewood Drive, Halifax, Nova Scotia B3M 3P6","name":""},
  {"lat":48.932631,"lon":-55.648202,"city":"GRAND FALLS-WINDSOR","state":"NL","address":"41 UNION STREET, GRAND FALLS-WINDSOR, Newfoundland and Labrador A2A 2C9","name":""},
  {"lat":43.649035,"lon":-72.005928,"city":"Canaan","state":"NH","address":"70 NH-118, Canaan, New Hampshire 03741","name":""},
  {"lat":47.512609,"lon":-52.968343,"city":"CONCEPTION BAY SOUTH","state":"NL","address":"265 Conception Bay HWY, CONCEPTION BAY SOUTH, Newfoundland and Labrador A1W 5J9","name":""},
  {"lat":47.559218,"lon":-52.752951,"city":"ST. JOHN'S","state":"NL","address":"52 KENMOUNT RD, ST. JOHN'S, Newfoundland and Labrador A1B 1W2","name":""},
  {"lat":43.079562,"lon":-72.42618,"city":"Walpole","state":"VT","address":"51 Main St., Walpole, New Hampshire 03608","name":""},
  {"lat":45.154199,"lon":-67.404306,"city":"Baileyville","state":"ME","address":"102 Main St, Baileyville, Maine 04694","name":""},
  {"lat":44.711006,"lon":-66.746393,"city":"Grand Manan","state":"ME","address":"791 Route 776, Grand Manan, New Brunswick E5G 3C4","name":""},
  {"lat":47.503047,"lon":-53.011195,"city":"CONCEPTION BAY SOUTH","state":"NL","address":"695 CONCEPTION BAY HWY, CONCEPTION BAY SOUTH, Newfoundland and Labrador A1X 3G7","name":""},
  {"lat":43.644577,"lon":-72.146667,"city":"Enfield","state":"NH","address":"297 U.S. 4, Enfield, New Hampshire 03748","name":""},
  {"lat":42.755,"lon":-72.0047,"city":"Rindge","state":"NH","address":"1044 NH-119, Rindge, New Hampshire 03461","name":""},
  {"lat":44.40633,"lon":-68.595287,"city":"Blue Hill","state":"ME","address":"36 South St., Blue Hill, Maine 04614","name":""},
  {"lat":44.15078,"lon":-68.20647,"city":"Bass Harbor","state":"ME","address":"42 Tremont Rd, Bass Harbor, Maine 04653","name":""},
  {"lat":41.916043,"lon":-71.359601,"city":"Attleboro","state":"RI","address":"466 Washington street, Attleboro, Massachusetts 02703","name":""},
  {"lat":44.310788,"lon":-68.668624,"city":"Sargentville","state":"ME","address":"119 Caterpillar Hill Rd, Sargentville, Maine 04673","name":""},
  {"lat":47.520065,"lon":-52.808195,"city":"MOUNT-PEARL","state":"NL","address":"14 COMMONWEALTH AVE, MOUNT-PEARL, Newfoundland and Labrador A1N 1W5","name":""},
  {"lat":47.563637,"lon":-52.727166,"city":"ST. JOHN'S","state":"NL","address":"172 FRESHWATER RD., ST. JOHN'S, Newfoundland and Labrador A1C 2N9","name":""},
  {"lat":46.21705,"lon":-64.30004,"city":"Cap-Pele","state":"NB","address":"2420 Acadie Rd, Cap-Pele, New Brunswick E4N 1C9","name":""},
  {"lat":47.996008,"lon":-66.696077,"city":"CAMPBELLTON","state":"NB","address":"143 Val D'Amour Road, CAMPBELLTON, New Brunswick E3N 5B9","name":""},
  {"lat":46.068102,"lon":-64.79385,"city":"RIVERVIEW","state":"NB","address":"270 Coverdale Rd, RIVERVIEW, New Brunswick E1B 3J2","name":""},
  {"lat":46.100706,"lon":-64.812042,"city":"MONCTON","state":"NB","address":"884 Mountain Rd, MONCTON, New Brunswick E1C 2S2","name":""},
  {"lat":45.947004,"lon":-66.695282,"city":"FREDERICTON","state":"NB","address":"1201 Hanwell Rd, FREDERICTON, New Brunswick E3C 1A6","name":""},
  {"lat":44.691112,"lon":-63.584768,"city":"Dartmouth","state":"NS","address":"10 Highfield Park Dr, Dartmouth, Nova Scotia B3A 4S8","name":""},
  {"lat":44.706751,"lon":-63.564133,"city":"Dartmouth","state":"NS","address":"229 Countryview Dr, Dartmouth, Nova Scotia B3B 0E7","name":""},
  {"lat":44.6591,"lon":-63.5511,"city":"Dartmouth","state":"NS","address":"219 Pleasant St, Dartmouth, Nova Scotia B2Y 3R5","name":""},
  {"lat":44.677508,"lon":-63.580216,"city":"Dartmouth","state":"NS","address":"220 Victoria Rd, Dartmouth, Nova Scotia B3A 1W5","name":""},
  {"lat":44.686323,"lon":-63.523186,"city":"ANTIGONISH","state":"NS","address":"308 MAIN ST, ANTIGONISH, Nova Scotia B2G 2C4","name":""},
  {"lat":44.635271,"lon":-63.571417,"city":"Halifax","state":"NS","address":"5450 INGLIS ST, Halifax, Nova Scotia B3H 1J7","name":""},
  {"lat":44.671474,"lon":-63.532971,"city":"Dartmouth","state":"NS","address":"581 Portland St, Dartmouth, Nova Scotia B2W 2M5","name":""},
  {"lat":45.360579,"lon":-63.288995,"city":"TRURO","state":"NS","address":"141 Willow St, TRURO, Nova Scotia B2N 4Z8","name":""},
  {"lat":45.369009,"lon":-63.272073,"city":"Truro","state":"NS","address":"30 Main St, Truro, Nova Scotia B2N 4G6","name":""},
  {"lat":44.7601,"lon":-63.6597,"city":"Lower Sackville","state":"NS","address":"220 Cobequid Rd, Lower Sackville, Nova Scotia B4C 3P3","name":""},
  {"lat":47.594312,"lon":-52.72692,"city":"ST. JOHN'S","state":"NL","address":"279 PORTUGAL COVE RD, ST. JOHN'S, Newfoundland and Labrador A1B 2N8","name":""},
  {"lat":47.558559,"lon":-52.713016,"city":"St. John's","state":"NL","address":"108 George Street West, St. John's, Newfoundland and Labrador A1C 1M7","name":""},
  {"lat":46.260726,"lon":-63.118453,"city":"Charlottetown","state":"PE","address":"154 Saint Peters Road, Charlottetown, Prince Edward Island C1A 5P8","name":""},
  {"lat":46.7248,"lon":-64.9913,"city":"Saint-Louis-de-Kent","state":"NB","address":"10 du Marais Road, Saint-Louis-de-Kent, New Brunswick E4X 1W8","name":""},
  {"lat":45.967536,"lon":-66.629037,"city":"Fredericton","state":"NB","address":"623 Union St, Fredericton, New Brunswick E3A 3N6","name":""},
  {"lat":43.641466,"lon":-70.240878,"city":"South Portland","state":"ME","address":"682 Broadway St, South Portland, Maine 04106","name":""},
  {"lat":42.8602,"lon":-71.174,"city":"Hampstead","state":"NH","address":"235 Stage Rd, Hampstead, New Hampshire 03841","name":""},
  {"lat":43.998009,"lon":-70.062102,"city":"Lisbon Falls","state":"ME","address":"689 Lisbon St, Lisbon Falls, Maine 04252","name":""},
  {"lat":43.109035,"lon":-71.476965,"city":"Hooksett","state":"NH","address":"25 Springer Rd, Hooksett, New Hampshire 03106","name":""},
  {"lat":45.398472,"lon":-71.934853,"city":"Sherbrooke","state":"QC","address":"2525, Rue King Ouest, Sherbrooke, Quebec J1J 2G9","name":""},
  {"lat":45.271702,"lon":-72.138607,"city":"Magog","state":"QC","address":"991, Rue Sherbrooke, Magog, Quebec J1X 2S8","name":""},
  {"lat":46.7018,"lon":-60.3606,"city":"Ingonish","state":"NS","address":"35688 Cabot Trail, Ingonish, Nova Scotia B0C 1K0","name":""},
  {"lat":44.764723,"lon":-68.70602,"city":"Holden","state":"ME","address":"87 Main Rd, Holden, Maine 04429","name":""},
  {"lat":43.395567,"lon":-70.531108,"city":"Kennebunk","state":"ME","address":"59 Portland Street, Kennebunk, Maine 04043","name":""},
  {"lat":44.61271,"lon":-63.49046,"city":"Eastern Passage","state":"NS","address":"72 Cow Bay Rd, Eastern Passage, Nova Scotia B3G 1A2","name":""},
  {"lat":47.690612,"lon":-70.219942,"city":"Clermont","state":"QC","address":"83 Boul Notre Dame, Clermont, Quebec G4A 1E1","name":""},
  {"lat":42.926809,"lon":-72.612258,"city":"Dummerston","state":"VT","address":"2557 W River Rd, Dummerston, Vermont 05301","name":""},
  {"lat":43.0968,"lon":-72.444,"city":"Westminster","state":"VT","address":"6023 US Route 5, Westminster, Vermont 05158","name":""},
  {"lat":42.841705,"lon":-70.945899,"city":"Amesbury","state":"MA","address":"60 Haverhill Road, Rte 110, Amesbury, Massachusetts 01913","name":""},
  {"lat":43.13327,"lon":-70.920201,"city":"Durham","state":"NH","address":"4A Dover Rd, Durham, New Hampshire 03824","name":""},
  {"lat":41.902843,"lon":-70.969231,"city":"Middleboro","state":"MA","address":"47 Harding St, Middleboro, Massachusetts 02346","name":""},
  {"lat":45.448973,"lon":-69.590567,"city":"Greenville","state":"ME","address":"148 Moosehead Lake Rd, Greenville, Maine 04441","name":""},
  {"lat":45.405914,"lon":-64.325235,"city":"Parrsboro","state":"NS","address":"4049 Eastern Ave, Parrsboro, Nova Scotia B0M 1S0","name":""},
  {"lat":46.569552,"lon":-72.763125,"city":"Shawinigan","state":"QC","address":"3973, Rue Garnier, Shawinigan, Quebec G9N 6S2","name":""},
  {"lat":43.369466,"lon":-71.043174,"city":"Farmington","state":"NH","address":"449 Route 11, Farmington, New Hampshire 03835","name":""},
  {"lat":43.725469,"lon":-70.231838,"city":"Falmouth","state":"ME","address":"264 Us Route 1, Falmouth, Maine 04105","name":""},
  {"lat":46.754174,"lon":-71.431094,"city":"Saint-Augustin-de-Desmaures","state":"QC","address":"100 rue de New York, Saint-Augustin-de-Desmaures, Quebec G3A 0A8","name":""},
  {"lat":46.262462,"lon":-72.876334,"city":"Yamachiche","state":"QC","address":"14 RUE SAINT-ANNE, Yamachiche, Quebec G0X 3L0","name":""},
  {"lat":43.849835,"lon":-71.666259,"city":"Campton","state":"NH","address":"2122 Route 3, Campton, New Hampshire 03223","name":""},
  {"lat":44.257778,"lon":-69.774722,"city":"Farmingdale","state":"ME","address":"554 Maine Avenue, Farmingdale, Maine 04344","name":""},
  {"lat":45.206627,"lon":-67.269362,"city":"St. Stephen","state":"ME","address":"5 NB 170, St. Stephen, New Brunswick E3L 2C1","name":""},
  {"lat":41.886667,"lon":-71.135,"city":"Taunton","state":"MA","address":"148 North Walker Street, Taunton, Massachusetts 02780","name":""},
  {"lat":44.88209,"lon":-63.52093,"city":"Goffs","state":"NS","address":"46-48 Bell Blvd, Goffs, Nova Scotia B2T 1K2","name":""},
  {"lat":44.923898,"lon":-69.673421,"city":"Athens","state":"ME","address":"8 Main St, Athens, Maine 04912","name":""},
  {"lat":47.176449,"lon":-67.921654,"city":"ST LEONARD","state":"NB","address":"48 Chemin de la Grande Rivière, ST LEONARD, New Brunswick E7E 2M7","name":""},
  {"lat":46.496183,"lon":-67.042379,"city":"DEERSDALE","state":"NB","address":"5120 ROUTE 107, DEERSDALE, New Brunswick E7L1W5","name":""},
  {"lat":45.183275,"lon":-69.25122,"city":"DOVER-FOXCROFT","state":"ME","address":"1021 WEST MAIN STREET P.O. BOX 334, DOVER-FOXCROFT, Maine 04426","name":""},
  {"lat":44.985679,"lon":-69.006807,"city":"CORINTH","state":"ME","address":"624 MAIN STREET, CORINTH, Maine 04427","name":""},
  {"lat":43.650644,"lon":-70.257548,"city":"PORTLAND","state":"ME","address":"393 COMMERCIAL ST, PORTLAND, Maine 04101","name":""},
  {"lat":44.980725,"lon":-73.454804,"city":"CHAMPLAIN","state":"NY","address":"3 SPIEGLE DRIVE, CHAMPLAIN, New York 12919","name":""},
  {"lat":44.543894,"lon":-69.670673,"city":"Waterville","state":"ME","address":"320 Kennedy Memorial Drive, Waterville, Maine 04901","name":""},
  {"lat":44.328075,"lon":-69.781634,"city":"Augusta","state":"ME","address":"132 Mount Vernon Avenue, Augusta, Maine 04330","name":""},
  {"lat":49.501357,"lon":-55.738653,"city":"Pilleys Island","state":"NL","address":"84 Main St, Pilleys Island, Newfoundland and Labrador A0J 1M0","name":""},
  {"lat":43.088593,"lon":-70.73619,"city":"Kittery","state":"ME","address":"2 Shapleigh Rd, Kittery, Maine 03904","name":""},
  {"lat":49.356942,"lon":-54.492735,"city":"Victoria Cove","state":"NL","address":"369 Main St, Victoria Cove, Newfoundland and Labrador A0G 4N0","name":""},
  {"lat":43.726161,"lon":-70.231379,"city":"Falmouth","state":"ME","address":"265 Us Route 1, Falmouth, Maine 04105","name":""},
  {"lat":44.335377,"lon":-69.759206,"city":"Augusta","state":"ME","address":"5 Denali Way, Augusta, Maine 04330","name":""},
  {"lat":43.810918,"lon":-72.188791,"city":"Thetford","state":"NH","address":"2930 U.S. 5, Thetford, Vermont 05043","name":""},
  {"lat":43.65056,"lon":-72.24173,"city":"Lebanon","state":"NH","address":"151 Heater Rd, Lebanon, New Hampshire 03766","name":""},
  {"lat":44.919334,"lon":-73.124802,"city":"Swanton","state":"VT","address":"31 Grand Ave, Swanton, Vermont 05488","name":""},
  {"lat":43.802288,"lon":-70.189987,"city":"Yarmouth","state":"ME","address":"281 Main St, Yarmouth, Maine 04096","name":""},
  {"lat":43.7711,"lon":-71.7223,"city":"Plymouth","state":"NH","address":"484 Tenney Mountain Highway, Plymouth, New Hampshire 03264","name":""},
  {"lat":46.262462,"lon":-72.876433,"city":"Yamachiche","state":"QC","address":"14, route Sainte-Anne Ouest, Yamachiche, Quebec G0X 3L0","name":""},
  {"lat":43.610007,"lon":-73.208165,"city":"Castleton","state":"VT","address":"111 Route 30, Castleton, Vermont 05735","name":""},