{"key":"jasons_deli","displayName":"Jason's Deli","category":"restaurant","useLocationName":false,"locations":[
  {"lat":33.781986,"lon":-84.379709,"city":"Atlanta","state":"GA","address":"230 10TH ST NE","name":""},
  {"lat":35.034323,"lon":-85.153817,"city":"Chattanooga","state":"TN","address":"2115 GUNBARREL RD","name":""},
  {"lat":35.943632,"lon":-86.821323,"city":"Franklin","state":"TN","address":"3065 MALLORY LANE","name":""},
  {"lat":26.239402,"lon":-98.214035,"city":"McAllen","state":"TX","address":"4100 N 2ND STREET","name":""},
  {"lat":39.71839,"lon":-105.131872,"city":"Lakewood","state":"CO","address":"204 UNION BLVD","name":""},
  {"lat":40.524982,"lon":-105.04944,"city":"Fort Collins","state":"CO","address":"1538 E HARMONY ROAD","name":""},
  {"lat":32.48114,"lon":-99.696223,"city":"Abilene","state":"TX","address":"1772 ST HWY 351","name":""},
  {"lat":29.771877,"lon":-95.210561,"city":"Houston","state":"TX","address":"12625 EAST FREEWAY","name":""},
  {"lat":27.70567,"lon":-97.361932,"city":"Corpus Christi","state":"TX","address":"1416 AIRLINE RD","name":""},
  {"lat":32.734329,"lon":-97.351192,"city":"Fort Worth","state":"TX","address":"2217 MIDTOWN LN","name":""},
  {"lat":38.002152,"lon":-84.517272,"city":"Lexington","state":"KY","address":"134 MALIBU DRIVE","name":""},
  {"lat":33.067527,"lon":-97.080744,"city":"Flower Mound","state":"TX","address":"6020 LONG PRAIRIE RD","name":""},
  {"lat":37.985114,"lon":-87.491694,"city":"Evansville","state":"IN","address":"943 N GREEN RIVER RD","name":""},
  {"lat":40.148339,"lon":-82.987661,"city":"Columbus","state":"OH","address":"1122 GEMINI PLACE","name":""},
  {"lat":29.882303,"lon":-97.919922,"city":"San Marcos","state":"TX","address":"901 HWY 80","name":""},
  {"lat":37.722509,"lon":-97.429449,"city":"Wichita","state":"KS","address":"7447 W 21ST ST N","name":""},
  {"lat":38.252105,"lon":-85.580234,"city":"Louisville","state":"KY","address":"410 N HURSTBOURNE PKWY","name":""},
  {"lat":33.01043,"lon":-96.966736,"city":"Lewisville","state":"TX","address":"742 HEBRON PARKWAY","name":""},
  {"lat":35.906048,"lon":-78.784233,"city":"Raleigh","state":"NC","address":"8421 BRIER CREEK PKWY","name":""},
  {"lat":26.173549,"lon":-98.004405,"city":"Weslaco","state":"TX","address":"1408 W EXPRESSWAY 83","name":""},
  {"lat":33.188924,"lon":-87.527164,"city":"Tuscaloosa","state":"AL","address":"2300 MCFARLAND BLVD E","name":""},
  {"lat":33.372298,"lon":-86.811798,"city":"Hoover","state":"AL","address":"3032 JOHN HAWKINS PKWY","name":""},
  {"lat":32.78056,"lon":-96.800136,"city":"Dallas","state":"TX","address":"1409 MAIN STREET","name":""},
  {"lat":41.802494,"lon":-88.127607,"city":"Naperville","state":"IL","address":"1735 FREEDOM DR","name":""},
  {"lat":30.26721,"lon":-81.5575,"city":"Jacksonville","state":"FL","address":"4375 SOUTHSIDE BLVD","name":""},
  {"lat":30.071507,"lon":-94.130513,"city":"Beaumont","state":"TX","address":"112 GATEWAY ST","name":""},
  {"lat":32.4562,"lon":-93.747114,"city":"Shreveport","state":"LA","address":"5808 LINE AVENUE","name":""},
  {"lat":30.21737,"lon":-95.56745,"city":"Magnolia","state":"TX","address":"32818 FM 2978","name":""},
  {"lat":30.616635,"lon":-96.322627,"city":"College Station","state":"TX","address":"1460 SOUTH TEXAS AVE","name":""},
  {"lat":36.062993,"lon":-115.251576,"city":"Las Vegas","state":"NV","address":"7305 ARROYO CROSSING PKWY","name":""},
  {"lat":36.160756,"lon":-115.290093,"city":"Las Vegas","state":"NV","address":"1000 S RAMPART BLVD","name":""},
  {"lat":29.604861,"lon":-95.612901,"city":"Sugar Land","state":"TX","address":"15275 SOUTHWEST FWY","name":""},
  {"lat":29.534177,"lon":-98.564211,"city":"San Antonio","state":"TX","address":"9933 W INTERSTATE 10","name":""},
  {"lat":36.171317,"lon":-86.506642,"city":"Mount Juliet","state":"TN","address":"64 BELINDA PARKWAY","name":""},
  {"lat":41.260223,"lon":-96.021035,"city":"Omaha","state":"NE","address":"7010 DODGE STREET","name":""},
  {"lat":30.39413,"lon":-97.743113,"city":"Austin","state":"TX","address":"10225 RESEARCH BLVD","name":""},
  {"lat":33.84451,"lon":-84.252162,"city":"Tucker","state":"GA","address":"4073 LAVISTA RD","name":""},
  {"lat":31.08734,"lon":-97.706151,"city":"Killeen","state":"TX","address":"3213 E CENTRAL TEXAS EXPY","name":""},
  {"lat":35.098581,"lon":-89.860419,"city":"Memphis","state":"TN","address":"1215 RIDGEWAY ROAD","name":""},
  {"lat":29.665474,"lon":-95.185289,"city":"Pasadena","state":"TX","address":"3905 SPENCER HWY","name":""},
  {"lat":32.604901,"lon":-96.932592,"city":"Cedar Hill","state":"TX","address":"905 N HWY 67","name":""},
  {"lat":32.039813,"lon":-102.112272,"city":"Midland","state":"TX","address":"4610 N GARFIELD RD","name":""},
  {"lat":31.770775,"lon":-106.371115,"city":"El Paso","state":"TX","address":"8889 GATEWAY BLVD W","name":""},
  {"lat":35.375164,"lon":-80.729917,"city":"Concord","state":"NC","address":"8690 CONCORD MILLS BLVD","name":""},
  {"lat":32.80464,"lon":-97.427362,"city":"Fort Worth","state":"TX","address":"6500 NW LOOP 820","name":""},
  {"lat":30.387445,"lon":-91.061118,"city":"Baton Rouge","state":"LA","address":"6725 SIEGEN LANE","name":""},
  {"lat":35.913619,"lon":-84.083133,"city":"Knoxville","state":"TN","address":"133 N PETERS RD","name":""},
  {"lat":33.378565,"lon":-111.810327,"city":"Gilbert","state":"AZ","address":"1065 E BASELINE RD","name":""},
  {"lat":36.84402,"lon":-76.132131,"city":"Virginia Beach","state":"VA","address":"4512 VIRGINIA BEACH BLVD","name":""},
  {"lat":37.53554,"lon":-77.526136,"city":"Richmond","state":"VA","address":"7115 FOREST HILL AVE","name":""},
  {"lat":25.968639,"lon":-97.515301,"city":"Brownsville","state":"TX","address":"4365 RTE 77","name":""},
  {"lat":40.668865,"lon":-89.58229,"city":"East Peoria","state":"IL","address":"112 SPINDER DRIVE","name":""},
  {"lat":33.214267,"lon":-96.637921,"city":"McKinney","state":"TX","address":"1681 N CENTRAL EXPY","name":""},
  {"lat":33.01849,"lon":-97.216056,"city":"Roanoke","state":"TX","address":"1520 N HWY 377","name":""},
  {"lat":28.84534,"lon":-96.999996,"city":"Victoria","state":"TX","address":"5301 N NAVARO ST","name":""},
  {"lat":30.086807,"lon":-95.522498,"city":"Spring","state":"TX","address":"6735 N GRAND PARKWAY W","name":""},
  {"lat":29.492493,"lon":-98.706956,"city":"San Antonio","state":"TX","address":"5607 W LOOP 1604 N","name":""},
  {"lat":41.213093,"lon":-96.105617,"city":"Omaha","state":"NE","address":"12320 L STREET","name":""},
  {"lat":41.59931,"lon":-93.758587,"city":"West Des Moines","state":"IA","address":"3910 UNIVERSITY AVE","name":""},
  {"lat":30.391209,"lon":-91.16206,"city":"Baton Rouge","state":"LA","address":"650 Arlington Creek, Center Ct Blvd","name":""},
  {"lat":33.982477,"lon":-84.215776,"city":"Norcross","state":"GA","address":"5131 PEACHTREE PKWY","name":""},
  {"lat":26.169961,"lon":-97.672994,"city":"Harlingen","state":"TX","address":"2224 SOUTH SUNSHINE STRIP","name":""},
  {"lat":39.044869,"lon":-95.764999,"city":"Topeka","state":"KS","address":"6121 SW 12TH STREET","name":""},
  {"lat":36.13999,"lon":-95.974718,"city":"Tulsa","state":"OK","address":"1330 E 15TH ST","name":""},
  {"lat":31.070836,"lon":-97.370468,"city":"Temple","state":"TX","address":"3036 SOUTH 31ST STREET","name":""},
  {"lat":32.295879,"lon":-95.302286,"city":"Tyler","state":"TX","address":"4913 S BROADWAY AVE","name":""},
  {"lat":38.92567,"lon":-95.259279,"city":"Lawrence","state":"KS","address":"3140 IOWA ST","name":""},
  {"lat":36.122733,"lon":-94.146938,"city":"Fayetteville","state":"AR","address":"745 E JOYCE BLVD","name":""},
  {"lat":28.663014,"lon":-81.381957,"city":"Altamonte Springs","state":"FL","address":"301 EAST ALTAMONTE DRIVE","name":""},
  {"lat":28.055108,"lon":-82.429268,"city":"Tampa","state":"FL","address":"2702 E FOWLER AVE","name":""},
  {"lat":32.899188,"lon":-96.460042,"city":"Rockwall","state":"TX","address":"819 E INTERSTATE 30","name":""},
  {"lat":30.002006,"lon":-90.129734,"city":"Metairie","state":"LA","address":"713 Veterans Memorial Blvd","name":""},
  {"lat":32.728465,"lon":-97.417724,"city":"Fort Worth","state":"TX","address":"6244 CAMP BOWIE BLVD","name":""},
  {"lat":32.810879,"lon":-96.625527,"city":"Mesquite","state":"TX","address":"1725 N TOWN EAST BLVD","name":""},
  {"lat":40.097972,"lon":-83.121357,"city":"Dublin","state":"OH","address":"225 WEST BRIDGE STREET","name":""},
  {"lat":40.682739,"lon":-80.101372,"city":"Cranberry Township","state":"PA","address":"20117 U.S. 19","name":""},
  {"lat":28.006471,"lon":-82.728689,"city":"Clearwater","state":"FL","address":"25801 US HWY 19 N","name":""},
  {"lat":33.013908,"lon":-96.709475,"city":"Plano","state":"TX","address":"921 N Central Expressway","name":""},
  {"lat":32.87255,"lon":-96.768973,"city":"Dallas","state":"TX","address":"9100 N CENTRAL EXPRESSWAY","name":""},
  {"lat":35.621968,"lon":-97.481687,"city":"Edmond","state":"OK","address":"78 E 33RD STREET","name":""},
  {"lat":31.728677,"lon":-106.303717,"city":"El Paso","state":"TX","address":"1355-D GEORGE DIETER DR","name":""},
  {"lat":33.096321,"lon":-96.810357,"city":"Frisco","state":"TX","address":"8520 STATE HIGHWAY 121","name":""},
  {"lat":32.835007,"lon":-97.132286,"city":"Bedford","state":"TX","address":"2200 AIRPORT FWY","name":""},
  {"lat":36.150773,"lon":-86.800954,"city":"Nashville","state":"TN","address":"2028 WEST END AVE","name":""},
  {"lat":30.482392,"lon":-87.210445,"city":"Pensacola","state":"FL","address":"1540 AIRPORT BLVD","name":""},
  {"lat":30.478825,"lon":-97.67232,"city":"Round Rock","state":"TX","address":"117 LOUIS HENNA BLVD","name":""},
  {"lat":29.742041,"lon":-95.410441,"city":"Houston","state":"TX","address":"2611 S SHEPHERD DR","name":""},
  {"lat":34.743251,"lon":-86.67873,"city":"Huntsville","state":"AL","address":"1395 ENTERPRISE WAY","name":""},
  {"lat":34.042442,"lon":-84.301892,"city":"Alpharetta","state":"GA","address":"7300 NORTH POINT PKWY","name":""},
  {"lat":32.54694,"lon":-84.942937,"city":"Columbus","state":"GA","address":"5555 WHITTLESEY BLVD","name":""},
  {"lat":30.050721,"lon":-95.237476,"city":"Kingwood","state":"TX","address":"1275 KINGWOOD DRIVE","name":""},
  {"lat":30.193159,"lon":-93.217951,"city":"Lake Charles","state":"LA","address":"3527 RYAN ST","name":""},
  {"lat":32.591987,"lon":-97.141533,"city":"Mansfield","state":"TX","address":"1718 N HWY 287","name":""},
  {"lat":35.168078,"lon":-89.794676,"city":"Cordova","state":"TN","address":"1585 CHICKERING LN","name":""},
  {"lat":32.910267,"lon":-96.556837,"city":"Rowlett","state":"TX","address":"5601 President George Bush Tpke","name":""},
  {"lat":32.005198,"lon":-81.112537,"city":"Savannah","state":"GA","address":"318 MALL BLVD","name":""},
  {"lat":36.076738,"lon":-95.88337,"city":"Tulsa","state":"OK","address":"8321 E 61ST ST","name":""},
  {"lat":36.065273,"lon":-80.315484,"city":"Winston-Salem","state":"NC","address":"1005 HANES MALL BLVD","name":""},
  {"lat":31.876714,"lon":-102.348577,"city":"Odessa","state":"TX","address":"3167 E UNIVERSITY BLVD","name":""},
  {"lat":33.884338,"lon":-98.525866,"city":"Wichita Falls","state":"TX","address":"2907 GARNETT AVE","name":""},
  {"lat":29.773129,"lon":-94.9784,"city":"Baytown","state":"TX","address":"4555 GARTH RD","name":""},
  {"lat":33.187082,"lon":-97.105952,"city":"Denton","state":"TX","address":"2219 HWY 288 S LOOP","name":""},
  {"lat":30.003865,"lon":-95.270586,"city":"Humble","state":"TX","address":"19755 US 59 FRONTAGE RD N","name":""},
  {"lat":30.202389,"lon":-92.054534,"city":"Lafayette","state":"LA","address":"149 ARNOULD BLVD","name":""},
  {"lat":33.528603,"lon":-101.898752,"city":"Lubbock","state":"TX","address":"4001 S LOOP 289","name":""},
  {"lat":26.270981,"lon":-81.766694,"city":"Naples","state":"FL","address":"2700 IMMOKALEE RD","name":""},
  {"lat":30.16809,"lon":-95.45579,"city":"The Woodlands","state":"TX","address":"1340 LAKE WOODLANDS DR","name":""},
  {"lat":34.755882,"lon":-92.393126,"city":"Little Rock","state":"AR","address":"301 N SHACKLEFORD RD","name":""},
  {"lat":33.174719,"lon":-96.835173,"city":"Frisco","state":"TX","address":"5845 ELDORADO PARKWAY","name":""},
  {"lat":29.544998,"lon":-95.132796,"city":"Webster","state":"TX","address":"541 W BAY AREA BLVD","name":""},
  {"lat":35.703146,"lon":-81.293388,"city":"Hickory","state":"NC","address":"2337 US 70","name":""},
  {"lat":29.780489,"lon":-95.752323,"city":"Katy","state":"TX","address":"380 S. Mason Rd","name":""},
  {"lat":39.188336,"lon":-76.820153,"city":"Columbia","state":"MD","address":"8874 MCGAW ROAD","name":""},
  {"lat":34.938921,"lon":-81.980186,"city":"Spartanburg","state":"SC","address":"1450 W O EZELL BLVD","name":""},
  {"lat":30.42866,"lon":-84.241833,"city":"Tallahassee","state":"FL","address":"2335 APALACHEE PKWY","name":""},
  {"lat":33.042635,"lon":-96.791859,"city":"Plano","state":"TX","address":"4801 W PARKER RD","name":""},
  {"lat":32.543889,"lon":-94.750902,"city":"Longview","state":"TX","address":"103 W. Loop 281","name":""},
  {"lat":35.126762,"lon":-89.946461,"city":"Memphis","state":"TN","address":"3473 POPLAR AVE","name":""},
  {"lat":26.493581,"lon":-81.786434,"city":"Fort Myers","state":"FL","address":"16451 CORPORATE COMMERCE WAY","name":""},
  {"lat":33.655864,"lon":-84.5083,"city":"Atlanta","state":"GA","address":"3755 CARMIA DR SW","name":""},
  {"lat":26.54529,"lon":-81.882229,"city":"Fort Myers","state":"FL","address":"13550 REFLECTIONS PKWY","name":""},
  {"lat":28.755697,"lon":-81.346323,"city":"Lake Mary","state":"FL","address":"3887 W LAKE MARY BLVD","name":""},
  {"lat":26.193109,"lon":-98.207172,"city":"McAllen","state":"TX","address":"1308 US 83 FRONTAGE RD S","name":""},
  {"lat":33.460365,"lon":-94.088953,"city":"Texarkana","state":"TX","address":"2700 RICHMOND ROAD","name":""},
  {"lat":34.245906,"lon":-77.874735,"city":"Wilmington","state":"NC","address":"5301 MARKET ST","name":""},
  {"lat":35.175556,"lon":-106.57871,"city":"Albuquerque","state":"NM","address":"5920 HOLLY AVE NE","name":""},
  {"lat":33.96769,"lon":-84.025045,"city":"Lawrenceville","state":"GA","address":"918 DULUTH HWY","name":""},
  {"lat":30.424674,"lon":-91.129475,"city":"Baton Rouge","state":"LA","address":"2531 CITIPLACE CT","name":""},
  {"lat":33.932133,"lon":-84.335554,"city":"Atlanta","state":"GA","address":"4705 ASHFORD DUNWOODY RD","name":""},
  {"lat":30.080408,"lon":-94.172094,"city":"Beaumont","state":"TX","address":"535 DOWLEN RD","name":""},
  {"lat":42.266325,"lon":-88.981098,"city":"Rockford","state":"IL","address":"575 S PERRYVILLE RD","name":""},
  {"lat":29.470274,"lon":-95.095297,"city":"League City","state":"TX","address":"2755 GULF FREEWAY SOUTH","name":""},
  {"lat":32.408654,"lon":-99.777846,"city":"Abilene","state":"TX","address":"3490 CATCLAW DR","name":""},
  {"lat":32.953391,"lon":-96.823414,"city":"Addison","state":"TX","address":"5000 BELT LINE ROAD","name":""},
  {"lat":39.927421,"lon":-105.13156,"city":"Broomfield","state":"CO","address":"549 FLATIRON BLVD","name":""},
  {"lat":26.609567,"lon":-81.973574,"city":"Cape Coral","state":"FL","address":"2311 SANTA BARBARA BLVD","name":""},
  {"lat":31.83658,"lon":-106.560937,"city":"El Paso","state":"TX","address":"7410 REMCON CIRCLE","name":""},
  {"lat":28.078294,"lon":-80.645973,"city":"West Melbourne","state":"FL","address":"1509 W NEW HAVEN AVE","name":""},
  {"lat":40.503586,"lon":-88.953917,"city":"Bloomington","state":"IL","address":"321 S VETERANS PARKWAY","name":""},
  {"lat":41.86557,"lon":-87.640209,"city":"Chicago","state":"IL","address":"1258 S. CANAL STREET","name":""},
  {"lat":38.926651,"lon":-94.407801,"city":"Lee'S Summit","state":"MO","address":"632 NE 291 Highway","name":""},
  {"lat":43.060098,"lon":-89.508984,"city":"Madison","state":"WI","address":"7349 MINERAL POINT RD","name":""},
  {"lat":32.357642,"lon":-86.218748,"city":"Montgomery","state":"AL","address":"1520 EASTERN BLVD","name":""},
  {"lat":30.676881,"lon":-88.138996,"city":"Mobile","state":"AL","address":"3756 AIRPORT BLVD","name":""},
  {"lat":29.558299,"lon":-95.366926,"city":"Pearland","state":"TX","address":"9517 BROADWAY ST","name":""},
  {"lat":32.678908,"lon":-97.120059,"city":"Arlington","state":"TX","address":"951 W INTERSTATE 20","name":""},
  {"lat":37.048679,"lon":-76.393707,"city":"Hampton","state":"VA","address":"39 COLISEUM CROSSING","name":""},
  {"lat":31.52724,"lon":-97.169472,"city":"Waco","state":"TX","address":"4302 N WEST WACO DR","name":""},
  {"lat":29.979897,"lon":-95.511647,"city":"Houston","state":"TX","address":"5403 FM 1960 WEST","name":""},
  {"lat":39.616299,"lon":-104.817031,"city":"Aurora","state":"CO","address":"5440 S PARKER RD","name":""},
  {"lat":33.103128,"lon":-96.680519,"city":"Allen","state":"TX","address":"906 W MCDERMOTT","name":""},
  {"lat":35.760576,"lon":-78.740211,"city":"Cary","state":"NC","address":"210 CROSSROADS BLVD","name":""},
  {"lat":29.879877,"lon":-95.645294,"city":"Houston","state":"TX","address":"7010 HWY 6","name":""},
  {"lat":30.333712,"lon":-95.479824,"city":"Conroe","state":"TX","address":"1400 N LOOP 336 WEST","name":""},
  {"lat":34.848408,"lon":-82.336987,"city":"Greenville","state":"SC","address":"824 WOODS CROSSING RD","name":""},
  {"lat":35.671235,"lon":-88.852253,"city":"Jackson","state":"TN","address":"6 STONEBRIDGE BLVD","name":""},
  {"lat":27.686617,"lon":-97.387324,"city":"Corpus Christi","state":"TX","address":"5325 SARATOGA BLVD","name":""},
  {"lat":39.702022,"lon":-104.839625,"city":"Englewood","state":"CO","address":"9525 E COUNTY LINE RD","name":""},
  {"lat":34.002492,"lon":-84.579436,"city":"Kennesaw","state":"GA","address":"945 ERNEST W BARRETT PKWY","name":""},
  {"lat":32.927646,"lon":-97.088211,"city":"Grapevine","state":"TX","address":"1270 WILLIAM D TATE AVE","name":""},
  {"lat":41.848967,"lon":-87.930114,"city":"Oak Brook","state":"IL","address":"2060 YORK RD","name":""},
  {"lat":35.854951,"lon":-86.429876,"city":"Murfreesboro","state":"TN","address":"452 NORTH THOMPSON LANE","name":""},
  {"lat":32.911074,"lon":-97.316019,"city":"Fort Worth","state":"TX","address":"9517 SAGE MEADOW TRAIL","name":""},
  {"lat":29.818562,"lon":-95.466436,"city":"Houston","state":"TX","address":"11120 NORTHWEST FWY","name":""},
  {"lat":37.719903,"lon":-97.242573,"city":"Wichita","state":"KS","address":"1821 N Rock Rd","name":""},
  {"lat":35.177511,"lon":-101.922296,"city":"Amarillo","state":"TX","address":"7406 SW 34TH Ave","name":""},
  {"lat":34.96398,"lon":-89.904947,"city":"Olive Branch","state":"MS","address":"4850 GOODMAN RD","name":""},
  {"lat":35.100232,"lon":-106.56964,"city":"Albuquerque","state":"NM","address":"2105-B LOUISIANA BLVD NE","name":""},
  {"lat":35.204723,"lon":-106.650497,"city":"Albuquerque","state":"NM","address":"3410 STATE HWY 528 NW","name":""},
  {"lat":32.754914,"lon":-97.10011,"city":"Arlington","state":"TX","address":"780 ROAD TO SIX FLAGS STREET WEST","name":""},
  {"lat":30.629602,"lon":-97.690589,"city":"Georgetown","state":"TX","address":"1431 S IH 35, Suite 101","name":""},
  {"lat":36.174302,"lon":-115.147969,"city":"Las Vegas","state":"NV","address":"100 N CITY PKWY","name":""},
  {"lat":34.790051,"lon":-92.222249,"city":"North Little Rock","state":"AR","address":"4209 E MCCAIN BLVD","name":""},
  {"lat":27.991704,"lon":-81.956337,"city":"Lakeland","state":"FL","address":"4006 S FLORIDA AVE","name":""},
  {"lat":38.911792,"lon":-94.777937,"city":"Olathe","state":"KS","address":"16535 W 119TH ST","name":""},
  {"lat":35.058452,"lon":-78.96653,"city":"Fayetteville","state":"NC","address":"2707 FREEDOM PARKWAY DR","name":""},
  {"lat":36.086652,"lon":-79.837267,"city":"Greensboro","state":"NC","address":"3326 W FRIENDLY AVE","name":""},
  {"lat":33.010918,"lon":-96.607536,"city":"Murphy","state":"TX","address":"214 E FM 544","name":""},
  {"lat":29.772038,"lon":-95.606661,"city":"Houston","state":"TX","address":"14604 MEMORIAL DR","name":""},
  {"lat":29.75754,"lon":-95.365495,"city":"Houston","state":"TX","address":"901 MCKINNEY ST","name":""},
  {"lat":29.933093,"lon":-95.582939,"city":"Houston","state":"TX","address":"10915 FARM TO MARKET 1960 RD W","name":""},
  {"lat":32.911873,"lon":-96.959622,"city":"Irving","state":"TX","address":"7707 N MACARTHUR BLVD","name":""},
  {"lat":33.578888,"lon":-112.123755,"city":"Phoenix","state":"AZ","address":"10217 N METRO PKWY W","name":""},
  {"lat":33.321437,"lon":-111.967806,"city":"Chandler","state":"AZ","address":"7230 W RAY ROAD","name":""},
  {"lat":30.529319,"lon":-97.819267,"city":"Cedar Park","state":"TX","address":"4811 183A TOLL RD","name":""},
  {"lat":35.538169,"lon":-97.596005,"city":"Oklahoma City","state":"OK","address":"4236 NW EXPRESSWAY","name":""},
  {"lat":28.51545,"lon":-81.378127,"city":"Orlando","state":"FL","address":"25 W CRYSTAL LAKE ST","name":""},
  {"lat":32.222358,"lon":-110.863117,"city":"Tucson","state":"AZ","address":"6061 E BROADWAY BLVD","name":""},
  {"lat":29.480652,"lon":-98.607908,"city":"San Antonio","state":"TX","address":"5819 NW LOOP 410 FRONTAGE RD","name":""},
  {"lat":32.94824,"lon":-96.768434,"city":"Richardson","state":"TX","address":"101 S COIT RD","name":""},
  {"lat":29.693434,"lon":-98.109242,"city":"New Braunfels","state":"TX","address":"280 N BUSINESS IH-35","name":""},
  {"lat":36.772241,"lon":-76.23551,"city":"Chesapeake","state":"VA","address":"725 EDEN WAY N","name":""},
  {"lat":29.736326,"lon":-95.571232,"city":"Houston","state":"TX","address":"11081 WESTHEIMER RD","name":""},
  {"lat":32.687849,"lon":-97.023235,"city":"Grand Prairie","state":"TX","address":"3450 S HWY 161","name":""},
  {"lat":26.302037,"lon":-98.179423,"city":"Edinburg","state":"TX","address":"1604 WEST UNIVERSITY DR.","name":""},
  {"lat":36.029647,"lon":-86.792176,"city":"Brentwood","state":"TN","address":"279 FRANKLIN ROAD","name":""},
  {"lat":33.774828,"lon":-84.296312,"city":"Decatur","state":"GA","address":"1605 Church St","name":""},
  {"lat":32.934194,"lon":-97.220854,"city":"Keller","state":"TX","address":"1400 Keller Parkway","name":""},
  {"lat":32.677263,"lon":-97.405576,"city":"Fort Worth","state":"TX","address":"5100 OVERTON RIDGE BLVD","name":""},
  {"lat":29.6115,"lon":-98.4765,"city":"San Antonio","state":"TX","address":"1141 N LOOP 1604 E","name":""},
  {"lat":35.19195,"lon":-101.864091,"city":"Amarillo","state":"TX","address":"2600 WOLFIN AVE","name":""},
  {"lat":33.126017,"lon":-96.735023,"city":"Frisco","state":"TX","address":"16100 SAM RAYBURN TOLLWAY","name":""},
  {"lat":39.100669,"lon":-94.583643,"city":"Kansas City","state":"MO","address":"1111 Main Street","name":""},
  {"lat":36.055904,"lon":-115.04127,"city":"Henderson","state":"NV","address":"1281 W WARM SPRINGS RD","name":""},
  {"lat":35.867738,"lon":-78.622762,"city":"Raleigh","state":"NC","address":"909 SPRING FOREST RD","name":""},
  {"lat":29.738628,"lon":-95.482747,"city":"Houston","state":"TX","address":"5860 WESTHEIMER RD","name":""},
  {"lat":30.348363,"lon":-97.964534,"city":"Lakeway","state":"TX","address":"1504 RANCH ROAD 620 SOUTH","name":""},
  {"lat":30.299835,"lon":-97.719941,"city":"Austin","state":"TX","address":"1000 E 41ST ST","name":""},
  {"lat":30.010361,"lon":-95.586828,"city":"Tomball","state":"TX","address":"22424 TOMBALL PARKWAY","name":""},
  {"lat":30.160413,"lon":-97.793032,"city":"Austin","state":"TX","address":"9600 S INTERSTATE 35","name":""},
  {"lat":29.546886,"lon":-95.750017,"city":"Rosenberg","state":"TX","address":"23908 Commercial Dr","name":""},
  {"lat":35.954646,"lon":-78.996172,"city":"Durham","state":"NC","address":"5408 NEW HOPE COMMONS DR","name":""},
  {"lat":39.259508,"lon":-94.654301,"city":"Kansas City","state":"MO","address":"9026 NW SKYVIEW AVE","name":""},
  {"lat":30.155234,"lon":-92.047526,"city":"Lafayette","state":"LA","address":"4506 AMBASSADOR CAFFERY PKWY","name":""},
  {"lat":30.357504,"lon":-97.732106,"city":"Austin","state":"TX","address":"2438 W ANDERSON LANE","name":""},
  {"lat":35.443224,"lon":-80.883696,"city":"Huntersville","state":"NC","address":"16639 BIRKDALE COMMONS PKWY","name":""},
  {"lat":35.171873,"lon":-80.849032,"city":"Charlotte","state":"NC","address":"1600 E WOODLAWN RD","name":""},
  {"lat":29.97438,"lon":-93.992396,"city":"Port Arthur","state":"TX","address":"3260 HIGHWAY 365","name":""},
  {"lat":32.835867,"lon":-96.77504,"city":"Dallas","state":"TX","address":"5400 E MOCKINGBIRD LANE","name":""},
  {"lat":37.583856,"lon":-77.498175,"city":"Richmond","state":"VA","address":"1700 WILLOW LAWN DR","name":""},
  {"lat":29.521737,"lon":-98.493248,"city":"San Antonio","state":"TX","address":"25 NE LOOP 410","name":""},
  {"lat":33.723942,"lon":-84.731226,"city":"Douglasville","state":"GA","address":"3022 Chapel Hill Road","name":""},
  {"lat":35.291215,"lon":-80.764522,"city":"Charlotte","state":"NC","address":"8328 Ikea Blvd.","name":""},
  {"lat":29.988542,"lon":-95.737844,"city":"Cypress","state":"TX","address":"28050 Highway 290 East","name":""},
  {"lat":32.944474,"lon":-96.699777,"city":"Richardson","state":"TX","address":"165 S Plano Rd","name":""},
  {"lat":31.428465,"lon":-100.457789,"city":"San Angelo","state":"TX","address":"1819 Knickerbocker","name":""},
  {"lat":38.970002,"lon":-94.697507,"city":"Overland Park","state":"KS","address":"9617 W 87th Street","name":""},
  {"lat":35.989477,"lon":-95.88727,"city":"Bixby","state":"OK","address":"11982 S Memorial Dr.","name":""},
  {"lat":33.582841,"lon":-111.925561,"city":"Scottsdale","state":"AZ","address":"6339 E. Greenway Rd. Suite 111","name":""},
  {"lat":32.57269,"lon":-97.317916,"city":"Burleson","state":"TX","address":"12741 South Freeway","name":""},
  {"lat":39.150039,"lon":-84.442742,"city":"Cincinnati","state":"OH","address":"2715 Madison Road","name":""},
  {"lat":32.46315,"lon":-90.134252,"city":"Madison","state":"MS","address":"149 Grandview Blvd","name":""},
  {"lat":30.050785,"lon":-95.436675,"city":"Spring","state":"TX","address":"19507 I-45 North, Ste 1000","name":""},
  {"lat":32.84227,"lon":-97.239271,"city":"North Richland Hills","state":"TX","address":"5131 Rufe Snow Drive","name":""},
  {"lat":29.70571,"lon":-95.440642,"city":"Houston","state":"TX","address":"4001 Bellaire Blvd","name":""},
  {"lat":35.9544,"lon":-83.938231,"city":"Knoxville","state":"TN","address":"2106 Cumberland Ave","name":""},
  {"lat":29.570077,"lon":-95.569268,"city":"Missouri City","state":"TX","address":"5730 Hwy 6","name":""}]}