{"key":"kohls","displayName":"Kohl's","category":"shopping","useLocationName":false,"locations":[
  {"lat":45.46156,"lon":-98.441919,"city":"Aberdeen","state":"SD","address":"3315 6TH AVENUE SE","name":""},
  {"lat":46.859733,"lon":-96.861104,"city":"Fargo","state":"ND","address":"4444 13TH AVE S","name":""},
  {"lat":46.831462,"lon":-100.80942,"city":"Bismarck","state":"ND","address":"1129 W CENTURY AVE","name":""},
  {"lat":45.861086,"lon":-95.382496,"city":"Alexandria","state":"MN","address":"3015 HWY 29 SOUTH, SUITE 100","name":""},
  {"lat":43.511269,"lon":-96.768639,"city":"Sioux Falls","state":"SD","address":"3800 S LOUISE AVE","name":""},
  {"lat":43.540133,"lon":-96.654641,"city":"Sioux Falls","state":"SD","address":"921 S. HIGHLINE PLACE","name":""},
  {"lat":45.107454,"lon":-95.039274,"city":"Willmar","state":"MN","address":"1605 1ST ST SOUTH","name":""},
  {"lat":47.887163,"lon":-97.07627,"city":"Grand Forks","state":"ND","address":"3301 32ND AVE S","name":""},
  {"lat":45.551233,"lon":-94.217864,"city":"Waite Park","state":"MN","address":"145 2ND ST S","name":""},
  {"lat":46.353368,"lon":-94.2402,"city":"Baxter","state":"MN","address":"7565 EXCELSIOR RD","name":""},
  {"lat":47.494784,"lon":-94.899681,"city":"Bemidji","state":"MN","address":"1401 PAUL BUNYAN DRIVE NW","name":""},
  {"lat":48.209701,"lon":-101.322512,"city":"Minot","state":"ND","address":"1905 22ND AVE SW","name":""},
  {"lat":42.44585,"lon":-96.341136,"city":"Sioux City","state":"IA","address":"5001 SERGEANT RD","name":""},
  {"lat":44.160765,"lon":-93.947836,"city":"Mankato","state":"MN","address":"1921 BASSETT DR","name":""},
  {"lat":45.198808,"lon":-93.558384,"city":"Rogers","state":"MN","address":"21985 S DIAMOND LAKE RD","name":""},
  {"lat":44.83357,"lon":-93.59978,"city":"Chaska","state":"MN","address":"1140 HAZELTINE BLVD","name":""},
  {"lat":42.020787,"lon":-97.431037,"city":"Norfolk","state":"NE","address":"1700 MARKET LN SUITE #260","name":""},
  {"lat":45.101314,"lon":-93.448331,"city":"Maple Grove","state":"MN","address":"8080 WEDGEWOOD LN N","name":""},
  {"lat":45.029955,"lon":-93.446547,"city":"Plymouth","state":"MN","address":"4190 VINEWOOD LANE NORTH","name":""},
  {"lat":44.776036,"lon":-93.503978,"city":"Shakopee","state":"MN","address":"1529 17TH AVE EAST","name":""},
  {"lat":45.202877,"lon":-93.355786,"city":"Coon Rapids","state":"MN","address":"12785 RIVERDALE BLVD NW","name":""},
  {"lat":44.85338,"lon":-93.423746,"city":"Eden Prairie","state":"MN","address":"450 PRAIRIE CENTER DR","name":""},
  {"lat":44.106072,"lon":-103.226493,"city":"Rapid City","state":"SD","address":"737 E DISK DRIVE","name":""},
  {"lat":44.937386,"lon":-93.38776,"city":"St. Louis Park","state":"MN","address":"8440 MN-7","name":""},
  {"lat":44.860824,"lon":-93.306318,"city":"Bloomington","state":"MN","address":"7931 SOUTHTOWN CTR","name":""},
  {"lat":45.575747,"lon":-93.196599,"city":"Cambridge","state":"MN","address":"2200 3RD AVE. NE","name":""},
  {"lat":45.158123,"lon":-93.231736,"city":"Blaine","state":"MN","address":"10311 BALTIMORE ST NE","name":""},
  {"lat":44.75108,"lon":-93.289961,"city":"Burnsville","state":"MN","address":"13900 ALDRICH AVE S","name":""},
  {"lat":45.015853,"lon":-93.169575,"city":"Roseville","state":"MN","address":"1651 COUNTY RD B2 W","name":""},
  {"lat":45.184699,"lon":-93.107284,"city":"Lino Lakes","state":"MN","address":"733 APOLLO DRIVE","name":""},
  {"lat":44.734794,"lon":-93.203547,"city":"Apple Valley","state":"MN","address":"14926 FLORENCE TRL","name":""},
  {"lat":44.82941,"lon":-93.161965,"city":"Eagan","state":"MN","address":"1350 TOWN CENTRE DR","name":""},
  {"lat":45.031511,"lon":-93.022199,"city":"Maplewood","state":"MN","address":"3001 WHITE BEAR AVE N, STE 3","name":""},
  {"lat":44.928303,"lon":-92.962715,"city":"Woodbury","state":"MN","address":"7100 VALLEY CREEK PLZ","name":""},
  {"lat":44.835369,"lon":-92.960997,"city":"Cottage Grove","state":"MN","address":"7990 HARDWOOD AVE S","name":""},
  {"lat":44.099273,"lon":-93.253805,"city":"Owatonna","state":"MN","address":"1450 21ST AVE NW","name":""},
  {"lat":45.033252,"lon":-92.837198,"city":"Oak Park Heights","state":"MN","address":"5805 KRUEGAR LN","name":""},
  {"lat":42.499561,"lon":-94.155695,"city":"Fort Dodge","state":"IA","address":"2941 5TH AVE SOUTH","name":""},
  {"lat":43.145333,"lon":-93.266378,"city":"Mason City","state":"IA","address":"556 INDIAN HEAD DRIVE","name":""},
  {"lat":41.294609,"lon":-96.126027,"city":"Omaha","state":"NE","address":"13550 W MAPLE RD","name":""},
  {"lat":43.984456,"lon":-92.459333,"city":"Rochester","state":"MN","address":"20 25TH ST SE","name":""},
  {"lat":40.919418,"lon":-98.379417,"city":"Grand Island","state":"NE","address":"221 WILMAR AVE","name":""},
  {"lat":41.224218,"lon":-96.132614,"city":"Omaha","state":"NE","address":"3351 OAK VIEW DR","name":""},
  {"lat":41.251007,"lon":-96.022101,"city":"Omaha","state":"NE","address":"909 S 72ND ST","name":""},
  {"lat":46.812481,"lon":-92.167896,"city":"Duluth","state":"MN","address":"2115 MILLER TRUNK HWY","name":""},
  {"lat":41.170333,"lon":-96.020417,"city":"Papillion","state":"NE","address":"8909 S 71ST PLZ","name":""},
  {"lat":41.222724,"lon":-95.840431,"city":"Council Bluffs","state":"IA","address":"3626 METRO DR","name":""},
  {"lat":45.471015,"lon":-91.751141,"city":"Rice Lake","state":"WI","address":"2960 DECKER DRIVE","name":""},
  {"lat":40.722157,"lon":-99.082077,"city":"Kearney","state":"NE","address":"4915 2ND AVE, SUITE 200","name":""},
  {"lat":40.816877,"lon":-96.607562,"city":"Lincoln","state":"NE","address":"401 N 84TH ST","name":""},
  {"lat":42.046671,"lon":-93.622888,"city":"Ames","state":"IA","address":"2423 GRAND AVENUE","name":""},
  {"lat":40.723763,"lon":-96.680677,"city":"Lincoln","state":"NE","address":"8700 S 28TH ST","name":""},
  {"lat":44.77771,"lon":-91.429124,"city":"Eau Claire","state":"WI","address":"3711 GATEWAY DR","name":""},
  {"lat":41.60136,"lon":-93.757793,"city":"Clive","state":"IA","address":"10201 UNIVERSITY AVE","name":""},
  {"lat":41.632921,"lon":-93.700496,"city":"Des Moines","state":"IA","address":"4000 MERLE HAY RD","name":""},
  {"lat":41.711179,"lon":-93.577947,"city":"Ankeny","state":"IA","address":"1935 SE DELAWARE AVE","name":""},
  {"lat":41.564076,"lon":-93.797334,"city":"West Des Moines","state":"IA","address":"6515 MILLS CIVIC PKWY","name":""},
  {"lat":42.510753,"lon":-92.428746,"city":"Cedar Falls","state":"IA","address":"5911 UNIVERSITY AVE, SUITE 400","name":""},
  {"lat":43.87472,"lon":-91.19394,"city":"Onalaska","state":"WI","address":"9404 HIGHWAY 16","name":""},
  {"lat":44.678496,"lon":-90.161496,"city":"Marshfield","state":"WI","address":"503 E. IVES STREET","name":""},
  {"lat":41.947827,"lon":-91.723622,"city":"Cedar Rapids","state":"IA","address":"3030 WILEY BLVD SW","name":""},
  {"lat":42.026131,"lon":-91.635429,"city":"Cedar Rapids","state":"IA","address":"361 COLLINS RD NE","name":""},
  {"lat":42.845443,"lon":-106.250826,"city":"Casper","state":"WY","address":"401 NEWPORT ROAD","name":""},
  {"lat":41.697607,"lon":-91.609765,"city":"Coralville","state":"IA","address":"2795 COMMERCE DR","name":""},
  {"lat":44.924527,"lon":-89.656049,"city":"Wausau","state":"WI","address":"226700 RIB MOUNTAIN DR.","name":""},
  {"lat":41.017471,"lon":-92.446354,"city":"Ottumwa","state":"IA","address":"1100 WILDWOOD DRIVE","name":""},
  {"lat":39.820241,"lon":-94.811729,"city":"St. Joseph","state":"MO","address":"5505 N BELT HWY","name":""},
  {"lat":41.166799,"lon":-104.801142,"city":"Cheyenne","state":"WY","address":"5232 RUE TERRE","name":""},
  {"lat":42.52141,"lon":-90.743566,"city":"Dubuque","state":"IA","address":"2595 NW ARTERIAL","name":""},
  {"lat":45.634115,"lon":-89.396075,"city":"Rhinelander","state":"WI","address":"1035 LINCOLN ST","name":""},
  {"lat":44.496589,"lon":-89.5095,"city":"Plover","state":"WI","address":"150 CROSSROADS DR","name":""},
  {"lat":43.585022,"lon":-89.813789,"city":"Wisconsin Dells","state":"WI","address":"131 COMMERCE ST","name":""},
  {"lat":38.793838,"lon":-97.615319,"city":"Salina","state":"KS","address":"2580 S 9TH ST","name":""},
  {"lat":39.037359,"lon":-95.76504,"city":"Topeka","state":"KS","address":"6130 SW 17TH ST","name":""},
  {"lat":40.394347,"lon":-104.747901,"city":"Greeley","state":"CO","address":"4224 CENTERPLACE DR","name":""},
  {"lat":39.250154,"lon":-94.595174,"city":"Kansas City","state":"MO","address":"8500 N MADISON AVE","name":""},
  {"lat":43.05674,"lon":-89.511275,"city":"Madison","state":"WI","address":"7401 WEST TOWNE WAY","name":""},
  {"lat":39.132038,"lon":-94.828329,"city":"Kansas City","state":"KS","address":"10730 PARALLEL PARKWAY","name":""},
  {"lat":39.247878,"lon":-94.461792,"city":"Kansas City","state":"MO","address":"8540 CHURCH RD","name":""},
  {"lat":40.521197,"lon":-105.062134,"city":"Fort Collins","state":"CO","address":"813 E HARMONY RD","name":""},
  {"lat":38.925463,"lon":-95.256854,"city":"Lawrence","state":"KS","address":"3240 IOWA ST","name":""},
  {"lat":41.559561,"lon":-90.529179,"city":"Davenport","state":"IA","address":"3910 ELMORE AVE","name":""},
  {"lat":40.405976,"lon":-105.032181,"city":"Loveland","state":"CO","address":"1340 SCULPTOR DR","name":""},
  {"lat":43.044776,"lon":-89.352496,"city":"Monona","state":"WI","address":"2501 W BROADWAY","name":""},
  {"lat":43.129734,"lon":-89.3006,"city":"Madison","state":"WI","address":"2602 E SPRINGS DR","name":""},
  {"lat":41.818679,"lon":-90.240151,"city":"Clinton","state":"IA","address":"2281 VALLEY WEST CT","name":""},
  {"lat":39.010347,"lon":-94.766042,"city":"Shawnee","state":"KS","address":"15500 SHAWNEE MISSION PKWY","name":""},
  {"lat":41.468983,"lon":-90.525635,"city":"Moline","state":"IL","address":"800 42ND AVENUE","name":""},
  {"lat":40.816332,"lon":-91.152246,"city":"West Burlington","state":"IA","address":"306 E AGENCY RD","name":""},
  {"lat":45.753324,"lon":-108.613292,"city":"Billings","state":"MT","address":"3900 KING AVE W","name":""},
  {"lat":39.049531,"lon":-94.355765,"city":"Independence","state":"MO","address":"18800 E 39TH ST S","name":""},
  {"lat":38.885304,"lon":-94.773527,"city":"Olathe","state":"KS","address":"16250 W 135TH ST","name":""},
  {"lat":38.916591,"lon":-94.664088,"city":"Overland Park","state":"KS","address":"11585 METCALF AVE","name":""},
  {"lat":39.023159,"lon":-94.244946,"city":"Blue Springs","state":"MO","address":"1280 NE CORONADO DR","name":""},
  {"lat":43.480269,"lon":-88.82405,"city":"Beaver Dam","state":"WI","address":"1734 N SPRING ST","name":""},
  {"lat":39.952667,"lon":-104.784365,"city":"Brighton","state":"CO","address":"2425 PRAIRIE CENTER PKWY","name":""},
  {"lat":38.927863,"lon":-94.411297,"city":"Lee's Summit","state":"MO","address":"1820 NW CHIPMAN RD","name":""},
  {"lat":44.176515,"lon":-88.493811,"city":"Neenah","state":"WI","address":"1175 W WINNECONNE AVE","name":""},
  {"lat":40.144922,"lon":-105.133753,"city":"Longmont","state":"CO","address":"1211 S HOVER RD","name":""},
  {"lat":44.288648,"lon":-88.419031,"city":"Appleton","state":"WI","address":"800 W NORTHLAND AVE","name":""},
  {"lat":38.816551,"lon":-94.518133,"city":"Belton","state":"MO","address":"914 E NORTH AVE","name":""},
  {"lat":44.245364,"lon":-88.350799,"city":"Appleton","state":"WI","address":"3226 E CALUMET ST","name":""},
  {"lat":39.91622,"lon":-104.938338,"city":"Thornton","state":"CO","address":"12090 COLORADO BLVD","name":""},
  {"lat":40.009773,"lon":-105.104927,"city":"Lafayette","state":"CO","address":"855 NORTH US HWY 287","name":""},
  {"lat":43.786509,"lon":-88.479744,"city":"Fond du Lac","state":"WI","address":"913 W JOHNSON ST","name":""},
  {"lat":42.712734,"lon":-88.998823,"city":"Janesville","state":"WI","address":"2500 MILTON AVE","name":""},
  {"lat":39.91222,"lon":-105.054463,"city":"Westminster","state":"CO","address":"11875 SHERIDAN BLVD","name":""},
  {"lat":41.810653,"lon":-89.657666,"city":"Sterling","state":"IL","address":"3220 EAST LYNN BLVD.","name":""},
  {"lat":43.082881,"lon":-88.759321,"city":"Johnson Creek","state":"WI","address":"570 WRIGHT RD","name":""},
  {"lat":38.073495,"lon":-97.906351,"city":"Hutchinson","state":"KS","address":"1300 E 17TH ST","name":""},
  {"lat":40.976836,"lon":-90.36085,"city":"Galesburg","state":"IL","address":"2470 VETERANS DRIVE","name":""},
  {"lat":39.654743,"lon":-104.774884,"city":"Aurora","state":"CO","address":"18307 E HAMPDEN AVE","name":""},
  {"lat":44.483538,"lon":-88.064175,"city":"Ashwaubenon","state":"WI","address":"500 BAY PARK SQ","name":""},
  {"lat":39.692222,"lon":-104.862792,"city":"Aurora","state":"CO","address":"1350 S IRONTON ST, UNIT 130","name":""},
  {"lat":42.366695,"lon":-89.030179,"city":"Machesney Park","state":"IL","address":"10153 N 2ND ST","name":""},
  {"lat":39.811851,"lon":-105.175699,"city":"Arvada","state":"CO","address":"15680 W 64TH AVE","name":""},
  {"lat":44.485195,"lon":-87.966711,"city":"Green Bay","state":"WI","address":"2300 E MASON ST","name":""},
  {"lat":39.508451,"lon":-104.765321,"city":"Parker","state":"CO","address":"11485 S TWENTY MILE RD","name":""},
  {"lat":42.265003,"lon":-88.997166,"city":"Rockford","state":"IL","address":"6125 E STATE ST","name":""},
  {"lat":39.558802,"lon":-104.902933,"city":"Lone Tree","state":"CO","address":"8660 S QUEBEC ST","name":""},
  {"lat":39.660303,"lon":-105.079305,"city":"Lakewood","state":"CO","address":"3150 S WADSWORTH BLVD","name":""},
  {"lat":39.722547,"lon":-105.187435,"city":"Golden","state":"CO","address":"16700 W COLFAX AVE","name":""},
  {"lat":45.078191,"lon":-87.657991,"city":"Marinette","state":"WI","address":"2700 ROOSEVELT ROAD","name":""},
  {"lat":43.053568,"lon":-88.367791,"city":"Delafield","state":"WI","address":"3105 GOLF RD","name":""},
  {"lat":39.932243,"lon":-91.318371,"city":"Quincy","state":"IL","address":"6100 BROADWAY ST","name":""},
  {"lat":43.402669,"lon":-88.182945,"city":"West Bend","state":"WI","address":"1400 S MAIN ST","name":""},
  {"lat":42.630588,"lon":-88.610713,"city":"Delavan","state":"WI","address":"1921 E GENEVA ST","name":""},
  {"lat":39.562215,"lon":-105.107441,"city":"Littleton","state":"CO","address":"8444 S KIPLING PKWY","name":""},
  {"lat":39.409397,"lon":-104.862062,"city":"Castle Rock","state":"CO","address":"4800 MILESTONE LN","name":""},
  {"lat":43.137409,"lon":-88.248028,"city":"Sussex","state":"WI","address":"N66W25225 SILVER SPRING DR","name":""},
  {"lat":37.977655,"lon":-100.841443,"city":"Garden City","state":"KS","address":"2310 E. KANSAS AVE SUITE A","name":""},
  {"lat":42.992583,"lon":-88.266041,"city":"Waukesha","state":"WI","address":"2140 W ST PAUL AVE","name":""},
  {"lat":46.551313,"lon":-87.450971,"city":"Marquette","state":"MI","address":"3000 US HIGHWAY 41 W","name":""},
  {"lat":43.190865,"lon":-88.133273,"city":"Menomonee Falls","state":"WI","address":"N95 W18000 APPLETON AVE","name":""},
  {"lat":43.029629,"lon":-88.18782,"city":"Waukesha","state":"WI","address":"2130 E MORELAND BLVD","name":""},
  {"lat":38.717567,"lon":-93.282413,"city":"Sedalia","state":"MO","address":"4300 WISCONSIN DR","name":""},
  {"lat":37.748634,"lon":-97.247587,"city":"Wichita","state":"KS","address":"3561 N ROCK RD","name":""},
  {"lat":44.075888,"lon":-87.705557,"city":"Manitowoc","state":"WI","address":"4411 CRAWFORD BOULEVARD","name":""},
  {"lat":43.753585,"lon":-87.753268,"city":"Sheboygan","state":"WI","address":"3347 KOHLER MEMORIAL DR","name":""},
  {"lat":37.675562,"lon":-97.423095,"city":"Wichita","state":"KS","address":"6900 W KELLOGG DR","name":""},
  {"lat":43.061239,"lon":-88.068061,"city":"Brookfield","state":"WI","address":"2315 N 124TH ST","name":""},
  {"lat":43.322567,"lon":-87.922562,"city":"Grafton","state":"WI","address":"1050 N PORT WASHINGTON RD","name":""},
  {"lat":42.689769,"lon":-88.264216,"city":"Burlington","state":"WI","address":"1032 MILWAUKEE AVE","name":""},
  {"lat":42.921676,"lon":-88.106102,"city":"Muskego","state":"WI","address":"S68W15388 JANESVILLE RD","name":""},
  {"lat":42.997604,"lon":-88.049938,"city":"West Allis","state":"WI","address":"2601 S 108TH ST","name":""},
  {"lat":41.947444,"lon":-88.723862,"city":"DeKalb","state":"IL","address":"2070 SYCAMORE RD","name":""},
  {"lat":42.961305,"lon":-88.022398,"city":"Greenfield","state":"WI","address":"8750 WEST SURA LANE","name":""},
  {"lat":42.290013,"lon":-88.425394,"city":"Woodstock","state":"IL","address":"2200 LAKE AVENUE","name":""},
  {"lat":43.120245,"lon":-87.913712,"city":"Glendale","state":"WI","address":"5650 N BAYSHORE DR","name":""},
  {"lat":41.370779,"lon":-89.123351,"city":"Peru","state":"IL","address":"5253 STATE ROUTE 251","name":""},
  {"lat":37.579662,"lon":-97.276369,"city":"Derby","state":"KS","address":"2800 N COMMERCE DR","name":""},
  {"lat":39.063925,"lon":-104.850628,"city":"Monument","state":"CO","address":"15866 JACKSON CREEK PKWY","name":""},
  {"lat":42.977047,"lon":-87.949869,"city":"Milwaukee","state":"WI","address":"3737 S 27TH ST","name":""},
  {"lat":43.038413,"lon":-87.915617,"city":"Milwaukee","state":"WI","address":"331 WEST WISCONSIN AVENUE","name":""},
  {"lat":40.77318,"lon":-89.654026,"city":"Peoria","state":"IL","address":"4100 W WILLOW KNOLLS DR","name":""},
  {"lat":38.910892,"lon":-92.328479,"city":"Columbia","state":"MO","address":"1010 E GREEN MEADOWS RD","name":""},
  {"lat":42.360917,"lon":-88.264216,"city":"McHenry","state":"IL","address":"2450 N RICHMOND RD","name":""},
  {"lat":42.880352,"lon":-87.915859,"city":"Oak Creek","state":"WI","address":"9035 S HOWELL AVE","name":""},
  {"lat":42.229135,"lon":-88.303427,"city":"Crystal Lake","state":"IL","address":"5420 NORTHWEST HWY","name":""},
  {"lat":42.164124,"lon":-88.339416,"city":"Algonquin","state":"IL","address":"734 S RANDALL RD","name":""},
  {"lat":38.876292,"lon":-104.722381,"city":"Colorado Springs","state":"CO","address":"3110 N POWERS BLVD","name":""},
  {"lat":38.902537,"lon":-104.821203,"city":"Colorado Springs","state":"CO","address":"4910 N NEVADA AVE","name":""},
  {"lat":40.670234,"lon":-89.577049,"city":"East Peoria","state":"IL","address":"401 N MAIN ST","name":""},
  {"lat":42.381613,"lon":-88.076795,"city":"Round Lake Beach","state":"IL","address":"230 E ROLLINS RD","name":""},
  {"lat":41.98793,"lon":-88.343933,"city":"South Elgin","state":"IL","address":"350 RANDALL RD","name":""},
  {"lat":42.721961,"lon":-87.847011,"city":"Racine","state":"WI","address":"5500 WASHINGTON AVE","name":""},
  {"lat":38.794806,"lon":-104.786553,"city":"Colorado Springs","state":"CO","address":"2725 JANITELL RD","name":""},
  {"lat":42.569736,"lon":-87.890105,"city":"Kenosha","state":"WI","address":"7200 GREEN BAY RD","name":""},
  {"lat":42.20929,"lon":-88.113042,"city":"Lake Zurich","state":"IL","address":"675 N RAND R","name":""},
  {"lat":41.855663,"lon":-88.342899,"city":"Batavia","state":"IL","address":"251 N RANDALL RD","name":""},
  {"lat":42.386519,"lon":-87.955199,"city":"Gurnee","state":"IL","address":"6120 GRAND AVENUE","name":""},
  {"lat":41.664944,"lon":-88.463864,"city":"Yorkville","state":"IL","address":"945 ERICA LN","name":""},
  {"lat":42.027784,"lon":-88.142101,"city":"Schaumburg","state":"IL","address":"171 N. BARRINGTON RD","name":""},
  {"lat":42.230585,"lon":-87.939148,"city":"Vernon Hills","state":"IL","address":"235 N MILWAUKEE AVE","name":""},
  {"lat":42.140843,"lon":-87.992115,"city":"Arlington Heights","state":"IL","address":"800 W DUNDEE RD","name":""},
  {"lat":41.701112,"lon":-88.307043,"city":"Oswego","state":"IL","address":"2500 ROUTE 34","name":""},
  {"lat":41.948734,"lon":-88.11527,"city":"Bloomingdale","state":"IL","address":"6 STRATFORD SQUARE MALL","name":""},
  {"lat":42.037674,"lon":-88.04659,"city":"Schaumburg","state":"IL","address":"1293 E HIGGINS RD","name":""},
  {"lat":38.580594,"lon":-92.221798,"city":"Jefferson City","state":"MO","address":"715 STONERIDGE BLVD","name":""},
  {"lat":41.761492,"lon":-88.207921,"city":"Aurora","state":"IL","address":"4340 FOX VALLEY CENTER DR","name":""},
  {"lat":41.906556,"lon":-88.074467,"city":"Wheaton","state":"IL","address":"401 S COUNTY FARM RD","name":""},
  {"lat":42.038473,"lon":-87.942977,"city":"Mount Prospect","state":"IL","address":"1500 S ELMHURST RD","name":""},
  {"lat":41.835593,"lon":-88.027329,"city":"Downers Grove","state":"IL","address":"2920 FINLEY RD","name":""},
  {"lat":41.705659,"lon":-88.120139,"city":"Bolingbrook","state":"IL","address":"1138 W BOUGHTON RD","name":""},
  {"lat":42.102034,"lon":-87.811217,"city":"Glenview","state":"IL","address":"2201 WILLOW RD","name":""},
  {"lat":41.891455,"lon":-87.960091,"city":"Elmhurst","state":"IL","address":"303 S STATE ROUTE 83","name":""},
  {"lat":41.567617,"lon":-88.198176,"city":"Plainfield","state":"IL","address":"2510 S ROUTE 59","name":""},
  {"lat":41.750499,"lon":-88.016052,"city":"Woodridge","state":"IL","address":"1001 75TH ST","name":""},
  {"lat":41.615962,"lon":-88.120444,"city":"Romeoville","state":"IL","address":"261S WEBER RD","name":""},
  {"lat":42.040559,"lon":-87.79858,"city":"Morton Grove","state":"IL","address":"6931 DEMPSTER STREET","name":""},
  {"lat":38.331533,"lon":-104.622165,"city":"Pueblo","state":"CO","address":"5627 N ELIZABETH ST","name":""},
  {"lat":41.956914,"lon":-87.807871,"city":"Norridge","state":"IL","address":"4220 N HARLEM AVE","name":""},
  {"lat":41.643546,"lon":-88.003088,"city":"Lemont","state":"IL","address":"13440 S ARCHER AVE","name":""},
  {"lat":38.175418,"lon":-92.61071,"city":"Lake Ozark","state":"MO","address":"2455 GOLDIE PREWITT MEMORIAL, PARKWAY","name":""},
  {"lat":42.00996,"lon":-87.713986,"city":"Lincolnwood","state":"IL","address":"3333 W TOUHY AVE","name":""},
  {"lat":41.778899,"lon":-87.861574,"city":"Hodgkins","state":"IL","address":"9350 JOLIET RD","name":""},
  {"lat":41.849599,"lon":-87.806301,"city":"North Riverside","state":"IL","address":"2200 HARLEM AVE","name":""},
  {"lat":40.485438,"lon":-88.956049,"city":"Bloomington","state":"IL","address":"1615 E EMPIRE ST","name":""},
  {"lat":41.920459,"lon":-87.671831,"city":"Chicago","state":"IL","address":"2140 N ELSTON AVE","name":""},
  {"lat":41.714581,"lon":-87.781714,"city":"Chicago Ridge","state":"IL","address":"9700 RIDGELAND AVE","name":""},
  {"lat":39.765657,"lon":-89.709415,"city":"Springfield","state":"IL","address":"2901 S VETERANS PKWY","name":""},
  {"lat":41.755239,"lon":-87.745423,"city":"Burbank","state":"IL","address":"7608 LA CROSSE AVE","name":""},
  {"lat":41.610851,"lon":-87.850461,"city":"Orland Park","state":"IL","address":"3 ORLAND PARK PL","name":""},
  {"lat":41.5005,"lon":-87.885504,"city":"Frankfort","state":"IL","address":"11055 W LINCOLN HWY","name":""},
  {"lat":41.654128,"lon":-87.746346,"city":"Crestwood","state":"IL","address":"13130 RIVERCREST DR, RIVERCREST SHOPPING CENTR","name":""},
  {"lat":41.549668,"lon":-87.797879,"city":"Tinley Park","state":"IL","address":"7500 W 191ST ST","name":""},
  {"lat":38.811515,"lon":-90.881368,"city":"Wentzville","state":"MO","address":"1239 W PEARCE BLVD","name":""},
  {"lat":41.568596,"lon":-87.638688,"city":"Homewood","state":"IL","address":"17620 HALSTED ST","name":""},
  {"lat":45.669492,"lon":-111.076317,"city":"Bozeman","state":"MT","address":"981 SOUTH 29TH AVENUE","name":""},
  {"lat":38.779412,"lon":-90.69584,"city":"O'Fallon","state":"MO","address":"2110 HIGHWAY K","name":""},
  {"lat":41.185331,"lon":-87.848376,"city":"Bourbonnais","state":"IL","address":"2006 N STATE ROUTE 50","name":""},
  {"lat":41.459054,"lon":-87.573416,"city":"Crete","state":"IL","address":"23755 S VOLBRECHT RD","name":""},
  {"lat":38.534288,"lon":-90.978034,"city":"Washington","state":"MO","address":"3198 PHOENIX CENTER DRIVE","name":""},
  {"lat":37.08712,"lon":-94.473378,"city":"Joplin","state":"MO","address":"301 GENEVA AVE","name":""},
  {"lat":41.525496,"lon":-87.467672,"city":"Highland","state":"IN","address":"10353 INDIANAPOLIS BLVD","name":""},
  {"lat":38.744971,"lon":-90.59363,"city":"St. Peters","state":"MO","address":"4000 S SAINT PETERS PKWY","name":""},
  {"lat":39.916558,"lon":-88.961001,"city":"Forsyth","state":"IL","address":"1080 HICKORY POINT MALL","name":""},
  {"lat":38.750268,"lon":-90.429458,"city":"Bridgeton","state":"MO","address":"12222 SAINT CHARLES ROCK RD","name":""},
  {"lat":38.92086,"lon":-90.162812,"city":"Alton","state":"IL","address":"1770 HOMER ADAMS PKWY","name":""},
  {"lat":37.965137,"lon":-91.762857,"city":"Rolla","state":"MO","address":"2200 NORTH BISHOP AVENUE","name":""},
  {"lat":38.589621,"lon":-90.606355,"city":"Ellisville","state":"MO","address":"25 ELLISVILLE TOWNE CENTR DR","name":""},
  {"lat":41.470505,"lon":-87.314503,"city":"Merrillville","state":"IN","address":"1601 SOUTHLAKE MALL","name":""},
  {"lat":38.673901,"lon":-90.452153,"city":"Creve Coeur","state":"MO","address":"955 WOODCREST EXECUTIVE DR","name":""},
  {"lat":38.59562,"lon":-90.517955,"city":"Manchester","state":"MO","address":"14425 ANDERSOHN DR","name":""},
  {"lat":43.149281,"lon":-86.209747,"city":"Norton Shores","state":"MI","address":"5695 HARVEY ST","name":""},
  {"lat":44.735556,"lon":-85.646938,"city":"Traverse City","state":"MI","address":"3333 US 31 S","name":""},
  {"lat":41.550489,"lon":-87.163126,"city":"Portage","state":"IN","address":"6495 US HIGHWAY 6","name":""},
  {"lat":38.557743,"lon":-90.386166,"city":"St. Louis","state":"MO","address":"9701 WATSON RD","name":""},
  {"lat":38.509944,"lon":-90.442425,"city":"Fenton","state":"MO","address":"115 GRAVOIS BLUFFS PLAZA DR","name":""},
  {"lat":38.788823,"lon":-89.948967,"city":"Edwardsville","state":"IL","address":"2120 TROY RD","name":""},
  {"lat":37.144297,"lon":-93.26072,"city":"Springfield","state":"MO","address":"1909 E INDEPENDENCE ST","name":""},
  {"lat":41.67832,"lon":-86.897792,"city":"Michigan City","state":"IN","address":"210 DUNES PLAZA","name":""},
  {"lat":40.138534,"lon":-88.241707,"city":"Champaign","state":"IL","address":"109 CONVENIENCE CENTER RD","name":""},
  {"lat":41.464111,"lon":-87.028225,"city":"Valparaiso","state":"IN","address":"350 SILHAVY RD","name":""},
  {"lat":38.69213,"lon":-89.981199,"city":"Collinsville","state":"IL","address":"605 BELTLINE RD.","name":""},
  {"lat":38.43788,"lon":-90.379669,"city":"Arnold","state":"MO","address":"2150 MICHIGAN AVE","name":""},
  {"lat":42.818524,"lon":-86.085293,"city":"Holland","state":"MI","address":"12288 FELCH ST","name":""},
  {"lat":38.589217,"lon":-89.987029,"city":"Fairview Heights","state":"IL","address":"6109 N ILLINOIS ST","name":""},
  {"lat":42.084395,"lon":-86.433562,"city":"Benton Harbor","state":"MI","address":"980 E NAPIER AVE","name":""},
  {"lat":36.295194,"lon":-95.83456,"city":"Owasso","state":"OK","address":"12405 E 96TH ST N","name":""},
  {"lat":42.879072,"lon":-85.757425,"city":"Grandville","state":"MI","address":"3790 RIVERTOWN PKWY SW","name":""},
  {"lat":43.021066,"lon":-85.684294,"city":"Walker","state":"MI","address":"745 CENTER DR NW","name":""},
  {"lat":40.189638,"lon":-87.62743,"city":"Danville","state":"IL","address":"3707 NORTH VERMILION STREET","name":""},
  {"lat":42.919287,"lon":-85.590813,"city":"Kentwood","state":"MI","address":"3131 WOODLAND DR SE","name":""},
  {"lat":36.062968,"lon":-95.853353,"city":"Tulsa","state":"OK","address":"11011 E 71ST ST","name":""},
  {"lat":36.025603,"lon":-95.947427,"city":"Tulsa","state":"OK","address":"9595 S DELAWARE AVE","name":""},
  {"lat":36.668517,"lon":-93.226471,"city":"Branson","state":"MO","address":"1001 BRANSON HILSL PKWY","name":""},
  {"lat":41.700609,"lon":-86.184712,"city":"Mishawaka","state":"IN","address":"4410 GRAPE RD","name":""},
  {"lat":41.627767,"lon":-86.231927,"city":"South Bend","state":"IN","address":"1290 E IRELAND RD","name":""},
  {"lat":39.143775,"lon":-88.564534,"city":"Effingham","state":"IL","address":"1600 FORD AVE","name":""},
  {"lat":36.337461,"lon":-94.176815,"city":"Rogers","state":"AR","address":"301 N 46TH ST","name":""},
  {"lat":45.029285,"lon":-84.7238,"city":"Gaylord","state":"MI","address":"2450 W M 32","name":""},
  {"lat":42.294541,"lon":-85.651354,"city":"Kalamazoo","state":"MI","address":"5159 W MAIN ST","name":""},
  {"lat":39.096648,"lon":-108.605502,"city":"Grand Junction","state":"CO","address":"636 MARKET ST","name":""},
  {"lat":35.669188,"lon":-97.512034,"city":"Edmond","state":"OK","address":"2201 W DANFORTH RD","name":""},
  {"lat":43.468529,"lon":-111.982503,"city":"Ammon","state":"ID","address":"3175 S 25TH E","name":""},
  {"lat":42.228603,"lon":-85.591596,"city":"Portage","state":"MI","address":"6100 S WESTNEDGE AVE","name":""},
  {"lat":46.464446,"lon":-84.365246,"city":"Sault Ste. Marie","state":"MI","address":"4516 I-75 BUSINESS SPUR","name":""},
  {"lat":41.62157,"lon":-85.903298,"city":"Goshen","state":"IN","address":"3802 MIDWAY RD","name":""},
  {"lat":40.393627,"lon":-86.851891,"city":"Lafayette","state":"IN","address":"2415 SAGAMORE PKWY S","name":""},
  {"lat":36.116861,"lon":-94.153776,"city":"Fayetteville","state":"AR","address":"3575 N SHILOH DR","name":""},
  {"lat":35.561501,"lon":-97.651984,"city":"Oklahoma City","state":"OK","address":"9001 NW PASSAGE RD","name":""},
  {"lat":43.570127,"lon":-84.756201,"city":"Mount Pleasant","state":"MI","address":"4855 ENCORE BLVD","name":""},
  {"lat":35.480259,"lon":-97.75771,"city":"Yukon","state":"OK","address":"1715 GARTH BROOKS BLVD","name":""},
  {"lat":38.308456,"lon":-88.961808,"city":"Mount Vernon","state":"IL","address":"141 S. DAVIDSON AVE.","name":""},
  {"lat":35.437384,"lon":-97.394037,"city":"Midwest City","state":"OK","address":"7401 SE 29TH ST","name":""},
  {"lat":41.278404,"lon":-85.855181,"city":"Warsaw","state":"IN","address":"590 W 300 N","name":""},
  {"lat":42.263899,"lon":-85.175726,"city":"Battle Creek","state":"MI","address":"12765 HARPER VILLAGE DR","name":""},
  {"lat":35.386661,"lon":-96.926378,"city":"Shawnee","state":"OK","address":"4901 N. KICKAPOO ST.","name":""},
  {"lat":39.397858,"lon":-87.402931,"city":"Terre Haute","state":"IN","address":"5679 S US HWY 41","name":""},
  {"lat":35.314336,"lon":-97.493425,"city":"Moore","state":"OK","address":"2600 SOUTH TELEPHONE RD","name":""},
  {"lat":35.245092,"lon":-97.481949,"city":"Norman","state":"OK","address":"2110 24TH AVE NW","name":""},
  {"lat":42.743318,"lon":-84.646114,"city":"Lansing","state":"MI","address":"6528 W SAGINAW HWY","name":""},
  {"lat":43.658773,"lon":-84.238168,"city":"Midland","state":"MI","address":"901 JOE MANN BLVD","name":""},
  {"lat":41.762598,"lon":-111.832079,"city":"Logan","state":"UT","address":"1660 N MAIN ST","name":""},
  {"lat":40.463922,"lon":-86.103441,"city":"Kokomo","state":"IN","address":"2156 E BOULEVARD","name":""},
  {"lat":37.732575,"lon":-89.1828,"city":"Carbondale","state":"IL","address":"625 N GIANT CITY RD","name":""},
  {"lat":42.724911,"lon":-84.411157,"city":"Okemos","state":"MI","address":"1710 NEWMAN RD","name":""},
  {"lat":41.676125,"lon":-84.997517,"city":"Angola","state":"IN","address":"3300 N WAYNE ST","name":""},
  {"lat":39.861384,"lon":-86.406525,"city":"Brownsburg","state":"IN","address":"580 W NORTHFIELD DR","name":""},
  {"lat":43.481077,"lon":-83.978359,"city":"Saginaw","state":"MI","address":"3090 TITTABAWASSEE RD","name":""},
  {"lat":37.29598,"lon":-89.585273,"city":"Cape Girardeau","state":"MO","address":"315 SHIRLEY DR","name":""},
  {"lat":39.932461,"lon":-86.229347,"city":"Carmel","state":"IN","address":"9895 N MICHIGAN RD","name":""},
  {"lat":40.51896,"lon":-85.676715,"city":"Marion","state":"IN","address":"4114 SOUTH WESTERN AVENUE","name":""},
  {"lat":40.001408,"lon":-86.123811,"city":"Carmel","state":"IN","address":"2005 E GREYHOUND PASS","name":""},
  {"lat":35.353219,"lon":-94.345735,"city":"Fort Smith","state":"AR","address":"7801 ROGERS AVE","name":""},
  {"lat":39.717959,"lon":-86.352429,"city":"Plainfield","state":"IN","address":"2685 E MAIN ST","name":""},
  {"lat":38.65773,"lon":-87.503565,"city":"Vincennes","state":"IN","address":"616 N BIERHAUS BLVD","name":""},
  {"lat":41.072048,"lon":-85.203253,"city":"Fort Wayne","state":"IN","address":"1410 APPLE GLEN BLVD","name":""},
  {"lat":42.269369,"lon":-84.428635,"city":"Jackson","state":"MI","address":"1222 JACKSON XING","name":""},
  {"lat":35.183315,"lon":-101.940334,"city":"Amarillo","state":"TX","address":"2610 S SONCY RD","name":""},
  {"lat":39.797308,"lon":-86.258422,"city":"Indianapolis","state":"IN","address":"5660 CRAWFORDSVILLE RD","name":""},
  {"lat":41.120818,"lon":-85.128325,"city":"Fort Wayne","state":"IN","address":"835 E COLISEUM BLVD","name":""},
  {"lat":40.031419,"lon":-85.998602,"city":"Noblesville","state":"IN","address":"16701 CLOVER RD","name":""},
  {"lat":39.909361,"lon":-86.10742,"city":"Indianapolis","state":"IN","address":"8487 UNION CHAPEL RD","name":""},
  {"lat":39.924781,"lon":-86.024321,"city":"Indianapolis","state":"IN","address":"8141 E 96TH ST","name":""},
  {"lat":41.127297,"lon":-85.00824,"city":"Fort Wayne","state":"IN","address":"10310 MAYVILLE RD","name":""},
  {"lat":41.080241,"lon":-111.984107,"city":"Layton","state":"UT","address":"1298 N MAIN ST","name":""},
  {"lat":39.860581,"lon":-85.970524,"city":"Indianapolis","state":"IN","address":"5825 SUNNYSIDE RD","name":""},
  {"lat":40.916874,"lon":-111.889836,"city":"Centerville","state":"UT","address":"49 S FRONTAGE RD","name":""},
  {"lat":41.14111,"lon":-112.060492,"city":"Clinton","state":"UT","address":"1814 W 1800 N","name":""},
  {"lat":39.667246,"lon":-86.085764,"city":"Indianapolis","state":"IN","address":"4850 E SOUTHPORT RD","name":""},
  {"lat":39.628943,"lon":-86.119037,"city":"Greenwood","state":"IN","address":"550 W FRY RD","name":""},
  {"lat":39.172649,"lon":-86.572161,"city":"Bloomington","state":"IN","address":"3140 W WHITEHALL CROSSING BLVD","name":""},
  {"lat":42.986669,"lon":-83.776011,"city":"Flint","state":"MI","address":"3030 S LINDEN RD","name":""},
  {"lat":40.068448,"lon":-85.649428,"city":"Anderson","state":"IN","address":"4544 S SCATTERFIELD RD","name":""},
  {"lat":46.835736,"lon":-114.036218,"city":"Missoula","state":"MT","address":"3640 BROOKS STREET","name":""},
  {"lat":40.701759,"lon":-111.858442,"city":"Salt Lake City","state":"UT","address":"1154 BRICKYARD RD","name":""},
  {"lat":34.612955,"lon":-98.387758,"city":"Lawton","state":"OK","address":"321 NW 2ND STREET","name":""},
  {"lat":42.580257,"lon":-83.862047,"city":"Howell","state":"MI","address":"1400 LAWSON DR","name":""},
  {"lat":39.817363,"lon":-85.766184,"city":"Greenfield","state":"IN","address":"2223 BARRETT DRIVE","name":""},
  {"lat":39.486856,"lon":-86.067135,"city":"Franklin","state":"IN","address":"415 MALLORY PKWY","name":""},
  {"lat":42.93628,"lon":-83.644343,"city":"Grand Blanc","state":"MI","address":"6300 SAGINAW RD","name":""},
  {"lat":40.225653,"lon":-85.37159,"city":"Muncie","state":"IN","address":"1200 E PRINCETON AVE","name":""},
  {"lat":40.273806,"lon":-111.673711,"city":"Orem","state":"UT","address":"1281 S 800 EAST","name":""},
  {"lat":40.705233,"lon":-112.022792,"city":"West Valley City","state":"UT","address":"3031 S 5600 W","name":""},
  {"lat":40.528972,"lon":-111.886855,"city":"Draper","state":"UT","address":"147 E 12300 S","name":""},
  {"lat":40.617777,"lon":-111.977773,"city":"West Jordan","state":"UT","address":"7292 PLAZA CENTER DR","name":""},
  {"lat":42.505268,"lon":-83.762571,"city":"Brighton","state":"MI","address":"6650 WHITMORE LAKE RD","name":""},
  {"lat":40.382743,"lon":-111.817547,"city":"American Fork","state":"UT","address":"634 W PACIFIC DR","name":""},
  {"lat":37.980221,"lon":-87.624962,"city":"Evansville","state":"IN","address":"4200 HOGUE RD","name":""},
  {"lat":41.876634,"lon":-84.022525,"city":"Adrian","state":"MI","address":"2050 E US HIGHWAY 223","name":""},
  {"lat":41.316562,"lon":-84.358641,"city":"Defiance","state":"OH","address":"8683 N STATE ROUTE 66","name":""},
  {"lat":42.239895,"lon":-83.76058,"city":"Ann Arbor","state":"MI","address":"3160 LOHR RD","name":""},
  {"lat":38.42423,"lon":-86.939865,"city":"Jasper","state":"IN","address":"3875 N NEWTON ST","name":""},
  {"lat":37.977633,"lon":-87.4686,"city":"Evansville","state":"IN","address":"201 N BURKHARDT RD","name":""},
  {"lat":42.650448,"lon":-83.51485,"city":"White Lake","state":"MI","address":"7375 HIGHLAND RD","name":""},
  {"lat":43.045255,"lon":-83.32663,"city":"Lapeer","state":"MI","address":"1880 DEMILLE RD","name":""},
  {"lat":37.074999,"lon":-88.697502,"city":"Paducah","state":"KY","address":"5191 HINKLEVILLE RD","name":""},
  {"lat":48.22911,"lon":-114.331912,"city":"Kalispell","state":"MT","address":"2248 US-93","name":""},
  {"lat":42.494508,"lon":-83.481525,"city":"Novi","state":"MI","address":"43550 W OAKS DR","name":""},
  {"lat":39.206844,"lon":-85.881563,"city":"Columbus","state":"IN","address":"711 CREEKVIEW DR","name":""},
  {"lat":42.709046,"lon":-83.311292,"city":"Lake Orion","state":"MI","address":"4872 BALDWIN RD","name":""},
  {"lat":42.433575,"lon":-83.436841,"city":"Northville","state":"MI","address":"20155 HAGGERTY RD","name":""},
  {"lat":42.323977,"lon":-83.479858,"city":"Canton","state":"MI","address":"44444 FORD RD","name":""},
  {"lat":42.270122,"lon":-83.501846,"city":"Canton","state":"MI","address":"47250 MICHIGAN AVE","name":""},
  {"lat":42.531954,"lon":-83.362577,"city":"West Bloomfield","state":"MI","address":"7200 ORCHARD LAKE RD","name":""},
  {"lat":42.341537,"lon":-83.389634,"city":"Westland","state":"MI","address":"35000 WARREN RD, SUITE 2103","name":""},
  {"lat":42.43053,"lon":-83.3417,"city":"Livonia","state":"MI","address":"29580 SEVEN MILE RD.","name":""},
  {"lat":35.816734,"lon":-90.675081,"city":"Jonesboro","state":"AR","address":"2117 FAIR PARK BLVD","name":""},
  {"lat":35.089472,"lon":-92.414514,"city":"Conway","state":"AR","address":"801 ELSINGER BLVD","name":""},
  {"lat":42.543476,"lon":-83.189852,"city":"Troy","state":"MI","address":"1265 COOLIDGE HWY","name":""},
  {"lat":35.630743,"lon":-106.025996,"city":"Santa","state":"NM","address":"4401 CERRILLOS RD","name":""},
  {"lat":42.638446,"lon":-83.126533,"city":"Rochester Hills","state":"MI","address":"223 E AUBURN RD","name":""},
  {"lat":41.617837,"lon":-83.685101,"city":"Holland","state":"OH","address":"1220 S HOLLAND SYLVANIA R","name":""},
  {"lat":41.694182,"lon":-83.635674,"city":"Toledo","state":"OH","address":"4865 MONROE ST","name":""},
  {"lat":40.555236,"lon":-84.387551,"city":"St. Marys","state":"OH","address":"415 FORTMAN DRIVE","name":""},
  {"lat":42.711033,"lon":-83.031282,"city":"Shelby Township","state":"MI","address":"8320 26 MILE RD","name":""},
  {"lat":42.538543,"lon":-83.104909,"city":"Troy","state":"MI","address":"500 JOHN R RD, TEST","name":""},
  {"lat":41.955893,"lon":-83.399803,"city":"Monroe","state":"MI","address":"2323 TELEGRAPH RD","name":""},
  {"lat":42.201069,"lon":-83.248761,"city":"Taylor","state":"MI","address":"14500 RACHO BLVD","name":""},
  {"lat":40.769352,"lon":-84.153571,"city":"Lima","state":"OH","address":"2750 ELIDA RD","name":""},
  {"lat":41.543707,"lon":-83.593762,"city":"Perrysburg","state":"OH","address":"10323 FREMONT PIKE","name":""},
  {"lat":42.61926,"lon":-82.990977,"city":"Sterling Heights","state":"MI","address":"44200 SCHOENHERR RD","name":""},
  {"lat":42.141511,"lon":-83.234038,"city":"Woodhaven","state":"MI","address":"20840 WEST RD","name":""},
  {"lat":39.833267,"lon":-84.848485,"city":"Richmond","state":"IN","address":"3722 NATIONAL RD E","name":""},
  {"lat":37.751006,"lon":-87.055046,"city":"Owensboro","state":"KY","address":"3440 VILLA POINT DR","name":""},
  {"lat":42.535229,"lon":-82.918564,"city":"Roseville","state":"MI","address":"32100 BEACONSFIELD ST","name":""},
  {"lat":42.670103,"lon":-82.833937,"city":"Chesterfield","state":"MI","address":"50500 GRATIOT AVE","name":""},
  {"lat":33.872872,"lon":-98.538629,"city":"Wichita Falls","state":"TX","address":"3712 CALL FIELD RD, LOT-3 BLOCK 1","name":""},
  {"lat":34.82809,"lon":-92.192163,"city":"Sherwood","state":"AR","address":"7600 WARDEN RD","name":""},
  {"lat":41.057573,"lon":-83.597422,"city":"Findlay","state":"OH","address":"2310 TIFFIN AVE","name":""},
  {"lat":43.038446,"lon":-82.459536,"city":"Fort Gratiot","state":"MI","address":"4485 24TH AVE","name":""},
  {"lat":40.057451,"lon":-84.238739,"city":"Troy","state":"OH","address":"1869 W MAIN STREET","name":""},
  {"lat":34.603641,"lon":-92.532638,"city":"Bryant","state":"AR","address":"7333 ALCOA RD","name":""},
  {"lat":38.774216,"lon":-85.38571,"city":"Madison","state":"IN","address":"2528 MICHIGAN RD","name":""},
  {"lat":38.342177,"lon":-85.801417,"city":"New Albany","state":"IN","address":"3899 CHARLESTOWN RD","name":""},
  {"lat":42.593198,"lon":-114.454891,"city":"Twin Falls","state":"ID","address":"1543 POLELINE RD EAST TWIN FAL","name":""},
  {"lat":38.321071,"lon":-85.70848,"city":"Jeffersonville","state":"IN","address":"2650 ALLISON LN","name":""},
  {"lat":33.679962,"lon":-96.604759,"city":"Sherman","state":"TX","address":"4111 N US HWY 75","name":""},
  {"lat":39.875641,"lon":-84.140051,"city":"Huber Heights","state":"OH","address":"8301 OLD TROY PIKE, STATE ROUTE 202","name":""},
  {"lat":39.388432,"lon":-84.510951,"city":"Hamilton","state":"OH","address":"3173 PRINCETON RD","name":""},
  {"lat":39.195749,"lon":-84.659197,"city":"Cincinnati","state":"OH","address":"6580 HARRISON AVE","name":""},
  {"lat":38.247368,"lon":-85.616007,"city":"Louisville","state":"KY","address":"110 OXMOOR LN","name":""},
  {"lat":38.30116,"lon":-85.555651,"city":"Louisville","state":"KY","address":"4200 TOWNE CENTER DR","name":""},
  {"lat":35.175063,"lon":-106.570008,"city":"Albuquerque","state":"NM","address":"6800 HOLLY AVE NE","name":""},
  {"lat":35.209817,"lon":-106.655039,"city":"Albuquerque","state":"NM","address":"3715 ELLISON RD NW","name":""},
  {"lat":39.490996,"lon":-84.334649,"city":"Middletown","state":"OH","address":"6825 ROOSEVELT PKWY","name":""},
  {"lat":39.599549,"lon":-84.23002,"city":"Miamisburg","state":"OH","address":"10800 INNOVATION DRIVE","name":""},
  {"lat":39.772209,"lon":-84.046519,"city":"Fairborn","state":"OH","address":"2850 CENTRE DR","name":""},
  {"lat":38.090303,"lon":-85.665481,"city":"Louisville","state":"KY","address":"11811 STANDIFORD PLAZA DR","name":""},
  {"lat":39.643295,"lon":-84.108129,"city":"Dayton","state":"OH","address":"6400 WILMINGTON PIKE","name":""},
  {"lat":39.350937,"lon":-84.361598,"city":"West Chester","state":"OH","address":"7935 TYLERSVILLE RD","name":""},
  {"lat":38.133495,"lon":-85.577123,"city":"Louisville","state":"KY","address":"7915 BARDSTOWN RD","name":""},
  {"lat":39.944801,"lon":-83.831889,"city":"Springfield","state":"OH","address":"1600 N BECHTLE AVE","name":""},
  {"lat":39.010676,"lon":-84.643171,"city":"Florence","state":"KY","address":"61 SPIRAL DR","name":""},
  {"lat":39.290431,"lon":-84.307358,"city":"Cincinnati","state":"OH","address":"9201 FIELDS ERTEL RD","name":""},
  {"lat":39.380446,"lon":-84.218527,"city":"South Lebanon","state":"OH","address":"500 CORWIN NIXON BLVD","name":""},
  {"lat":39.14652,"lon":-84.42498,"city":"Cincinnati","state":"OH","address":"3872B PAXTON AVE","name":""},
  {"lat":37.744134,"lon":-85.890035,"city":"Elizabethtown","state":"KY","address":"3100 N DIXIE AVE","name":""},
  {"lat":41.404714,"lon":-82.664041,"city":"Sandusky","state":"OH","address":"815 CROSSINGS RD","name":""},
  {"lat":38.855713,"lon":-84.612752,"city":"Walton","state":"KY","address":"12300 TOWNE CENTER DR","name":""},
  {"lat":35.666201,"lon":-88.861549,"city":"Jackson","state":"TN","address":"1131 VANN DR","name":""},
  {"lat":35.18943,"lon":-89.796487,"city":"Cordova","state":"TN","address":"2335 N GERMANTOWN PKWY","name":""},
  {"lat":36.592273,"lon":-87.295467,"city":"Clarksville","state":"TN","address":"2840 WILMA RUDOLPH RD","name":""},
  {"lat":39.005709,"lon":-84.420001,"city":"Cold Spring","state":"KY","address":"395 CROSS ROADS BLVD","name":""},
  {"lat":39.199589,"lon":-84.230349,"city":"Milford","state":"OH","address":"1164 STATE ROUTE 28","name":""},
  {"lat":33.503178,"lon":-101.886499,"city":"Lubbock","state":"TX","address":"3307 98TH ST","name":""},
  {"lat":40.585337,"lon":-83.081602,"city":"Marion","state":"OH","address":"400 MCMAHAN BLVD","name":""},
  {"lat":39.103279,"lon":-84.279005,"city":"Cincinnati","state":"OH","address":"4607 EASTGATE BLVD","name":""},
  {"lat":33.232285,"lon":-97.16379,"city":"Denton","state":"TX","address":"2620 WEST UNIVERSITY DR.","name":""},
  {"lat":33.227739,"lon":-96.797981,"city":"Prosper","state":"TX","address":"920 S. PRESTON RD","name":""},
  {"lat":34.963914,"lon":-89.968904,"city":"Southaven","state":"MS","address":"1160 GOODMAN RD E","name":""},
  {"lat":35.050747,"lon":-89.735795,"city":"Collierville","state":"TN","address":"3575 S HOUSTON LEVEE RD","name":""},
  {"lat":33.17071,"lon":-96.636922,"city":"McKinney","state":"TX","address":"3001 S CENTRAL EXPY","name":""},
  {"lat":33.137518,"lon":-96.802074,"city":"Frisco","state":"TX","address":"7150 PRESTON RD","name":""},
  {"lat":36.954316,"lon":-86.434705,"city":"Bowling Green","state":"KY","address":"2321 GARY FARMS BLVD","name":""},
  {"lat":40.291727,"lon":-83.036305,"city":"Delaware","state":"OH","address":"980 SUNBURY RD","name":""},
  {"lat":33.099625,"lon":-96.735851,"city":"Plano","state":"TX","address":"2400 MCDERMOTT RD","name":""},
  {"lat":33.057847,"lon":-97.01742,"city":"Lewisville","state":"TX","address":"1001 VALLEY RIDGE BLVD","name":""},
  {"lat":41.427641,"lon":-82.208915,"city":"Lorain","state":"OH","address":"3080 JAEGER RD","name":""},
  {"lat":33.458364,"lon":-94.093985,"city":"Texarkana","state":"TX","address":"4101 GIBSON RD","name":""},
  {"lat":33.055465,"lon":-96.794859,"city":"Plano","state":"TX","address":"5800 PRESTON ROAD","name":""},
  {"lat":33.034038,"lon":-97.067155,"city":"Flower Mound","state":"TX","address":"2501 CROSS TIMBERS RD","name":""},
  {"lat":40.089495,"lon":-83.094547,"city":"Dublin","state":"OH","address":"6063 SAWMILL RD","name":""},
  {"lat":40.766808,"lon":-82.588437,"city":"Mansfield","state":"OH","address":"524 N LEXINGTON SPRINGMILL RD","name":""},
  {"lat":39.989544,"lon":-83.154682,"city":"Hilliard","state":"OH","address":"1855 HILLIARD ROME RD","name":""},
  {"lat":38.176649,"lon":-84.818175,"city":"Frankfort","state":"KY","address":"7700 JOHN DAVIS DR","name":""},
  {"lat":40.162628,"lon":-83.01561,"city":"Lewis Center","state":"OH","address":"120 MEADOW PARK AVE","name":""},
  {"lat":33.022312,"lon":-96.914037,"city":"Carrollton","state":"TX","address":"4120 OLD DENTON RD","name":""},
  {"lat":33.009007,"lon":-96.590185,"city":"Wylie","state":"TX","address":"3060 W FM 544","name":""},
  {"lat":40.028758,"lon":-83.025564,"city":"Columbus","state":"OH","address":"3360 OLENTANGY RIVER RD","name":""},
  {"lat":32.940149,"lon":-97.104817,"city":"Southlake","state":"TX","address":"3001 E HIGHWAY 114","name":""},
  {"lat":41.463233,"lon":-82.014675,"city":"Avon","state":"OH","address":"35906 DETROIT RD","name":""},
  {"lat":40.102482,"lon":-82.92175,"city":"Westerville","state":"OH","address":"133 HUBER VILLAGE BLVD","name":""},
  {"lat":32.946211,"lon":-96.617889,"city":"Garland","state":"TX","address":"3353 N. PRESIDENT GEORGE BUSH","name":""},
  {"lat":32.918338,"lon":-96.960387,"city":"Irving","state":"TX","address":"1035 MARKET PL","name":""},
  {"lat":32.898553,"lon":-97.256828,"city":"Keller","state":"TX","address":"2001 S MAIN ST","name":""},
  {"lat":39.880225,"lon":-83.036305,"city":"Grove City","state":"OH","address":"1548 STRINGTOWN ROAD","name":""},
  {"lat":38.225923,"lon":-84.533195,"city":"Georgetown","state":"KY","address":"112 MAGNOLIA DR","name":""},
  {"lat":32.857999,"lon":-97.18694,"city":"North Richland Hills","state":"TX","address":"6091 PRECINCT LINE RD","name":""},
  {"lat":40.057131,"lon":-82.865745,"city":"Columbus","state":"OH","address":"4865 N HAMILTON RD","name":""},
  {"lat":32.89872,"lon":-96.459435,"city":"Rockwall","state":"TX","address":"823 E I-30 HWY","name":""},
  {"lat":32.81627,"lon":-97.416759,"city":"Lake Worth","state":"TX","address":"6054 AZLE AVE","name":""},
  {"lat":32.856858,"lon":-96.75425,"city":"Dallas","state":"TX","address":"5750 SKILLMAN ST","name":""},
  {"lat":41.459311,"lon":-81.849549,"city":"Fairview Park","state":"OH","address":"3221 WESTGATE","name":""},
  {"lat":32.729356,"lon":-97.793166,"city":"Weatherford","state":"TX","address":"148 E INTERSTATE 20","name":""},
  {"lat":32.797456,"lon":-96.629008,"city":"Mesquite","state":"TX","address":"19065 LBJ FWY","name":""},
  {"lat":47.742294,"lon":-116.794723,"city":"Coeur d'Alene","state":"ID","address":"545 W AQUA AVE","name":""},
  {"lat":36.334627,"lon":-86.624102,"city":"Hendersonville","state":"TN","address":"1030 GLENBROOK WAY","name":""},
  {"lat":41.311404,"lon":-81.822265,"city":"Strongsville","state":"OH","address":"17555 SOUTHPARK CTR","name":""},
  {"lat":39.916834,"lon":-82.78308,"city":"Pickerington","state":"OH","address":"175 POSTAGE DR","name":""},
  {"lat":41.377938,"lon":-81.737421,"city":"Parma","state":"OH","address":"6860 RIDGE RD","name":""},
  {"lat":32.685536,"lon":-97.406984,"city":"Fort Worth","state":"TX","address":"5520 SW LOOP 820","name":""},
  {"lat":37.940412,"lon":-84.551539,"city":"Nicholasville","state":"KY","address":"150 KOHLS DRIVE","name":""},
  {"lat":41.163212,"lon":-81.859071,"city":"Medina","state":"OH","address":"4095 PEARL RD","name":""},
  {"lat":32.748051,"lon":-96.451126,"city":"Forney","state":"TX","address":"182 TRAILHOUSE LANE","name":""},
  {"lat":32.692545,"lon":-97.023426,"city":"Grand Prairie","state":"TX","address":"3152 S STATE HWY 161","name":""},
  {"lat":38.025508,"lon":-84.416774,"city":"Lexington","state":"KY","address":"1988 PAVILION WAY","name":""},
  {"lat":43.634591,"lon":-116.357721,"city":"Meridian","state":"ID","address":"3275 N EAGLE RD","name":""},
  {"lat":32.658035,"lon":-97.136442,"city":"Arlington","state":"TX","address":"5410 S COOPER ST","name":""},
  {"lat":36.183575,"lon":-86.6348,"city":"Nashville","state":"TN","address":"2330 JACKSON DOWNS BLVD","name":""},
  {"lat":40.845772,"lon":-81.948167,"city":"Wooster","state":"OH","address":"3792 BURBANK RD","name":""},
  {"lat":32.596027,"lon":-96.936125,"city":"Cedar Hill","state":"TX","address":"424 N HIGHWAY 67","name":""},
  {"lat":32.568401,"lon":-97.322657,"city":"Burleson","state":"TX","address":"1173 N BURLESON BLVD","name":""},
  {"lat":40.084563,"lon":-82.419659,"city":"Newark","state":"OH","address":"1041 MOUNT VERNON RD","name":""},
  {"lat":41.541238,"lon":-81.453819,"city":"Highland Heights","state":"OH","address":"6245 WILSON MILLS RD","name":""},
  {"lat":32.5635,"lon":-97.117902,"city":"Mansfield","state":"TX","address":"126 HWY 287 S","name":""},
  {"lat":39.347704,"lon":-82.973174,"city":"Chillicothe","state":"OH","address":"45 RIVER TRACE DR","name":""},
  {"lat":39.73678,"lon":-82.642098,"city":"Lancaster","state":"OH","address":"1355 ETY POINTE DR NW","name":""},
  {"lat":35.936708,"lon":-86.819681,"city":"Franklin","state":"TN","address":"300 SPRING CREEK DR","name":""},
  {"lat":41.04014,"lon":-81.692696,"city":"Wadsworth","state":"OH","address":"1119 WILLIAMS RESERVE BLVD","name":""},
  {"lat":41.30805,"lon":-81.518669,"city":"Macedonia","state":"OH","address":"8100 MACEDONIA COMMONS BLVD","name":""},
  {"lat":41.684494,"lon":-81.296441,"city":"Mentor","state":"OH","address":"9581 MENTOR AVE","name":""},
  {"lat":43.613135,"lon":-116.588856,"city":"Nampa","state":"ID","address":"16566 N MARKET PLACE BLVD","name":""},
  {"lat":47.666153,"lon":-117.185279,"city":"Spokane Valley","state":"WA","address":"16301 E BROADWAY AVE","name":""},
  {"lat":41.35344,"lon":-81.388571,"city":"Aurora","state":"OH","address":"7005 MARKET PL DR","name":""},
  {"lat":35.73862,"lon":-86.940971,"city":"Spring Hill","state":"TN","address":"1020 CROSSINGS BLVD","name":""},
  {"lat":35.981134,"lon":-86.568305,"city":"Smyrna","state":"TN","address":"819 INDUSTRIAL BLVD","name":""},
  {"lat":32.406242,"lon":-99.786866,"city":"Abilene","state":"TX","address":"4757 SOUTHWEST DR","name":""},
  {"lat":37.754979,"lon":-84.273473,"city":"Richmond","state":"KY","address":"2047 MERCHANT DR","name":""},
  {"lat":41.154746,"lon":-81.410899,"city":"Stow","state":"OH","address":"4240 KENT RD","name":""},
  {"lat":40.990232,"lon":-81.489854,"city":"Akron","state":"OH","address":"2975 S ARLINGTON RD","name":""},
  {"lat":41.094199,"lon":-81.386509,"city":"Kent","state":"OH","address":"3886 CASCADES BLVD","name":""},
  {"lat":47.701874,"lon":-117.410403,"city":"Spokane","state":"WA","address":"4740 N DIVISION ST","name":""},
  {"lat":39.991596,"lon":-82.035094,"city":"Zanesville","state":"OH","address":"3825 GORSKY DR","name":""},
  {"lat":40.860011,"lon":-81.429315,"city":"North Canton","state":"OH","address":"5478 DRESSLER RD NW","name":""},
  {"lat":32.550841,"lon":-94.725105,"city":"Longview","state":"TX","address":"3096 N EASTMAN RD, STE 100","name":""},
  {"lat":35.843185,"lon":-86.443557,"city":"Murfreesboro","state":"TN","address":"2535 OLD FORT PKWY","name":""},
  {"lat":40.480128,"lon":-81.441289,"city":"New Philadelphia","state":"OH","address":"400 MILL AVE SE STE C4","name":""},
  {"lat":40.837689,"lon":-115.788155,"city":"Elko","state":"NV","address":"2450 MOUNTAIN CITY HIGHWAY","name":""},
  {"lat":40.90348,"lon":-81.13805,"city":"Alliance","state":"OH","address":"2025 W. STATE STREET","name":""},
  {"lat":34.312213,"lon":-88.704849,"city":"Tupelo","state":"MS","address":"3982 N GLOSTER ST","name":""},
  {"lat":32.264767,"lon":-95.310087,"city":"Tyler","state":"TX","address":"7715 S BROADWAY AVE","name":""},
  {"lat":34.838155,"lon":-87.626813,"city":"Florence","state":"AL","address":"350 SEVILLE ST","name":""},
  {"lat":36.154399,"lon":-85.523404,"city":"Cookeville","state":"TN","address":"700 W JACKSON ST","name":""},
  {"lat":32.43431,"lon":-93.713056,"city":"Shreveport","state":"LA","address":"7651 YOUREE DR","name":""},
  {"lat":41.212349,"lon":-80.74448,"city":"Warren","state":"OH","address":"2350 NILES CORTLAND RD SE","name":""},
  {"lat":37.105811,"lon":-84.088579,"city":"London","state":"KY","address":"1710 WEST HIGHWAY 192 SUITE 40","name":""},
  {"lat":38.483362,"lon":-82.656952,"city":"Ashland","state":"KY","address":"495 RIVER HILL DRIVE","name":""},
  {"lat":42.058017,"lon":-80.083,"city":"Erie","state":"PA","address":"1906 KEYSTONE DR","name":""},
  {"lat":41.022612,"lon":-80.647779,"city":"Youngstown","state":"OH","address":"383 BOARDMAN POLAND ROAD","name":""},
  {"lat":41.227009,"lon":-80.452643,"city":"Hermitage","state":"PA","address":"570 S. HERMITAGE ROAD","name":""},
  {"lat":32.01108,"lon":-102.155232,"city":"Midland","state":"TX","address":"3200 N LOOP 250 W SUITE 100","name":""},
  {"lat":32.500061,"lon":-92.065754,"city":"Monroe","state":"LA","address":"4491 PECANLAND MALL DR","name":""},
  {"lat":31.900548,"lon":-102.314356,"city":"Odessa","state":"TX","address":"6209B HWY 191 SR WB","name":""},
  {"lat":38.426698,"lon":-82.26461,"city":"Barboursville","state":"WV","address":"300 MALL RD","name":""},
  {"lat":34.75756,"lon":-86.734851,"city":"Madison","state":"AL","address":"7630 HIGHWAY 72 WEST","name":""},
  {"lat":33.874214,"lon":-88.343933,"city":"Yorba Linda","state":"CA","address":"23001 SAVI RANCH PKWY","name":""},
  {"lat":39.220656,"lon":-81.549873,"city":"Parkersburg","state":"WV","address":"189 BOSLEY PKWY","name":""},
  {"lat":34.564125,"lon":-86.975079,"city":"Decatur","state":"AL","address":"2407 6TH AVE SE","name":""},
  {"lat":37.130074,"lon":-113.521418,"city":"Washington","state":"UT","address":"650 W TELEGRAPH ST","name":""},
  {"lat":31.498174,"lon":-97.153607,"city":"Waco","state":"TX","address":"2708 W LOOP 340","name":""},
  {"lat":40.682211,"lon":-80.30998,"city":"Monaca","state":"PA","address":"97 WAGNER RD","name":""},
  {"lat":34.674947,"lon":-86.538756,"city":"Huntsville","state":"AL","address":"2775 CARL T. JONES DRIVE","name":""},
  {"lat":31.425597,"lon":-100.514527,"city":"San Angelo","state":"TX","address":"5825 SHERWOOD WAY","name":""},
  {"lat":40.055518,"lon":-80.60407,"city":"Triadelphia","state":"WV","address":"620 CABELA DR","name":""},
  {"lat":40.688549,"lon":-80.084571,"city":"Cranberry Township","state":"PA","address":"1717 ROUTE 228","name":""},
  {"lat":40.879021,"lon":-79.947993,"city":"Butler","state":"PA","address":"700 BUTLER CROSSING","name":""},
  {"lat":42.945219,"lon":-78.871646,"city":"Buffalo","state":"NY","address":"2232 DELAWARE AVE","name":""},
  {"lat":43.038923,"lon":-78.820213,"city":"Amherst","state":"NY","address":"3115 NIAGARA FALLS BLVD","name":""},
  {"lat":40.446707,"lon":-80.159852,"city":"Pittsburgh","state":"PA","address":"6571 STEUBENVILLE PIKE","name":""},
  {"lat":40.24941,"lon":-80.256079,"city":"Washington","state":"PA","address":"353 WASHINGTON RD, STRAVANE SQUARE","name":""},
  {"lat":38.326719,"lon":-81.716644,"city":"Charleston","state":"WV","address":"222 RHL BLVD","name":""},
  {"lat":35.180323,"lon":-111.665141,"city":"Flagstaff","state":"AZ","address":"500 W FOREST MEADOWS ST","name":""},
  {"lat":40.619637,"lon":-79.946318,"city":"Gibsonia","state":"PA","address":"5375 WILLIAM FLYNN HWY","name":""},
  {"lat":40.525181,"lon":-80.007121,"city":"Pittsburgh","state":"PA","address":"4801 MCKNIGHT RD","name":""},
  {"lat":42.792417,"lon":-78.784986,"city":"Orchard Park","state":"NY","address":"3430 AMELIA DR","name":""},
  {"lat":42.99848,"lon":-78.698192,"city":"Williamsville","state":"NY","address":"8500 TRANSIT RD","name":""},
  {"lat":35.165092,"lon":-85.250416,"city":"Hixson","state":"TN","address":"5953 153 HIGHWAY","name":""},
  {"lat":31.08858,"lon":-97.725799,"city":"Killeen","state":"TX","address":"1612 LOWES BLVD","name":""},
  {"lat":42.872584,"lon":-78.693407,"city":"Depew","state":"NY","address":"4835 TRANSIT RD","name":""},
  {"lat":40.347912,"lon":-80.050218,"city":"Bethel Park","state":"PA","address":"4000 OXFORD DR","name":""},
  {"lat":31.073209,"lon":-97.371687,"city":"Temple","state":"TX","address":"3170 S 31ST STREET","name":""},
  {"lat":46.230138,"lon":-119.229257,"city":"Richland","state":"WA","address":"1457 TAPTEAL DR","name":""},
  {"lat":35.877065,"lon":-84.16577,"city":"Farragut","state":"TN","address":"11530 KINGSTON PIKE","name":""},
  {"lat":40.340496,"lon":-79.950605,"city":"West Mifflin","state":"PA","address":"9911 MOUNTAIN VIEW DR, CENTURY III PLAZA","name":""},
  {"lat":35.926824,"lon":-84.031773,"city":"Knoxville","state":"TN","address":"220 MORRELL RD","name":""},
  {"lat":36.035655,"lon":-83.884241,"city":"Knoxville","state":"TN","address":"5312 WASHINGTON PIKE","name":""},
  {"lat":40.43229,"lon":-79.796856,"city":"Monroeville","state":"PA","address":"3624 WILLIAM PENN HWY","name":""},
  {"lat":35.023052,"lon":-85.156079,"city":"Chattanooga","state":"TN","address":"1812 GUNBARREL RD","name":""},
  {"lat":35.215288,"lon":-84.868235,"city":"Cleveland","state":"TN","address":"4580 FRONTAGE RD NW","name":""},
  {"lat":32.344659,"lon":-106.768618,"city":"Las Cruces","state":"NM","address":"2500 N TRIVIZ DR","name":""},
  {"lat":32.341378,"lon":-90.06694,"city":"Flowood","state":"MS","address":"300 RIDGE WAY","name":""},
  {"lat":40.318685,"lon":-79.683737,"city":"North Huntingdon","state":"PA","address":"88 ROCKY ROAD","name":""},
  {"lat":43.01038,"lon":-78.20909,"city":"Batavia","state":"NY","address":"4170 VETERANS MEMORIAL DRIVE","name":""},
  {"lat":36.220315,"lon":-83.260804,"city":"Morristown","state":"TN","address":"2550 E MORRIS BLVD","name":""},
  {"lat":39.271526,"lon":-80.283525,"city":"Clarksburg","state":"WV","address":"330 EMILY DR","name":""},
  {"lat":39.635041,"lon":-80.004426,"city":"Morgantown","state":"WV","address":"16 COLLIERS CROSSING","name":""},
  {"lat":34.786687,"lon":-84.997111,"city":"Dalton","state":"GA","address":"835 SHUGART ROAD","name":""},
  {"lat":42.082542,"lon":-78.42677,"city":"Olean","state":"NY","address":"400 N. UNION STREET","name":""},
  {"lat":30.629072,"lon":-97.695073,"city":"Georgetown","state":"TX","address":"1019 W UNIVERSITY AVE","name":""},
  {"lat":40.607705,"lon":-79.183422,"city":"Indiana","state":"PA","address":"2334 OAKLAND AVE SUITE 112","name":""},
  {"lat":33.645684,"lon":-86.627253,"city":"Birmingham","state":"AL","address":"5900 Chalkville Mountain Rd","name":""},
  {"lat":30.56177,"lon":-97.848185,"city":"Leander","state":"TX","address":"1245 S HIGHWAY 183 SUITE 100","name":""},
  {"lat":30.617482,"lon":-96.318786,"city":"College Station","state":"TX","address":"1701 TEXAS AVENUE S","name":""},
  {"lat":36.551385,"lon":-82.493206,"city":"Kingsport","state":"TN","address":"2626 E STONE DR, STE 190","name":""},
  {"lat":43.217307,"lon":-77.737518,"city":"Greece","state":"NY","address":"4100 W RIDGE ROAD","name":""},
  {"lat":31.867319,"lon":-106.576663,"city":"El Paso","state":"TX","address":"5680 N DESERT BLVD","name":""},
  {"lat":37.801201,"lon":-81.1763,"city":"Beckley","state":"WV","address":"1048 N EISENHOWER DR","name":""},
  {"lat":30.484531,"lon":-97.683664,"city":"Round Rock","state":"TX","address":"200 SUNDANCE PKWY, STE 100","name":""},
  {"lat":30.478724,"lon":-97.796182,"city":"Austin","state":"TX","address":"11111 LAKELINE BLVD","name":""},
  {"lat":31.782786,"lon":-106.412523,"city":"El Paso","state":"TX","address":"6001 GATEWAY BLVD WEST, STE 2","name":""},
  {"lat":30.467382,"lon":-97.588694,"city":"Pflugerville","state":"TX","address":"2101 AUTUMN SLATE DRIVE","name":""},
  {"lat":31.725849,"lon":-106.30674,"city":"El Paso","state":"TX","address":"1319 GEORGE DIETER DR","name":""},
  {"lat":33.363014,"lon":-86.851365,"city":"Hoover","state":"AL","address":"5513 GROVE BOULEVARD","name":""},
  {"lat":33.415741,"lon":-86.696828,"city":"Birmingham","state":"AL","address":"1100 INVERNESS CORS","name":""},
  {"lat":43.089063,"lon":-77.633638,"city":"Rochester","state":"NY","address":"3150 W HENRIETTA RD","name":""},
  {"lat":34.25231,"lon":-85.163322,"city":"Rome","state":"GA","address":"86 HICKS DRIVE","name":""},
  {"lat":36.342506,"lon":-82.408738,"city":"Johnson City","state":"TN","address":"190 MARKETPLACE DR","name":""},
  {"lat":34.589756,"lon":-112.341621,"city":"Prescott Valley","state":"AZ","address":"3280 N GLASFORD HILL RD","name":""},
  {"lat":43.213911,"lon":-77.451346,"city":"Webster","state":"NY","address":"925 HOLT RD","name":""},
  {"lat":43.017167,"lon":-77.435632,"city":"Victor","state":"NY","address":"439 COMMERCE DR","name":""},
  {"lat":30.231685,"lon":-97.814192,"city":"Sunset Valley","state":"TX","address":"4805 W HWY 290","name":""},
  {"lat":46.56604,"lon":-120.478675,"city":"Union Gap","state":"WA","address":"2551 MAIN STREET","name":""},
  {"lat":30.34501,"lon":-95.479905,"city":"Conroe","state":"TX","address":"2808 INTERSTATE 45 N","name":""},
  {"lat":33.60935,"lon":-85.778176,"city":"Oxford","state":"AL","address":"1600 OXFORD EXCHANGE BLVD","name":""},
  {"lat":34.175289,"lon":-84.780754,"city":"Cartersville","state":"GA","address":"600 E MAIN ST","name":""},
  {"lat":30.213685,"lon":-95.460008,"city":"Conroe","state":"TX","address":"16640 INTERSTATE 45 S","name":""},
  {"lat":30.01248,"lon":-97.866716,"city":"Kyle","state":"TX","address":"20185 MARKETPLACE AVE","name":""},
  {"lat":40.483923,"lon":-78.388546,"city":"Altoona","state":"PA","address":"213 SOPHIRA LN","name":""},
  {"lat":34.234041,"lon":-84.455703,"city":"Canton","state":"GA","address":"2034 CUMMING HWY","name":""},
  {"lat":36.281,"lon":-115.132775,"city":"North Las Vegas","state":"NV","address":"6650 N 5TH ST","name":""},
  {"lat":30.085954,"lon":-95.640702,"city":"Tomball","state":"TX","address":"14443 FM-2920 RD","name":""},
  {"lat":34.037597,"lon":-84.682071,"city":"Acworth","state":"GA","address":"3354 COBB PKWY NW","name":""},
  {"lat":39.63158,"lon":-78.838043,"city":"La Vale","state":"MD","address":"12101 WINCHESTER RD","name":""},
  {"lat":36.156435,"lon":-115.062532,"city":"Las Vegas","state":"NV","address":"1300 S NELLIS BLVD","name":""},
  {"lat":30.066496,"lon":-95.429651,"city":"Spring","state":"TX","address":"20614 INTERSTATE 45 N","name":""},
  {"lat":34.082767,"lon":-84.544908,"city":"Woodstock","state":"GA","address":"120 WOODSTOCK SQUARE AVE","name":""},
  {"lat":35.574624,"lon":-82.513679,"city":"Asheville","state":"NC","address":"149 BLEACHERY BLVD","name":""},
  {"lat":29.994497,"lon":-95.750535,"city":"Cypress","state":"TX","address":"28916 HWY 290","name":""},
  {"lat":30.011689,"lon":-95.592746,"city":"Houston","state":"TX","address":"22529 TOMBALL PKWY","name":""},
  {"lat":36.067773,"lon":-115.043721,"city":"Henderson","state":"NV","address":"1316 W SUNSET RD","name":""},
  {"lat":36.283026,"lon":-115.284529,"city":"Las Vegas","state":"NV","address":"6700 N DURANGO DR","name":""},
  {"lat":33.885608,"lon":-84.744308,"city":"Hiram","state":"GA","address":"5220 JIMMY LEE SMITH PKWY","name":""},
  {"lat":30.018168,"lon":-95.26926,"city":"Humble","state":"TX","address":"20755 HWY 59","name":""},
  {"lat":36.029033,"lon":-115.061241,"city":"Henderson","state":"NV","address":"30 N. VALLE VERDE DR.","name":""},
  {"lat":33.79996,"lon":-112.132317,"city":"Phoenix","state":"AZ","address":"34860 N NORTH VALLEY PKWY","name":""},
  {"lat":40.815401,"lon":-77.904782,"city":"State College","state":"PA","address":"275A COLONNADE BLVD.","name":""},
  {"lat":33.674283,"lon":-111.97447,"city":"Phoenix","state":"AZ","address":"21001 N TATUM BLVD","name":""},
  {"lat":33.619075,"lon":-111.895052,"city":"Scottsdale","state":"AZ","address":"8680 E RAINTREE DR","name":""},
  {"lat":30.000542,"lon":-95.16846,"city":"Atascocita","state":"TX","address":"7103 FM 1960 RD E","name":""},
  {"lat":34.055792,"lon":-84.380653,"city":"Roswell","state":"GA","address":"620 W CROSSVILLE RD","name":""},
  {"lat":36.157954,"lon":-115.283203,"city":"Las Vegas","state":"NV","address":"8671 W CHARLESTON BLVD","name":""},
  {"lat":29.924428,"lon":-95.603582,"city":"Houston","state":"TX","address":"12330 FM 1960 RD W","name":""},
  {"lat":30.12092,"lon":-94.170078,"city":"Beaumont","state":"TX","address":"4075 DOWLEN RD","name":""},
  {"lat":34.105207,"lon":-84.268801,"city":"Milton","state":"GA","address":"13097 HWY 9 NORTH","name":""},
  {"lat":33.450346,"lon":-111.704688,"city":"Mesa","state":"AZ","address":"5833 E MCKELLIPS RD","name":""},
  {"lat":34.188484,"lon":-84.134114,"city":"Cumming","state":"GA","address":"1615 MARKET PLACE BLVD","name":""},
  {"lat":33.385059,"lon":-111.602539,"city":"Mesa","state":"AZ","address":"1632 S SIGNAL BUTTE RD","name":""},
  {"lat":33.979337,"lon":-84.426109,"city":"Marietta","state":"GA","address":"1289 JOHNSON FERRY RD","name":""},
  {"lat":36.039704,"lon":-115.197623,"city":"Las Vegas","state":"NV","address":"4250 BLUE DIAMOND RD","name":""},
  {"lat":33.852602,"lon":-84.606863,"city":"Austell","state":"GA","address":"1825 E WEST CONNECTOR","name":""},
  {"lat":29.881827,"lon":-95.681461,"city":"Cypress","state":"TX","address":"7150 BARKER CYPRESS RD","name":""},
  {"lat":36.112275,"lon":-115.310983,"city":"Las Vegas","state":"NV","address":"4265 S GRAND CANYON DR","name":""},
  {"lat":29.70471,"lon":-98.10423,"city":"New Braunfels","state":"TX","address":"1050 INTERSTATE HWY 35","name":""},
  {"lat":33.641744,"lon":-112.10185,"city":"Phoenix","state":"AZ","address":"17232 N 19TH AVE","name":""},
  {"lat":33.722014,"lon":-84.734658,"city":"Douglasville","state":"GA","address":"2989 CHAPEL HILL RD","name":""},
  {"lat":34.299324,"lon":-83.858915,"city":"Gainesville","state":"GA","address":"975 DAWSONVILLE HWY","name":""},
  {"lat":34.071333,"lon":-84.170385,"city":"Suwanee","state":"GA","address":"3620 PEACHTREE PKWY","name":""},
  {"lat":33.712902,"lon":-112.278229,"city":"Peoria","state":"AZ","address":"10072 W HAPPY VALLEY RD","name":""},
  {"lat":33.640141,"lon":-112.174598,"city":"Glendale","state":"AZ","address":"5408 W BELL ROAD","name":""},
  {"lat":30.200895,"lon":-93.2262,"city":"Lake Charles","state":"LA","address":"538 W PRIEN LAKE RD","name":""},
  {"lat":31.324292,"lon":-89.378309,"city":"Hattiesburg","state":"MS","address":"6053 U S HIGHWAY 98","name":""},
  {"lat":29.787307,"lon":-95.716655,"city":"Houston","state":"TX","address":"1200 FRY RD","name":""},
  {"lat":29.774836,"lon":-95.8218,"city":"Katy","state":"TX","address":"25735 NELSON WAY","name":""},
  {"lat":33.377649,"lon":-111.809203,"city":"Gilbert","state":"AZ","address":"1121 E BASELINE RD","name":""},
  {"lat":42.924755,"lon":-76.607491,"city":"Auburn","state":"NY","address":"1628 CLARK STREET RD","name":""},
  {"lat":37.165636,"lon":-80.427632,"city":"Christiansburg","state":"VA","address":"782 NEW RIVER RD SUITE 300","name":""},
  {"lat":34.18007,"lon":-83.911393,"city":"Flowery Branch","state":"GA","address":"5851 SPOUT SPRINGS RD","name":""},
  {"lat":33.257188,"lon":-111.642791,"city":"Queen Creek","state":"AZ","address":"21058 S ELLSWORTH LOOP RD","name":""},
  {"lat":29.605697,"lon":-98.462282,"city":"San Antonio","state":"TX","address":"1950 N LOOP 1604 E","name":""},
  {"lat":33.304849,"lon":-111.758299,"city":"Gilbert","state":"AZ","address":"1497 E WILLIAMS FIELD RD","name":""},
  {"lat":29.736054,"lon":-95.584337,"city":"Houston","state":"TX","address":"11785 WESTHEIMER RD","name":""},
  {"lat":33.639487,"lon":-112.362277,"city":"Surprise","state":"AZ","address":"14020 W BELL RD","name":""},
  {"lat":42.157909,"lon":-76.860268,"city":"Horseheads","state":"NY","address":"1200 COUNTY ROUTE 64","name":""},
  {"lat":29.56365,"lon":-98.326468,"city":"Live Oak","state":"TX","address":"8098 AGORA PKWY","name":""},
  {"lat":29.797008,"lon":-94.978788,"city":"Baytown","state":"TX","address":"6520 GARTH ROAD","name":""},
  {"lat":29.692861,"lon":-95.775661,"city":"Richmond","state":"TX","address":"5550 W GRAND PKWY S","name":""},
  {"lat":33.551746,"lon":-112.257272,"city":"Glendale","state":"AZ","address":"9220 W NORTHERN AVE","name":""},
  {"lat":29.546692,"lon":-98.669513,"city":"San Antonio","state":"TX","address":"11781 BANDERA RD","name":""},
  {"lat":33.285847,"lon":-111.84363,"city":"Chandler","state":"AZ","address":"1430 S ARIZONA AVE","name":""},
  {"lat":34.075003,"lon":-83.909738,"city":"Dacula","state":"GA","address":"2270 HAMILTON CREEK PKWY","name":""},
  {"lat":33.605505,"lon":-112.413593,"city":"Surprise","state":"AZ","address":"13320 N PRASADA PARKWAY","name":""},
  {"lat":33.971972,"lon":-83.994431,"city":"Lawrenceville","state":"GA","address":"640 COLLINS HILL RD","name":""},
  {"lat":29.673758,"lon":-95.457305,"city":"Houston","state":"TX","address":"4730 W BELLFORT ST.","name":""},
  {"lat":33.302927,"lon":-111.982617,"city":"Phoenix","state":"AZ","address":"4637 E CHANDLER BLVD","name":""},
  {"lat":32.458114,"lon":-86.407815,"city":"Prattville","state":"AL","address":"1460 COTTON EXCHANGE","name":""},
  {"lat":36.148744,"lon":-81.191457,"city":"Wilkesboro","state":"NC","address":"1515 WINKLER MILL RD. EXT.","name":""},
  {"lat":43.187385,"lon":-76.251778,"city":"Liverpool","state":"NY","address":"3827 STATE ROUTE 31","name":""},
  {"lat":43.971326,"lon":-75.960657,"city":"Watertown","state":"NY","address":"21850 TOWNE CENTER DR","name":""},
  {"lat":33.399153,"lon":-84.740048,"city":"Newnan","state":"GA","address":"1140 BULLSBORO DR","name":""},
  {"lat":33.465104,"lon":-112.337316,"city":"Avondale","state":"AZ","address":"1611 N DYSART RD","name":""},
  {"lat":29.652622,"lon":-95.154773,"city":"Pasadena","state":"TX","address":"5555 FAIRMONT PKWY","name":""},
  {"lat":33.419418,"lon":-112.274354,"city":"Tolleson","state":"AZ","address":"3000 S 99TH AVE","name":""},
  {"lat":33.866674,"lon":-84.017622,"city":"Snellville","state":"GA","address":"2059 SCENIC HWY N","name":""},
  {"lat":29.434138,"lon":-98.707343,"city":"San Antonio","state":"TX","address":"10838 POTRANCO RD","name":""},
  {"lat":42.419856,"lon":-76.522774,"city":"Ithaca","state":"NY","address":"410 ELMIRA RD.","name":""},
  {"lat":35.052824,"lon":-114.5919,"city":"Bullhead City","state":"AZ","address":"3699 HIGHWAY 95","name":""},
  {"lat":29.571098,"lon":-95.57305,"city":"Missouri City","state":"TX","address":"5660 HIGHWAY 6","name":""},
  {"lat":29.546285,"lon":-95.757138,"city":"Rosenberg","state":"TX","address":"24934 COMMERCIAL DR","name":""},
  {"lat":29.554446,"lon":-95.380705,"city":"Pearland","state":"TX","address":"10318 BROADWAY ST","name":""},
  {"lat":37.22417,"lon":-79.965607,"city":"Roanoke","state":"VA","address":"4210 FRANKLIN RD","name":""},
  {"lat":33.478476,"lon":-84.44774,"city":"Fayetteville","state":"GA","address":"300 PAVILION PKWY","name":""},
  {"lat":30.157567,"lon":-92.052581,"city":"Lafayette","state":"LA","address":"4310 AMBASSADOR CAFFREY PKWY","name":""},
  {"lat":34.828946,"lon":-82.546438,"city":"Easley","state":"SC","address":"185 ROLLING HILLS CIRCLE","name":""},
  {"lat":29.554597,"lon":-95.157706,"city":"Friendswood","state":"TX","address":"18178 GULF FWY","name":""},
  {"lat":41.239057,"lon":-77.004162,"city":"Williamsport","state":"PA","address":"251 WILLIAM STREET","name":""},
  {"lat":33.543511,"lon":-84.285636,"city":"Stockbridge","state":"GA","address":"5005 MOUNT ZION PKWY","name":""},
  {"lat":38.423391,"lon":-78.839875,"city":"Harrisonburg","state":"VA","address":"2035 E MARKET ST STE 25","name":""},
  {"lat":30.376562,"lon":-91.05996,"city":"Baton Rouge","state":"LA","address":"10770 N MALL DR","name":""},
  {"lat":32.882367,"lon":-111.678271,"city":"Casa Grande","state":"AZ","address":"976 N MISSION PKWY","name":""},
  {"lat":32.357204,"lon":-86.161068,"city":"Montgomery","state":"AL","address":"2430 BERRYHILL RD","name":""},
  {"lat":34.942191,"lon":-82.263252,"city":"Greer","state":"SC","address":"1326 W. WADE HAMPTON BLVD","name":""},
  {"lat":44.081669,"lon":-121.303441,"city":"Bend","state":"OR","address":"3188 N US HWY 97 STE 150","name":""},
  {"lat":33.64674,"lon":-83.992117,"city":"Conyers","state":"GA","address":"1630 DOGWOOD DR SE","name":""},
  {"lat":29.468077,"lon":-95.095518,"city":"League City","state":"TX","address":"2825 GULF FWY S","name":""},
  {"lat":43.035812,"lon":-76.018337,"city":"Fayetteville","state":"NY","address":"100 TOWNE DR","name":""},
  {"lat":39.942011,"lon":-77.628095,"city":"Chambersburg","state":"PA","address":"955 NORLAND AVE","name":""},
  {"lat":39.15997,"lon":-78.16796,"city":"Winchester","state":"VA","address":"2194 S PLEASANT VALLEY RD","name":""},
  {"lat":35.699778,"lon":-81.307103,"city":"Hickory","state":"NC","address":"1920 CATAWBA VALLEY BLVD SE","name":""},
  {"lat":34.552189,"lon":-82.67484,"city":"Anderson","state":"SC","address":"130 FRITZ DR","name":""},
  {"lat":34.824797,"lon":-82.287351,"city":"Greenville","state":"SC","address":"1219 WOODRUFF RD","name":""},
  {"lat":39.621327,"lon":-77.776122,"city":"Hagerstown","state":"MD","address":"17145 COLE ROAD","name":""},
  {"lat":32.348633,"lon":-110.977674,"city":"Oro Valley","state":"AZ","address":"7785 N ORACLE RD","name":""},
  {"lat":33.420796,"lon":-84.191149,"city":"McDonough","state":"GA","address":"1570 HWY 20 W","name":""},
  {"lat":38.05534,"lon":-78.945066,"city":"Waynesboro","state":"VA","address":"841 TOWN CENTER DR","name":""},
  {"lat":33.922034,"lon":-83.443846,"city":"Athens","state":"GA","address":"1991 EPPS BRIDGE PKWY","name":""},
  {"lat":32.223689,"lon":-110.826421,"city":"Tucson","state":"AZ","address":"199 N PANTANO RD","name":""},
  {"lat":47.945027,"lon":-122.107948,"city":"Snohomish","state":"WA","address":"2909 BICKFORD AVE","name":""},
  {"lat":47.674173,"lon":-122.104713,"city":"Redmond","state":"WA","address":"17601 NE UNION HILL RD","name":""},
  {"lat":32.354642,"lon":-111.090005,"city":"Tucson","state":"AZ","address":"5850 W ARIZONA PAVILLIONS DR","name":""},
  {"lat":32.615435,"lon":-85.409872,"city":"Opelika","state":"AL","address":"2774 ENTERPRISE DR","name":""},
  {"lat":47.3596,"lon":-122.113361,"city":"Covington","state":"WA","address":"17002 SE 270TH PL","name":""},
  {"lat":34.937057,"lon":-81.999303,"city":"Spartanburg","state":"SC","address":"7600 WARREN H ABERNATHY HWY","name":""},
  {"lat":34.714965,"lon":-82.254765,"city":"Simpsonville","state":"SC","address":"621 FAIRVIEW ROAD STE A","name":""},
  {"lat":48.102233,"lon":-122.183029,"city":"Marysville","state":"WA","address":"3713 116TH STREET NE","name":""},
  {"lat":39.323795,"lon":-77.849771,"city":"Ranson","state":"WV","address":"260 W VIRGINIA WAY","name":""},
  {"lat":47.16835,"lon":-122.160601,"city":"Bonney Lake","state":"WA","address":"20025 WA-410 E","name":""},
  {"lat":30.446547,"lon":-90.129788,"city":"Covington","state":"LA","address":"6103 PINNACLE PARKWAY","name":""},
  {"lat":40.840868,"lon":-76.836959,"city":"Selinsgrove","state":"PA","address":"405 MARKETPLACE BLVD","name":""},
  {"lat":47.831452,"lon":-122.266062,"city":"Lynnwood","state":"WA","address":"18405 ALDERWOOD MALL PKWY","name":""},
  {"lat":47.450079,"lon":-122.258111,"city":"Tukwila","state":"WA","address":"17150 SOUTHCENTER PKWY","name":""},
  {"lat":40.193967,"lon":-77.158402,"city":"Carlisle","state":"PA","address":"226 WESTMINSTER DR","name":""},
  {"lat":47.31322,"lon":-122.306534,"city":"Federal Way","state":"WA","address":"2101 S. COMMONS WAY","name":""},
  {"lat":47.102327,"lon":-122.297567,"city":"Puyallup","state":"WA","address":"16918 MERIDIAN AVENUE EAST","name":""},
  {"lat":48.449809,"lon":-122.336245,"city":"Burlington","state":"WA","address":"1942 MARKETPLACE DR","name":""},
  {"lat":40.248102,"lon":-77.011645,"city":"Mechanicsburg","state":"PA","address":"6444 CARLISLE PIKE","name":""},
  {"lat":42.095412,"lon":-75.996574,"city":"Vestal","state":"NY","address":"3208 VESTAL PKWY E","name":""},
  {"lat":37.343607,"lon":-79.193824,"city":"Lynchburg","state":"VA","address":"225 SIMONS RUN STE A","name":""},
  {"lat":47.217911,"lon":-122.465986,"city":"Tacoma","state":"WA","address":"4502 S. STEELE ST., SUITE 1650","name":""},
  {"lat":35.594165,"lon":-80.855077,"city":"Mooresville","state":"NC","address":"350 W PLAZA DR STE A","name":""},
  {"lat":38.125256,"lon":-78.446617,"city":"Charlottesville","state":"VA","address":"396 TOWN CENTER DRIVE","name":""},
  {"lat":29.046698,"lon":-95.464348,"city":"Lake Jackson","state":"TX","address":"201 HIGHWAY 332 W","name":""},
  {"lat":48.787139,"lon":-122.490784,"city":"Bellingham","state":"WA","address":"40 BELLIS FAIR PKWY","name":""},
  {"lat":36.068563,"lon":-80.317655,"city":"Winston-Salem","state":"NC","address":"1010 HANES MALL BLVD","name":""},
  {"lat":32.544755,"lon":-84.943441,"city":"Columbus","state":"GA","address":"5550 WHITTLESEY BLVD","name":""},
  {"lat":28.877644,"lon":-96.999619,"city":"Victoria","state":"TX","address":"8905 N NAVARRO ST","name":""},
  {"lat":39.397536,"lon":-77.413357,"city":"Frederick","state":"MD","address":"7350 GUILFORD DR","name":""},
  {"lat":40.309248,"lon":-76.798557,"city":"Harrisburg","state":"PA","address":"5125 JONESTOWN RD","name":""},
  {"lat":35.259483,"lon":-81.115643,"city":"Gastonia","state":"NC","address":"3648 E FRANKLIN BLVD","name":""},
  {"lat":47.303627,"lon":-122.577287,"city":"Gig Harbor","state":"WA","address":"4929 POINT FOSDICK DRIVE NW","name":""},
  {"lat":30.26504,"lon":-89.758758,"city":"Slidell","state":"LA","address":"310 TOWN CENTER PARKWAY","name":""},
  {"lat":39.582688,"lon":-119.746809,"city":"Sparks","state":"NV","address":"5035 PYRAMID LAKE RD","name":""},
  {"lat":35.445947,"lon":-80.862513,"city":"Huntersville","state":"NC","address":"9743 SAM FURR RD","name":""},
  {"lat":39.115984,"lon":-77.537042,"city":"Leesburg","state":"VA","address":"1040 EDWARDS FERRY RD NE","name":""},
  {"lat":43.090951,"lon":-75.316984,"city":"New Hartford","state":"NY","address":"8625 CLINTON ST","name":""},
  {"lat":36.109674,"lon":-80.105343,"city":"Kernersville","state":"NC","address":"224 HARMON CREEK RD","name":""},
  {"lat":38.479701,"lon":-77.977412,"city":"Culpeper","state":"VA","address":"791 NALLES MILL RD","name":""},
  {"lat":47.657677,"lon":-122.690612,"city":"Silverdale","state":"WA","address":"10315 SILVERDALE WAY NW, #Q01","name":""},
  {"lat":45.529613,"lon":-122.431367,"city":"Wood Village","state":"OR","address":"22557 NE PARK LN","name":""},
  {"lat":39.826951,"lon":-76.983928,"city":"Hanover","state":"PA","address":"360 EISENHOWER DR","name":""},
  {"lat":45.616322,"lon":-122.496657,"city":"Vancouver","state":"WA","address":"17001 SE MILL PLAIN BLVD","name":""},
  {"lat":39.417784,"lon":-119.755259,"city":"Reno","state":"NV","address":"70 DAMONTE RANCH PKWY","name":""},
  {"lat":38.817837,"lon":-77.643689,"city":"Haymarket","state":"VA","address":"6490 TRADING SQUARE","name":""},
  {"lat":34.203287,"lon":-82.19235,"city":"Greenwood","state":"SC","address":"259 HOSPITALITY BLVD","name":""},
  {"lat":35.638743,"lon":-80.489483,"city":"Salisbury","state":"NC","address":"1395 KLUMAC RD","name":""},
  {"lat":30.453607,"lon":-88.902406,"city":"D'Iberville","state":"MS","address":"3901 PROMENADE PKWY","name":""},
  {"lat":39.531427,"lon":-119.866279,"city":"Reno","state":"NV","address":"5150 MAE ANNE AVE, #100","name":""},
  {"lat":35.373926,"lon":-80.733741,"city":"Concord","state":"NC","address":"8875 CHRISTENBURY PKWY","name":""},
  {"lat":39.972252,"lon":-76.770509,"city":"York","state":"PA","address":"200 TOWN CENTER DRIVE","name":""},
  {"lat":30.672659,"lon":-88.224184,"city":"Mobile","state":"AL","address":"845 SCHILLINGER RD S","name":""},
  {"lat":39.028038,"lon":-77.389412,"city":"Sterling","state":"VA","address":"21245 SIGNAL HILL PLZ","name":""},
  {"lat":35.460888,"lon":-80.594061,"city":"Kannapolis","state":"NC","address":"2450 SUPER CENTER DR NE","name":""},
  {"lat":28.704112,"lon":-100.482519,"city":"Eagle Pass","state":"TX","address":"414 S BIBB AVE","name":""},
  {"lat":45.432092,"lon":-122.575199,"city":"Clackamas","state":"OR","address":"8500 SE SUNNYSIDE RD","name":""},
  {"lat":39.200575,"lon":-77.251471,"city":"Germantown","state":"MD","address":"20918 FREDERICK RD","name":""},
  {"lat":35.097706,"lon":-80.987366,"city":"Charlotte","state":"NC","address":"13610 HOOVER CREEK BLVD","name":""},
  {"lat":47.042258,"lon":-122.836459,"city":"Lacey","state":"WA","address":"681 SLEATER KINNEY RD SE, #1000","name":""},
  {"lat":38.805153,"lon":-77.521561,"city":"Manassas","state":"VA","address":"11190 BULLOCH DR","name":""},
  {"lat":36.119892,"lon":-79.845159,"city":"Greensboro","state":"NC","address":"3315 BATTLEGROUND AVE","name":""},
  {"lat":39.563525,"lon":-76.965518,"city":"Westminster","state":"MD","address":"840 MARKET ST","name":""},
  {"lat":36.057984,"lon":-79.907428,"city":"Greensboro","state":"NC","address":"1210 BRIDFORD PKWY UNIT A","name":""},
  {"lat":45.688946,"lon":-122.668492,"city":"Vancouver","state":"WA","address":"9312 NE 5TH AVE","name":""},
  {"lat":39.988504,"lon":-76.681155,"city":"York","state":"PA","address":"2600 PLEASANT VALLEY RD","name":""},
  {"lat":40.319553,"lon":-76.426932,"city":"Lebanon","state":"PA","address":"1261 QUENTIN RD","name":""},
  {"lat":39.131663,"lon":-119.767757,"city":"Carson City","state":"NV","address":"3871 SOUTH CARSON STREET","name":""},
  {"lat":40.705015,"lon":-76.189667,"city":"Pottsville","state":"PA","address":"7211 FAIRLANE VILLAGE MALL","name":""},
  {"lat":39.118121,"lon":-77.203958,"city":"Gaithersburg","state":"MD","address":"9871 WASHINGTONIAN BLVD","name":""},
  {"lat":38.857172,"lon":-77.379635,"city":"Fairfax","state":"VA","address":"12551 FAIR LAKES CIR","name":""},
  {"lat":41.232482,"lon":-75.864107,"city":"Wilkes-Barre","state":"PA","address":"445 WILKES BARRE TOWNSHIP BLVD","name":""},
  {"lat":32.884266,"lon":-83.767217,"city":"Macon","state":"GA","address":"6275 ZEBULON RD","name":""},
  {"lat":39.410427,"lon":-76.946482,"city":"Eldersburg","state":"MD","address":"1324 LONDONTOWN BLVD","name":""},
  {"lat":34.943579,"lon":-80.959099,"city":"Rock Hill","state":"SC","address":"1522 MEETING BLVD","name":""},
  {"lat":45.493345,"lon":-122.790281,"city":"Beaverton","state":"OR","address":"11055 SW CANYON RD","name":""},
  {"lat":35.137038,"lon":-80.71122,"city":"Matthews","state":"NC","address":"9617 E INDEPENDENCE BLVD","name":""},
  {"lat":38.799462,"lon":-77.316827,"city":"Burke","state":"VA","address":"5793 BURKE CENTRE PKWY","name":""},
  {"lat":41.469646,"lon":-75.635174,"city":"Dickson City","state":"PA","address":"3907 EAST COMMERCE BOULEVARD","name":""},
  {"lat":35.01685,"lon":-80.801215,"city":"Waxhaw","state":"NC","address":"601 SHERMAN PLACE","name":""},
  {"lat":39.080902,"lon":-77.079291,"city":"Silver Spring","state":"MD","address":"3901 ASPEN HILL ROAD","name":""},
  {"lat":45.364896,"lon":-122.849423,"city":"Sherwood","state":"OR","address":"16685 SW 12TH ST.","name":""},
  {"lat":45.535334,"lon":-122.90086,"city":"Hillsboro","state":"OR","address":"7360 NE BUTLER ST","name":""},
  {"lat":40.067408,"lon":-76.339956,"city":"Lancaster","state":"PA","address":"1135 PARK CITY CTR","name":""},
  {"lat":38.656147,"lon":-77.302466,"city":"Woodbridge","state":"VA","address":"13725 FOULGER SQ","name":""},
  {"lat":38.471858,"lon":-77.40847,"city":"Fredericksburg","state":"VA","address":"1220 STAFFORD MARKET PL","name":""},
  {"lat":36.07004,"lon":-79.514516,"city":"Burlington","state":"NC","address":"1361 BOONE STATION DRIVE","name":""},
  {"lat":39.253215,"lon":-76.820378,"city":"Ellicott City","state":"MD","address":"4320 MONTGOMERY RD","name":""},
  {"lat":39.05397,"lon":-76.956925,"city":"Silver Spring","state":"MD","address":"12024 CHERRY HILL RD","name":""},
  {"lat":38.30373,"lon":-77.505506,"city":"Fredericksburg","state":"VA","address":"1571 CARL D SILVER PKWY","name":""},
  {"lat":38.770489,"lon":-77.133596,"city":"Alexandria","state":"VA","address":"5701 KINGSTOWNE BLVD","name":""},
  {"lat":39.430663,"lon":-76.624844,"city":"Timonium","state":"MD","address":"50 W RIDGELY RD","name":""},
  {"lat":38.21875,"lon":-77.502997,"city":"Fredericksburg","state":"VA","address":"9683 JEFFERSON DAVIS HWY","name":""},
  {"lat":40.023952,"lon":-76.208752,"city":"Lancaster","state":"PA","address":"2350 LINCOLN HWY E","name":""},
  {"lat":32.619136,"lon":-83.693508,"city":"Warner Robins","state":"GA","address":"3050 WATSON BLVD","name":""},
  {"lat":40.356371,"lon":-75.986054,"city":"Wyomissing","state":"PA","address":"2700 PAPER MILL ROAD","name":""},
  {"lat":39.095366,"lon":-76.806318,"city":"Laurel","state":"MD","address":"3323 CORRIDOR MARKETPLACE","name":""},
  {"lat":44.943847,"lon":-123.035794,"city":"Salem","state":"OR","address":"450 MARION ST NE","name":""},
  {"lat":39.570142,"lon":-76.383345,"city":"Forest Hill","state":"MD","address":"50 OSBORN PARKWAY","name":""},
  {"lat":39.147024,"lon":-76.650115,"city":"Severn","state":"MD","address":"418 GEORGE CLAUS BLVD","name":""},
  {"lat":33.528352,"lon":-82.118826,"city":"Evans","state":"GA","address":"4227 WASHINGTON RD","name":""},
  {"lat":44.63968,"lon":-123.064172,"city":"Albany","state":"OR","address":"410 AIRPORT RD SE","name":""},
  {"lat":38.948212,"lon":-76.722018,"city":"Bowie","state":"MD","address":"4200 MITCHELLVILLE RD","name":""},
  {"lat":39.334852,"lon":-76.445976,"city":"Middle River","state":"MD","address":"1420 MARTIN BLVD","name":""},
  {"lat":39.497165,"lon":-76.325876,"city":"Bel Air","state":"MD","address":"5K BEL AIR SOUTH PKWY","name":""},
  {"lat":30.530011,"lon":-87.227153,"city":"Pensacola","state":"FL","address":"9300 BALDRIDGE RD","name":""},
  {"lat":38.618432,"lon":-76.924446,"city":"Waldorf","state":"MD","address":"11120 MALL CIR","name":""},
  {"lat":39.076605,"lon":-76.543682,"city":"Severna Park","state":"MD","address":"575 RITCHIE HWY","name":""},
  {"lat":40.550634,"lon":-75.591177,"city":"Trexlertown","state":"PA","address":"6900 HAMILTON BLVD","name":""},
  {"lat":37.651763,"lon":-77.602236,"city":"Glen Allen","state":"VA","address":"11240 W BROAD ST","name":""},
  {"lat":40.636455,"lon":-75.483081,"city":"Whitehall","state":"PA","address":"2010 WHITEHALL MALL","name":""},
  {"lat":44.074902,"lon":-123.044197,"city":"Springfield","state":"OR","address":"2950 GATEWAY ST","name":""},
  {"lat":41.001002,"lon":-75.264882,"city":"Bartonsville","state":"PA","address":"5045 WINDSOR DR.","name":""},
  {"lat":38.979622,"lon":-76.53672,"city":"Annapolis","state":"MD","address":"260 SOLOMONS ISLAND RD","name":""},
  {"lat":31.264543,"lon":-85.443843,"city":"Dothan","state":"AL","address":"4401 MONTGOMERY HWY, STE 200","name":""},
  {"lat":34.065597,"lon":-81.168003,"city":"Columbia","state":"SC","address":"120 HARBISON BLVD","name":""},
  {"lat":34.000868,"lon":-81.216597,"city":"Lexington","state":"SC","address":"5440 SUNSET BLVD","name":""},
  {"lat":37.503436,"lon":-77.605876,"city":"Richmond","state":"VA","address":"11331 MIDLOTHIAN TPKE","name":""},
  {"lat":39.996522,"lon":-75.755291,"city":"Thorndale","state":"PA","address":"3455 LINCOLN HWY","name":""},
  {"lat":35.949026,"lon":-78.991212,"city":"Durham","state":"NC","address":"5241 MCFARLAND RD","name":""},
  {"lat":37.421328,"lon":-77.631955,"city":"Midlothian","state":"VA","address":"4701 COMMONWEALTH CENTRE PKWY","name":""},
  {"lat":42.963925,"lon":-74.1906,"city":"Amsterdam","state":"NY","address":"120 AMSTERDAM COMMONS","name":""},
  {"lat":40.716667,"lon":-75.283117,"city":"Easton","state":"PA","address":"3768 EASTON NAZARETH HWY","name":""},
  {"lat":40.02796,"lon":-75.634447,"city":"Exton","state":"PA","address":"229 W LINCOLN HWY","name":""},
  {"lat":40.195563,"lon":-75.528944,"city":"Royersford","state":"PA","address":"989 TOWNSHIP LINE RD","name":""},
  {"lat":40.445574,"lon":-75.362934,"city":"Quakertown","state":"PA","address":"200 N WEST END BLVD","name":""},
  {"lat":34.116273,"lon":-80.881166,"city":"Columbia","state":"SC","address":"10136 TWO NOTCH RD STE 108","name":""},
  {"lat":37.606946,"lon":-77.353852,"city":"Mechanicsville","state":"VA","address":"7390 BELL CREEK RD","name":""},
  {"lat":44.702568,"lon":-73.491164,"city":"Plattsburgh","state":"NY","address":"60 SMITHFIELD BLVD, SUITE 103","name":""},
  {"lat":40.684996,"lon":-75.154173,"city":"Phillipsburg","state":"NJ","address":"1200 US HIGHWAY 22","name":""},
  {"lat":30.448212,"lon":-86.640089,"city":"Fort Walton Beach","state":"FL","address":"800 N BEAL PKWY","name":""},
  {"lat":35.91354,"lon":-78.779562,"city":"Raleigh","state":"NC","address":"7822 ALEXANDER PROMENADE PL","name":""},
  {"lat":39.60305,"lon":-75.765639,"city":"Newark","state":"DE","address":"2800 PULASKI HWY","name":""},
  {"lat":39.726841,"lon":-75.654539,"city":"Wilmington","state":"DE","address":"4437 KIRKWOOD HWY","name":""},
  {"lat":37.353309,"lon":-77.416586,"city":"Chester","state":"VA","address":"2701 W HUNDRED RD","name":""},
  {"lat":40.262857,"lon":-75.314433,"city":"Lansdale","state":"PA","address":"2333 W MAIN ST","name":""},
  {"lat":35.746997,"lon":-78.881572,"city":"Apex","state":"NC","address":"1301 BEAVER CREEK COMMONS DR","name":""},
  {"lat":39.820875,"lon":-75.549323,"city":"Wilmington","state":"DE","address":"401 ROCKY RUN PKWY","name":""},
  {"lat":31.619948,"lon":-84.206964,"city":"Albany","state":"GA","address":"2813 NOTTINGHAM WAY","name":""},
  {"lat":35.171869,"lon":-79.420981,"city":"Southern Pines","state":"NC","address":"190 BRUCEWOOD ROAD","name":""},
  {"lat":40.167292,"lon":-75.287199,"city":"Blue Bell","state":"PA","address":"1301 SKIPPACK PIKE","name":""},
  {"lat":39.916798,"lon":-75.430499,"city":"Media","state":"PA","address":"1017 W BALTIMORE PIKE","name":""},
  {"lat":39.447971,"lon":-75.73406,"city":"Middletown","state":"DE","address":"601 S RIDGE AVE","name":""},
  {"lat":41.068269,"lon":-74.751812,"city":"Newton","state":"NJ","address":"11 N PARK DR","name":""},
  {"lat":35.986799,"lon":-78.530413,"city":"Wake Forest","state":"NC","address":"12620 CAPITAL BLVD","name":""},
  {"lat":42.345668,"lon":-122.878079,"city":"Medford","state":"OR","address":"1900 N RIVERSIDE AVE","name":""},
  {"lat":35.904649,"lon":-78.600946,"city":"Raleigh","state":"NC","address":"9600 FALLS OF NEUSE RD","name":""},
  {"lat":35.754123,"lon":-78.745672,"city":"Cary","state":"NC","address":"2350 WALNUT ST","name":""},
  {"lat":40.818998,"lon":-74.840397,"city":"Hackettstown","state":"NJ","address":"1875 STATE ROUTE 57","name":""},
  {"lat":43.095288,"lon":-73.745763,"city":"Saratoga Springs","state":"NY","address":"79 WEIBEL AVE","name":""},
  {"lat":27.686116,"lon":-97.381475,"city":"Corpus Christi","state":"TX","address":"5626 SARATOGA BLVD","name":""},
  {"lat":32.703859,"lon":-114.608717,"city":"Yuma","state":"AZ","address":"1350 S CASTLE DOME AVE","name":""},
  {"lat":38.284038,"lon":-76.479624,"city":"Lexington Park","state":"MD","address":"46240 LEXINGTON VILLAGE WAY","name":""},
  {"lat":40.273106,"lon":-75.126626,"city":"Doylestown","state":"PA","address":"1745 S EASTON RD","name":""},
  {"lat":39.968414,"lon":-75.298396,"city":"Havertown","state":"PA","address":"250 W CHESTER PIKE","name":""},
  {"lat":39.917393,"lon":-75.32983,"city":"Morton","state":"PA","address":"405 BALTIMORE PIKE","name":""},
  {"lat":40.062807,"lon":-75.235298,"city":"Philadelphia","state":"PA","address":"8500 HENRY AVE","name":""},
  {"lat":42.729667,"lon":-73.848996,"city":"Albany","state":"NY","address":"1814 CENTRAL AVE","name":""},
  {"lat":38.782297,"lon":-76.079982,"city":"Easton","state":"MD","address":"207 MARLBORO ROAD","name":""},
  {"lat":42.861144,"lon":-73.771918,"city":"Clifton Park","state":"NY","address":"54 CROSSING BLVD","name":""},
  {"lat":44.464954,"lon":-73.183743,"city":"South Burlington","state":"VT","address":"155 DORSET ST","name":""},
  {"lat":40.208647,"lon":-75.106983,"city":"Warminster","state":"PA","address":"918 WEST STREET RD","name":""},
  {"lat":35.593635,"lon":-78.763737,"city":"Fuquay-Varina","state":"NC","address":"640 LAKESTONE COMMONS AVE","name":""},
  {"lat":37.975935,"lon":-120.341839,"city":"Sonora","state":"CA","address":"13777 MONO WAY","name":""},
  {"lat":41.454997,"lon":-74.378724,"city":"Middletown","state":"NY","address":"470 ROUTE 211 E","name":""},
  {"lat":35.799545,"lon":-78.512303,"city":"Knightdale","state":"NC","address":"302 HINTON OAKS BLVD","name":""},
  {"lat":40.869473,"lon":-74.646495,"city":"Succasunna","state":"NJ","address":"275 STATE ROUTE 10 E","name":""},
  {"lat":40.505905,"lon":-74.849017,"city":"Flemington","state":"NJ","address":"325 US HWY 202","name":""},
  {"lat":35.693455,"lon":-78.580048,"city":"Garner","state":"NC","address":"185 SHENSTONE LN","name":""},
  {"lat":27.54972,"lon":-99.508084,"city":"Laredo","state":"TX","address":"5219 SANTA MARIA AVE","name":""},
  {"lat":41.958749,"lon":-73.986536,"city":"Kingston","state":"NY","address":"800 MIRON LN","name":""},
  {"lat":33.795492,"lon":-116.384899,"city":"Palm Desert","state":"CA","address":"34940 MONTEREY AVE","name":""},
  {"lat":39.788455,"lon":-75.179162,"city":"Mantua","state":"NJ","address":"300 BRIDGETON PIKE","name":""},
  {"lat":33.711873,"lon":-116.287487,"city":"La Quinta","state":"CA","address":"78950 HIGHWAY 111","name":""},
  {"lat":40.104017,"lon":-74.946998,"city":"Bensalem","state":"PA","address":"2325 STREET RD","name":""},
  {"lat":39.73098,"lon":-121.811242,"city":"Chico","state":"CA","address":"1505 SPRINGFIELD DR","name":""},
  {"lat":39.937376,"lon":-75.025682,"city":"Cherry Hill","state":"NJ","address":"2133 ROUTE 38","name":""},
  {"lat":40.196467,"lon":-74.864145,"city":"Yardley","state":"PA","address":"1641 BIG OAK RD","name":""},
  {"lat":39.172649,"lon":-75.518025,"city":"Dover","state":"DE","address":"299 N DUPONT HWY","name":""},
  {"lat":42.281451,"lon":-73.750911,"city":"Hudson","state":"NY","address":"488 FAIRVIEW AVE.","name":""},
  {"lat":40.592266,"lon":-122.354266,"city":"Redding","state":"CA","address":"895 BROWNING ST","name":""},
  {"lat":40.843883,"lon":-74.467034,"city":"Morris Plains","state":"NJ","address":"1711 STATE ROUTE 10 E","name":""},
  {"lat":40.518353,"lon":-74.626096,"city":"Hillsborough","state":"NJ","address":"315 ROUTE 206","name":""},
  {"lat":38.672172,"lon":-121.167638,"city":"Folsom","state":"CA","address":"1013 RILEY ST","name":""},
  {"lat":41.498482,"lon":-74.066547,"city":"Newburgh","state":"NY","address":"150 OLD LTLL BRITAIN RD","name":""},
  {"lat":39.76137,"lon":-75.051441,"city":"Turnersville","state":"NJ","address":"5851 ROUTE 42","name":""},
  {"lat":34.468151,"lon":-117.353384,"city":"Victorville","state":"CA","address":"14305 BEAR VALLEY RD","name":""},
  {"lat":36.806724,"lon":-119.69714,"city":"Clovis","state":"CA","address":"1000 SHAW AVENUE","name":""},
  {"lat":35.064282,"lon":-78.957284,"city":"Fayetteville","state":"NC","address":"255 GLENSFORD DR","name":""},
  {"lat":36.078645,"lon":-119.045083,"city":"Porterville","state":"CA","address":"1275 WEST HENDERSON AVENUE","name":""},
  {"lat":38.789142,"lon":-121.286776,"city":"Roseville","state":"CA","address":"10375 FAIRWAY DR","name":""},
  {"lat":41.312392,"lon":-74.132621,"city":"Central Valley","state":"NY","address":"43 CENTRE DR","name":""},
  {"lat":39.896185,"lon":-74.931345,"city":"Marlton","state":"NJ","address":"301 ROUTE 70 WEST","name":""},
  {"lat":36.843282,"lon":-119.78605,"city":"Fresno","state":"CA","address":"175 E ALLUVIAL AVE","name":""},
  {"lat":40.032699,"lon":-74.822693,"city":"Westampton","state":"NJ","address":"2703 County Rd 541","name":""},
  {"lat":36.311831,"lon":-119.310799,"city":"Visalia","state":"CA","address":"2208 S MOONEY BLVD","name":""},
  {"lat":40.945375,"lon":-74.271301,"city":"Wayne","state":"NJ","address":"1800 ROUTE 23","name":""},
  {"lat":39.824866,"lon":-74.930059,"city":"Voorhees","state":"NJ","address":"79 ROUTE 73 STE #3","name":""},
  {"lat":41.613401,"lon":-73.911162,"city":"Wappingers Falls","state":"NY","address":"1830 ROUTE 9","name":""},
  {"lat":34.188653,"lon":-79.839065,"city":"Florence","state":"SC","address":"3041 W RADIO DR","name":""},
  {"lat":38.676499,"lon":-121.294286,"city":"Citrus Heights","state":"CA","address":"6135 SAN JUAN AVE","name":""},
  {"lat":40.651101,"lon":-74.407723,"city":"Watchung","state":"NJ","address":"1701-12 US 22","name":""},
  {"lat":39.135052,"lon":-121.63851,"city":"Yuba City","state":"CA","address":"1480 SUNSWEET BLVD","name":""},
  {"lat":38.702251,"lon":-121.347194,"city":"Antelope","state":"CA","address":"5030 ANTELOPE RD","name":""},
  {"lat":41.072452,"lon":-74.138753,"city":"Ramsey","state":"NJ","address":"1300 STATE RT 17","name":""},
  {"lat":40.194646,"lon":-74.63962,"city":"Trenton","state":"NJ","address":"460 MARKETPLACE BLVD","name":""},
  {"lat":40.551531,"lon":-74.427465,"city":"South Plainfield","state":"NJ","address":"4971 STELTON RD","name":""},
  {"lat":36.805852,"lon":-119.861451,"city":"Fresno","state":"CA","address":"3699 W SHAW AVE","name":""},
  {"lat":40.884217,"lon":-74.209036,"city":"Woodland Park","state":"NJ","address":"1710 ROUTE 46 W","name":""},
  {"lat":33.922199,"lon":-116.957423,"city":"Beaumont","state":"CA","address":"1479 E 2ND ST","name":""},
  {"lat":40.453915,"lon":-74.401813,"city":"East Brunswick","state":"NJ","address":"333 HIGHWAY 18","name":""},
  {"lat":39.420617,"lon":-75.041949,"city":"Millville","state":"NJ","address":"2102 N 2ND ST","name":""},
  {"lat":32.768101,"lon":-115.527213,"city":"El Centro","state":"CA","address":"808 E. DANENBERG DR.","name":""},
  {"lat":34.073322,"lon":-117.202656,"city":"Redlands","state":"CA","address":"27540 LUGONIA AVE","name":""},
  {"lat":41.09539,"lon":-74.002285,"city":"Nanuet","state":"NY","address":"220 E ROUTE 59","name":""},
  {"lat":40.82939,"lon":-74.142922,"city":"Clifton","state":"NJ","address":"14 MAIN AVE","name":""},
  {"lat":30.195014,"lon":-85.648786,"city":"Panama City","state":"FL","address":"2610 HIGHWAY 77","name":""},
  {"lat":41.307101,"lon":-73.878109,"city":"Cortlandt Manor","state":"NY","address":"3008 E MAIN ST","name":""},
  {"lat":40.643691,"lon":-74.228949,"city":"Linden","state":"NJ","address":"1900 E LINDEN AVE","name":""},