{"key":"kroger","displayName":"Kroger","category":"grocery","useLocationName":false,"locations":[
  {"lat":38.59402,"lon":-92.225073,"city":"Jefferson City","state":"MO","address":"2805 W Truman Blvd","name":""},
  {"lat":38.594173,"lon":-92.224823,"city":"Jefferson City","state":"MO","address":"2805 W Truman Blvd","name":""},
  {"lat":38.59402,"lon":-92.225073,"city":"Jefferson City","state":"MO","address":"2805 W Truman Blvd","name":""},
  {"lat":38.548571,"lon":-92.147295,"city":"Jefferson City","state":"MO","address":"2101 Schotthill Woods Dr","name":""},
  {"lat":38.548643,"lon":-92.147337,"city":"Jefferson City","state":"MO","address":"2101 Schotthill Woods Dr","name":""},
  {"lat":38.34994,"lon":-92.57697,"city":"Eldon","state":"MO","address":"410 E North St","name":""},
  {"lat":38.349901,"lon":-92.576967,"city":"Eldon","state":"MO","address":"410 E North St","name":""},
  {"lat":38.021056,"lon":-92.729693,"city":"Camdenton","state":"MO","address":"1159 E Us Highway 54","name":""},
  {"lat":38.021021,"lon":-92.729686,"city":"Camdenton","state":"MO","address":"1159 E Us Highway 54","name":""},
  {"lat":38.021056,"lon":-92.729693,"city":"Camdenton","state":"MO","address":"1159 E Us Highway 54","name":""},
  {"lat":38.956038,"lon":-92.364395,"city":"Columbia","state":"MO","address":"1729 W Broadway","name":""},
  {"lat":38.956034,"lon":-92.364352,"city":"Columbia","state":"MO","address":"1729 W Broadway","name":""},
  {"lat":38.956038,"lon":-92.364395,"city":"Columbia","state":"MO","address":"1729 W Broadway","name":""},
  {"lat":38.979456,"lon":-92.293351,"city":"Columbia","state":"MO","address":"2900 Paris Rd","name":""},
  {"lat":38.979456,"lon":-92.293352,"city":"Columbia","state":"MO","address":"2900 Paris Rd","name":""},
  {"lat":38.979456,"lon":-92.293351,"city":"Columbia","state":"MO","address":"2900 Paris Rd","name":""},
  {"lat":47.374225,"lon":-122.298152,"city":"Kent","state":"WA","address":"25250 Pacific Hwy S","name":""},
  {"lat":47.374225,"lon":-122.298152,"city":"Kent","state":"WA","address":"25250 Pacific Hwy S","name":""},
  {"lat":47.374225,"lon":-122.298152,"city":"Kent","state":"WA","address":"25250 Pacific Hwy S","name":""},
  {"lat":47.652637,"lon":-117.361702,"city":"Spokane","state":"WA","address":"3427 East 5th Avenue","name":""},
  {"lat":47.65253,"lon":-117.362216,"city":"Spokane","state":"WA","address":"400 S Thor St","name":""},
  {"lat":47.65253,"lon":-117.362216,"city":"Spokane","state":"WA","address":"400 S Thor St","name":""},
  {"lat":58.359486,"lon":-134.561529,"city":"Juneau","state":"AK","address":"8181 Glacier Hwy","name":""},
  {"lat":58.359486,"lon":-134.561529,"city":"Juneau","state":"AK","address":"8181 Glacier Hwy","name":""},
  {"lat":58.359486,"lon":-134.561529,"city":"Juneau","state":"AK","address":"8181 Glacier Hwy","name":""},
  {"lat":43.645533,"lon":-116.276406,"city":"Garden City","state":"ID","address":"5425 W Chinden Blvd","name":""},
  {"lat":43.645533,"lon":-116.276406,"city":"Garden City","state":"ID","address":"5425 W Chinden Blvd","name":""},
  {"lat":43.645533,"lon":-116.276406,"city":"Garden City","state":"ID","address":"5425 W Chinden Blvd","name":""},
  {"lat":34.034446,"lon":-117.7477,"city":"Pomona","state":"CA","address":"2090 S Garey Ave","name":""},
  {"lat":34.034446,"lon":-117.7477,"city":"Pomona","state":"CA","address":"2090 S Garey Ave","name":""},
  {"lat":34.052139,"lon":-117.944319,"city":"La Puente","state":"CA","address":"1821 N Hacienda Blvd","name":""},
  {"lat":34.16833,"lon":-118.133532,"city":"Pasadena","state":"CA","address":"1329 N Lake Ave","name":""},
  {"lat":34.243826,"lon":-118.417455,"city":"Arleta","state":"CA","address":"9635 Laurel Canyon Blvd","name":""},
  {"lat":33.927891,"lon":-116.948289,"city":"Beaumont","state":"CA","address":"1691 E Sixth St","name":""},
  {"lat":34.192445,"lon":-118.532605,"city":"Los Angeles","state":"CA","address":"18318 Vanowen St","name":""},
  {"lat":36.779862,"lon":-119.77333,"city":"Fresno","state":"CA","address":"3055 E Shields Ave","name":""},
  {"lat":36.781113,"lon":-119.773797,"city":"Fresno","state":"CA","address":"3053 E Shields Ave","name":""},
  {"lat":38.631034,"lon":-121.477232,"city":"Sacramento","state":"CA","address":"3625 Northgate Blvd","name":""},
  {"lat":37.74324,"lon":-122.148378,"city":"Oakland","state":"CA","address":"10790 Macarthur Blvd","name":""},
  {"lat":37.729841,"lon":-122.398825,"city":"San Francisco","state":"CA","address":"345 Williams Ave","name":""},
  {"lat":36.805883,"lon":-119.859703,"city":"Fresno","state":"CA","address":"3657 W Shaw Ave","name":""},
  {"lat":46.988692,"lon":-120.549759,"city":"Ellensburg","state":"WA","address":"503 S Water St","name":""},
  {"lat":46.991256,"lon":-120.551798,"city":"Ellensburg","state":"WA","address":"201 S Water St","name":""},
  {"lat":46.991256,"lon":-120.551798,"city":"Ellensburg","state":"WA","address":"201 S Water St","name":""},
  {"lat":44.063419,"lon":-123.017843,"city":"Springfield","state":"OR","address":"650 Q St","name":""},
  {"lat":44.063419,"lon":-123.017843,"city":"Springfield","state":"OR","address":"650 Q St","name":""},
  {"lat":45.305688,"lon":-122.944022,"city":"Newberg","state":"OR","address":"3300 E Portland Rd","name":""},
  {"lat":45.305688,"lon":-122.944022,"city":"Newberg","state":"OR","address":"3300 E Portland Rd","name":""},
  {"lat":45.305688,"lon":-122.944022,"city":"Newberg","state":"OR","address":"3300 E Portland Rd","name":""},
  {"lat":47.041077,"lon":-122.830898,"city":"Lacey","state":"WA","address":"700 Sleater Kinney Rd Se","name":""},
  {"lat":47.041077,"lon":-122.830898,"city":"Lacey","state":"WA","address":"700 Sleater Kinney Rd Se","name":""},
  {"lat":33.479141,"lon":-112.340605,"city":"Avondale","state":"AZ","address":"2915 N. Dysart Rd.","name":""},
  {"lat":33.463042,"lon":-112.338997,"city":"Avondale","state":"AZ","address":"1575 N Dysart Rd","name":""},
  {"lat":33.463042,"lon":-112.338997,"city":"Avondale","state":"AZ","address":"1575 N Dysart Rd","name":""},
  {"lat":33.567909,"lon":-112.170441,"city":"Glendale","state":"AZ","address":"5108 W Olive Ave","name":""},
  {"lat":33.568856,"lon":-112.169938,"city":"Glendale","state":"AZ","address":"5116 W Olive Ave","name":""},
  {"lat":33.611425,"lon":-111.995512,"city":"Phoenix","state":"AZ","address":"13775 N 40Th St","name":""},
  {"lat":33.611103,"lon":-111.994146,"city":"Phoenix","state":"AZ","address":"4025 E Thunderbird Rd","name":""},
  {"lat":41.232696,"lon":-96.101795,"city":"Omaha","state":"NE","address":"12019 W Center Rd","name":""},
  {"lat":41.232696,"lon":-96.101795,"city":"Omaha","state":"NE","address":"12025 W Center Rd","name":""},
  {"lat":41.232696,"lon":-96.101795,"city":"Omaha","state":"NE","address":"12025 W Center Rd","name":""},
  {"lat":41.294615,"lon":-96.121487,"city":"Omaha","state":"NE","address":"13260 W Maple Rd","name":""},
  {"lat":41.293983,"lon":-96.121666,"city":"Omaha","state":"NE","address":"13250 W Maple Rd","name":""},
  {"lat":34.225713,"lon":-118.450921,"city":"Panorama City","state":"CA","address":"8530 Tobias Ave","name":""},
  {"lat":33.944808,"lon":-118.243965,"city":"Los Angeles","state":"CA","address":"1651 E 103Rd St","name":""},
  {"lat":34.05113,"lon":-118.284701,"city":"Los Angeles","state":"CA","address":"1091 S Hoover St","name":""},
  {"lat":34.233334,"lon":-119.172216,"city":"Oxnard","state":"CA","address":"190 Esplanade Dr.","name":""},
  {"lat":36.734857,"lon":-119.735844,"city":"Fresno","state":"CA","address":"4824 E Kings Canyon Rd","name":""},
  {"lat":36.734155,"lon":-119.735057,"city":"Fresno","state":"CA","address":"4838 E Cesar Chavez Blvd","name":""},
  {"lat":44.063419,"lon":-123.017843,"city":"Springfield","state":"OR","address":"650 Q St","name":""},
  {"lat":44.034827,"lon":-121.309514,"city":"Bend","state":"OR","address":"61535 S Highway 97","name":""},
  {"lat":44.034827,"lon":-121.309514,"city":"Bend","state":"OR","address":"61535 S Highway 97","name":""},
  {"lat":44.034827,"lon":-121.309514,"city":"Bend","state":"OR","address":"61535 S Highway 97","name":""},
  {"lat":42.575338,"lon":-114.462657,"city":"Twin Falls","state":"ID","address":"705 Blue Lakes Blvd N","name":""},
  {"lat":42.575338,"lon":-114.462657,"city":"Twin Falls","state":"ID","address":"705 Blue Lakes Blvd N","name":""},
  {"lat":47.041077,"lon":-122.830898,"city":"Lacey","state":"WA","address":"700 Sleater Kinney Rd Se","name":""},
  {"lat":47.660289,"lon":-122.368423,"city":"Seattle","state":"WA","address":"915 Nw 45Th St","name":""},
  {"lat":47.660289,"lon":-122.368423,"city":"Seattle","state":"WA","address":"915 Nw 45Th St","name":""},
  {"lat":44.650997,"lon":-124.051027,"city":"Newport","state":"OR","address":"1359 N. Coast Hwy","name":""},
  {"lat":44.650997,"lon":-124.051027,"city":"Newport","state":"OR","address":"150 Ne 20Th St","name":""},
  {"lat":44.650997,"lon":-124.051027,"city":"Newport","state":"OR","address":"150 Ne 20Th St","name":""},
  {"lat":43.510716,"lon":-112.020058,"city":"Idaho Falls","state":"ID","address":"1555 Northgate Mile","name":""},
  {"lat":33.568856,"lon":-112.169938,"city":"Glendale","state":"AZ","address":"5116 W Olive Ave","name":""},
  {"lat":31.958243,"lon":-110.981277,"city":"Rancho Sahuarita","state":"AZ","address":"730 W Sahuarita Rd","name":""},
  {"lat":31.960382,"lon":-110.985976,"city":"Sahuarita","state":"AZ","address":"15950 S Rancho Sahuarita Blvd","name":""},
  {"lat":31.960382,"lon":-110.985976,"city":"Sahuarita","state":"AZ","address":"15950 S Rancho Sahuarita Blvd","name":""},
  {"lat":33.321896,"lon":-111.93026,"city":"Tempe","state":"AZ","address":"9900 S Rural Rd","name":""},
  {"lat":33.321896,"lon":-111.93026,"city":"Tempe","state":"AZ","address":"9900 S Rural Rd","name":""},
  {"lat":33.321896,"lon":-111.93026,"city":"Tempe","state":"AZ","address":"9900 S Rural Rd","name":""},
  {"lat":33.412785,"lon":-111.544763,"city":"Apache Junction","state":"AZ","address":"140 E. Old West Hwy","name":""},
  {"lat":33.611103,"lon":-111.994146,"city":"Phoenix","state":"AZ","address":"4025 E Thunderbird Rd","name":""},
  {"lat":32.339019,"lon":-111.045785,"city":"Tucson","state":"AZ","address":"3770 W Ina Rd","name":""},
  {"lat":32.339019,"lon":-111.045785,"city":"Tucson","state":"AZ","address":"3770 W Ina Rd","name":""},
  {"lat":32.339019,"lon":-111.045785,"city":"Tucson","state":"AZ","address":"3770 W Ina Rd","name":""},
  {"lat":33.638916,"lon":-112.153451,"city":"Glendale","state":"AZ","address":"4325 W Bell Rd","name":""},
  {"lat":33.637882,"lon":-112.152714,"city":"Glendale","state":"AZ","address":"4315 W Bell Rd","name":""},
  {"lat":33.637882,"lon":-112.152714,"city":"Glendale","state":"AZ","address":"4315 W Bell Rd","name":""},
  {"lat":33.480045,"lon":-111.909398,"city":"Scottsdale","state":"AZ","address":"7949 E. Thomas Rd.","name":""},
  {"lat":41.294615,"lon":-96.121487,"city":"Omaha","state":"NE","address":"13250 W Maple Rd","name":""},
  {"lat":41.308659,"lon":-96.050636,"city":"Omaha","state":"NE","address":"5657 N 90th St","name":""},
  {"lat":41.308789,"lon":-96.050754,"city":"Omaha","state":"NE","address":"5555 N 90Th St","name":""},
  {"lat":34.232312,"lon":-119.177286,"city":"Oxnard","state":"CA","address":"250 W Esplanade Dr","name":""},
  {"lat":41.507087,"lon":-87.671798,"city":"Chicago Heights","state":"IL","address":"1333 Western Ave","name":""},
  {"lat":41.90897,"lon":-87.865021,"city":"Melrose Park","state":"IL","address":"2525 W. North Ave","name":""},
  {"lat":41.909662,"lon":-87.8655,"city":"Melrose Park","state":"IL","address":"2501 W North Ave","name":""},
  {"lat":34.101344,"lon":-117.295473,"city":"San Bernardino","state":"CA","address":"555 W 2Nd St Ste A","name":""},
  {"lat":33.803672,"lon":-118.171447,"city":"Signal Hill","state":"CA","address":"1600 E Willow St","name":""},
  {"lat":34.216187,"lon":-118.389687,"city":"North Hollywood","state":"CA","address":"8035 Webb Ave","name":""},
  {"lat":33.928517,"lon":-118.212664,"city":"Lynwood","state":"CA","address":"11245 Long Beach Blvd","name":""},
  {"lat":33.522843,"lon":-117.160738,"city":"Temecula","state":"CA","address":"26419 Ynez Rd","name":""},
  {"lat":36.414245,"lon":-121.319875,"city":"Soledad","state":"CA","address":"2443 H Dela Rosa Sr St","name":""},
  {"lat":37.767738,"lon":-122.416111,"city":"San Francisco","state":"CA","address":"1800 Folsom St","name":""},
  {"lat":36.671451,"lon":-121.625961,"city":"Salinas","state":"CA","address":"1030 E Alisal St","name":""},
  {"lat":36.328998,"lon":-119.676217,"city":"Hanford","state":"CA","address":"1850 W Lacey Blvd","name":""},
  {"lat":42.575338,"lon":-114.462657,"city":"Twin Falls","state":"ID","address":"705 Blue Lakes Blvd N","name":""},
  {"lat":47.609617,"lon":-122.626517,"city":"Bremerton","state":"WA","address":"5050 State Highway 303 Ne","name":""},
  {"lat":47.609617,"lon":-122.626517,"city":"Bremerton","state":"WA","address":"5050 State Highway 303 Ne","name":""},
  {"lat":47.609617,"lon":-122.626517,"city":"Bremerton","state":"WA","address":"5050 State Highway 303 Ne","name":""},
  {"lat":64.854724,"lon":-147.690411,"city":"Fairbanks","state":"AK","address":"930 Old Steese Hwy Ste A","name":""},
  {"lat":64.854724,"lon":-147.690411,"city":"Fairbanks","state":"AK","address":"930 Old Steese Hwy Ste A","name":""},
  {"lat":64.854724,"lon":-147.690411,"city":"Fairbanks","state":"AK","address":"930 Old Steese Hwy Ste A","name":""},
  {"lat":47.767597,"lon":-117.402341,"city":"Spokane","state":"WA","address":"12120 N Division St","name":""},
  {"lat":43.510716,"lon":-112.020058,"city":"Idaho Falls","state":"ID","address":"1555 Northgate Mile","name":""},
  {"lat":43.510716,"lon":-112.020058,"city":"Idaho Falls","state":"ID","address":"1555 Northgate Mile","name":""},
  {"lat":43.665843,"lon":-116.411057,"city":"Meridian","state":"ID","address":"1400 W Chinden Blvd","name":""},
  {"lat":43.665843,"lon":-116.411057,"city":"Meridian","state":"ID","address":"1400 W Chinden Blvd","name":""},
  {"lat":43.665843,"lon":-116.411057,"city":"Meridian","state":"ID","address":"1400 W Chinden Blvd","name":""},
  {"lat":47.707871,"lon":-122.184155,"city":"Kirkland","state":"WA","address":"12221 120th Ave NE","name":""},
  {"lat":47.707871,"lon":-122.184155,"city":"Kirkland","state":"WA","address":"12221 120th Ave NE","name":""},
  {"lat":33.414069,"lon":-111.543981,"city":"Apache Junction","state":"AZ","address":"150 E Old West Hwy","name":""},
  {"lat":33.414069,"lon":-111.543981,"city":"Apache Junction","state":"AZ","address":"150 E Old West Hwy","name":""},
  {"lat":33.495059,"lon":-112.481174,"city":"Buckeye","state":"AZ","address":"19594 W. Indian School Rd.","name":""},
  {"lat":33.467307,"lon":-111.912657,"city":"Scottsdale","state":"AZ","address":"7770 E Mcdowell Rd","name":""},
  {"lat":33.467307,"lon":-111.912657,"city":"Scottsdale","state":"AZ","address":"7770 E Mcdowell Rd","name":""},
  {"lat":34.553371,"lon":-112.481438,"city":"Prescott","state":"AZ","address":"702 Miller Valley Rd","name":""},
  {"lat":34.554338,"lon":-112.482425,"city":"Prescott","state":"AZ","address":"950 Fair St","name":""},
  {"lat":34.554338,"lon":-112.482425,"city":"Prescott","state":"AZ","address":"950 Fair St","name":""},
  {"lat":33.419201,"lon":-110.816731,"city":"Globe","state":"AZ","address":"2115 Highway 60","name":""},
  {"lat":41.308659,"lon":-96.050636,"city":"Omaha","state":"NE","address":"5555 N 90th St","name":""},
  {"lat":41.263934,"lon":-96.154967,"city":"Omaha","state":"NE","address":"501 N 155th Plaza","name":""},
  {"lat":41.263934,"lon":-96.154967,"city":"Omaha","state":"NE","address":"505 N 155Th Plz","name":""},
  {"lat":41.263934,"lon":-96.154967,"city":"Omaha","state":"NE","address":"505 N 155Th Plz","name":""},
  {"lat":41.298367,"lon":-96.022142,"city":"Omaha","state":"NE","address":"4405 N 72Nd St","name":""},
  {"lat":41.298367,"lon":-96.022142,"city":"Omaha","state":"NE","address":"4405 N 72Nd St","name":""},
  {"lat":41.235578,"lon":-96.186536,"city":"Omaha","state":"NE","address":"17380 Lakeside Hills Plz","name":""},
  {"lat":33.973921,"lon":-117.346895,"city":"Riverside","state":"CA","address":"3900 Chicago Ave","name":""},
  {"lat":34.032712,"lon":-117.652671,"city":"Ontario","state":"CA","address":"2246 S Euclid Ave","name":""},
  {"lat":41.767173,"lon":-87.664114,"city":"Chicago","state":"IL","address":"6944 S Ashland Ave","name":""},
  {"lat":41.765488,"lon":-87.664468,"city":"Chicago","state":"IL","address":"7030 S Ashland Ave","name":""},
  {"lat":33.976576,"lon":-118.229591,"city":"Huntington Park","state":"CA","address":"6920 Santa Fe Ave","name":""},
  {"lat":34.227378,"lon":-118.48623,"city":"North Hills","state":"CA","address":"16208 Parthenia St","name":""},
  {"lat":34.227378,"lon":-118.48623,"city":"North Hills","state":"CA","address":"16208 Parthenia St","name":""},
  {"lat":34.061826,"lon":-118.019918,"city":"El Monte","state":"CA","address":"11950 Garvey Ave","name":""},
  {"lat":38.480398,"lon":-121.407607,"city":"Sacramento","state":"CA","address":"8122 Gerber Rd","name":""},
  {"lat":38.527096,"lon":-121.444677,"city":"Sacramento","state":"CA","address":"5330 Stockton Blvd","name":""},
  {"lat":35.394135,"lon":-118.976011,"city":"Bakersfield","state":"CA","address":"2501 Haley St","name":""},
  {"lat":35.394506,"lon":-118.974365,"city":"Bakersfield","state":"CA","address":"2505 Haley St","name":""},
  {"lat":37.934436,"lon":-122.356955,"city":"Richmond","state":"CA","address":"1250 Macdonald Ave","name":""},
  {"lat":35.317365,"lon":-119.024241,"city":"Bakersfield","state":"CA","address":"1901 White Ln","name":""},
  {"lat":47.767597,"lon":-117.402341,"city":"Spokane","state":"WA","address":"12120 N Division St","name":""},
  {"lat":47.767597,"lon":-117.402341,"city":"Spokane","state":"WA","address":"12120 N Division St","name":""},
  {"lat":48.788466,"lon":-122.511623,"city":"Bellingham","state":"WA","address":"1225 W Bakerview Rd","name":""},
  {"lat":48.788466,"lon":-122.511623,"city":"Bellingham","state":"WA","address":"1225 W Bakerview Rd","name":""},
  {"lat":48.788466,"lon":-122.511623,"city":"Bellingham","state":"WA","address":"1225 W Bakerview Rd","name":""},
  {"lat":47.879911,"lon":-122.209258,"city":"Everett","state":"WA","address":"12906 Bothell Everett Hwy","name":""},
  {"lat":47.707871,"lon":-122.184155,"city":"Kirkland","state":"WA","address":"12221 120th Ave NE","name":""},
  {"lat":45.551228,"lon":-122.902359,"city":"Hillsboro","state":"OR","address":"21980 Nw Imbrie Dr","name":""},
  {"lat":45.55129,"lon":-122.903596,"city":"Hillsboro","state":"OR","address":"7355 NE Imbrie Dr","name":""},
  {"lat":45.55129,"lon":-122.903596,"city":"Hillsboro","state":"OR","address":"7355 NE Imbrie Dr","name":""},
  {"lat":42.351888,"lon":-122.870902,"city":"Medford","state":"OR","address":"2424 Crater Lake Hwy","name":""},
  {"lat":42.351888,"lon":-122.870902,"city":"Medford","state":"OR","address":"2424 Crater Lake Hwy","name":""},
  {"lat":42.351888,"lon":-122.870902,"city":"Medford","state":"OR","address":"2424 Crater Lake Hwy","name":""},
  {"lat":45.441098,"lon":-122.752088,"city":"Tigard","state":"OR","address":"11565 Sw Pacific Hwy","name":""},
  {"lat":33.495296,"lon":-112.481823,"city":"Buckeye","state":"AZ","address":"19600 W Indian School Rd","name":""},
  {"lat":33.495296,"lon":-112.481823,"city":"Buckeye","state":"AZ","address":"19600 W Indian School Rd","name":""},
  {"lat":33.219231,"lon":-111.820061,"city":"Chandler","state":"AZ","address":"12132 E Riggs Rd","name":""},
  {"lat":33.217355,"lon":-111.825173,"city":"Chandler","state":"AZ","address":"985 E Riggs Rd","name":""},
  {"lat":33.217355,"lon":-111.825173,"city":"Chandler","state":"AZ","address":"985 E Riggs Rd","name":""},
  {"lat":33.609296,"lon":-112.132074,"city":"Phoenix","state":"AZ","address":"3421 W Thunderbird Rd","name":""},
  {"lat":33.609296,"lon":-112.132074,"city":"Phoenix","state":"AZ","address":"3421 W Thunderbird Rd","name":""},
  {"lat":33.451162,"lon":-111.803786,"city":"Mesa","state":"AZ","address":"1221 E Mckellips Rd","name":""},
  {"lat":33.420371,"lon":-110.816701,"city":"Miami","state":"AZ","address":"2115 E Highway 60 STE 200","name":""},
  {"lat":33.420371,"lon":-110.816701,"city":"Miami","state":"AZ","address":"2115 E Highway 60 STE 200","name":""},
  {"lat":33.336309,"lon":-111.755812,"city":"Gilbert","state":"AZ","address":"774 S Val Vista Dr","name":""},
  {"lat":33.337339,"lon":-111.75718,"city":"Gilbert","state":"AZ","address":"714 S Val Vista Dr","name":""},
  {"lat":33.337339,"lon":-111.75718,"city":"Gilbert","state":"AZ","address":"714 S Val Vista Dr","name":""},
  {"lat":32.102165,"lon":-110.77346,"city":"Tucson","state":"AZ","address":"8260 S Houghton Rd","name":""},
  {"lat":32.105382,"lon":-110.774002,"city":"Tucson","state":"AZ","address":"8080 S Houghton Rd","name":""},
  {"lat":41.235578,"lon":-96.186536,"city":"Omaha","state":"NE","address":"17370 Lakeside Hills Plz","name":""},
  {"lat":41.236063,"lon":-96.186244,"city":"Omaha","state":"NE","address":"17370 Lakeside Hills Plz","name":""},
  {"lat":41.250911,"lon":-95.98702,"city":"Omaha","state":"NE","address":"888 S Saddle Creek Rd","name":""},
  {"lat":41.251286,"lon":-95.986656,"city":"Omaha","state":"NE","address":"888 S Saddle Creek Rd","name":""},
  {"lat":41.250911,"lon":-95.98702,"city":"Omaha","state":"NE","address":"888 S Saddle Creek Rd","name":""},
  {"lat":41.326175,"lon":-95.958872,"city":"Omaha","state":"NE","address":"7312 N 30Th St","name":""},
  {"lat":41.326175,"lon":-95.958872,"city":"Omaha","state":"NE","address":"7312 N 30Th St","name":""},
  {"lat":41.444502,"lon":-96.483932,"city":"Fremont","state":"NE","address":"1615 N Bell St","name":""},
  {"lat":34.471849,"lon":-117.308751,"city":"Victorville","state":"CA","address":"16266 Bear Valley Rd","name":""},
  {"lat":34.471849,"lon":-117.308751,"city":"Victorville","state":"CA","address":"16266 Bear Valley Rd","name":""},
  {"lat":33.901583,"lon":-118.252034,"city":"Compton","state":"CA","address":"1900 W Rosecrans Ave","name":""},
  {"lat":35.316039,"lon":-119.02285,"city":"Bakersfield","state":"CA","address":"1801 White Ln","name":""},
  {"lat":34.934612,"lon":-120.4364,"city":"Santa Maria","state":"CA","address":"1493 S Broadway","name":""},
  {"lat":34.935058,"lon":-120.437619,"city":"Santa Maria","state":"CA","address":"1465 S Broadway","name":""},
  {"lat":36.228446,"lon":-119.327393,"city":"Tulare","state":"CA","address":"1210 E Prosperity Ave","name":""},
  {"lat":38.45557,"lon":-121.416595,"city":"Sacramento","state":"CA","address":"7331 W Stockton Blvd","name":""},
  {"lat":38.456688,"lon":-121.415415,"city":"Sacramento","state":"CA","address":"7421 W Stockton Blvd","name":""},
  {"lat":34.662676,"lon":-120.463407,"city":"Lompoc","state":"CA","address":"601 W Central Ave","name":""},
  {"lat":47.879911,"lon":-122.209258,"city":"Everett","state":"WA","address":"12906 Bothell Everett Hwy","name":""},
  {"lat":47.879911,"lon":-122.209258,"city":"Everett","state":"WA","address":"12906 Bothell Everett Hwy","name":""},
  {"lat":46.149001,"lon":-122.964547,"city":"Longview","state":"WA","address":"3184 Ocean Beach Hwy","name":""},
  {"lat":46.149001,"lon":-122.964547,"city":"Longview","state":"WA","address":"3184 Ocean Beach Hwy","name":""},
  {"lat":46.149001,"lon":-122.964547,"city":"Longview","state":"WA","address":"3184 Ocean Beach Hwy","name":""},
  {"lat":45.381536,"lon":-122.757262,"city":"Tualatin","state":"OR","address":"19200 Sw Martinazzi Ave","name":""},
  {"lat":45.381536,"lon":-122.757262,"city":"Tualatin","state":"OR","address":"19200 Sw Martinazzi Ave","name":""},
  {"lat":47.24424,"lon":-122.529097,"city":"Tacoma","state":"WA","address":"6901 S 19Th St","name":""},
  {"lat":45.441098,"lon":-122.752088,"city":"Tigard","state":"OR","address":"11565 Sw Pacific Hwy","name":""},
  {"lat":44.04954,"lon":-123.142964,"city":"Eugene","state":"OR","address":"3333 W 11Th Ave","name":""},
  {"lat":44.04954,"lon":-123.142964,"city":"Eugene","state":"OR","address":"3333 W 11Th Ave","name":""},
  {"lat":44.04954,"lon":-123.142964,"city":"Eugene","state":"OR","address":"3333 W 11Th Ave","name":""},
  {"lat":43.574022,"lon":-116.192801,"city":"Boise","state":"ID","address":"3231 S Federal Way","name":""},
  {"lat":43.567979,"lon":-116.187452,"city":"Boise","state":"ID","address":"3527 S Federal Way","name":""},
  {"lat":43.567979,"lon":-116.187452,"city":"Boise","state":"ID","address":"3527 S Federal Way","name":""},
  {"lat":42.88984,"lon":-112.44926,"city":"Pocatello","state":"ID","address":"800 Yellowstone Ave","name":""},
  {"lat":33.450397,"lon":-111.802907,"city":"Mesa","state":"AZ","address":"1935 N Stapley Dr","name":""},
  {"lat":33.450397,"lon":-111.802907,"city":"Mesa","state":"AZ","address":"1935 N Stapley Dr","name":""},
  {"lat":33.408095,"lon":-111.77377,"city":"Mesa","state":"AZ","address":"2651 E Broadway Rd","name":""},
  {"lat":33.406415,"lon":-111.772336,"city":"Mesa","state":"AZ","address":"2727 E Broadway Rd","name":""},
  {"lat":33.406415,"lon":-111.772336,"city":"Mesa","state":"AZ","address":"2727 E Broadway Rd","name":""},
  {"lat":33.58129,"lon":-111.97913,"city":"Phoenix","state":"AZ","address":"4707 E Shea Blvd","name":""},
  {"lat":32.105382,"lon":-110.774002,"city":"Tucson","state":"AZ","address":"8080 S Houghton Rd","name":""},
  {"lat":33.377972,"lon":-111.905768,"city":"Tempe","state":"AZ","address":"1831 E Baseline Rd","name":""},
  {"lat":33.379495,"lon":-111.910855,"city":"Tempe","state":"AZ","address":"5100 S Mcclintock Dr","name":""},
  {"lat":33.379495,"lon":-111.910855,"city":"Tempe","state":"AZ","address":"5100 S Mcclintock Dr","name":""},
  {"lat":33.797217,"lon":-111.97669,"city":"Cave Creek","state":"AZ","address":"4815 E Carefree Hwy Ste 100","name":""},
  {"lat":33.797217,"lon":-111.97669,"city":"Cave Creek","state":"AZ","address":"4815 E Carefree Hwy Ste 100","name":""},
  {"lat":33.538236,"lon":-112.097718,"city":"Phoenix","state":"AZ","address":"1805 W Glendale Ave","name":""},
  {"lat":41.443341,"lon":-96.485253,"city":"Fremont","state":"NE","address":"1531 N Bell St","name":""},
  {"lat":41.44338,"lon":-96.485268,"city":"Fremont","state":"NE","address":"1531 N Bell St","name":""},
  {"lat":41.153583,"lon":-95.917099,"city":"Bellevue","state":"NE","address":"803 Galvin Rd S","name":""},
  {"lat":41.153049,"lon":-95.916176,"city":"Bellevue","state":"NE","address":"801 Galvin Rd S","name":""},
  {"lat":41.153289,"lon":-95.915758,"city":"Bellevue","state":"NE","address":"801 Galvin Rd S","name":""},
  {"lat":41.141224,"lon":-95.968327,"city":"Bellevue","state":"NE","address":"3710 TWIN CREEK DR","name":""},
  {"lat":41.141953,"lon":-95.968735,"city":"Bellevue","state":"NE","address":"3614 Twin Creek Dr","name":""},
  {"lat":41.142431,"lon":-95.968745,"city":"Bellevue","state":"NE","address":"3614 Twin Creek Dr","name":""},
  {"lat":38.006962,"lon":-121.888042,"city":"Pittsburg","state":"CA","address":"300 Atlantic Ave","name":""},
  {"lat":47.24424,"lon":-122.529097,"city":"Tacoma","state":"WA","address":"6901 S 19Th St","name":""},
  {"lat":47.244049,"lon":-122.497264,"city":"Tacoma","state":"WA","address":"4505 S 19Th St","name":""},
  {"lat":47.244049,"lon":-122.497264,"city":"Tacoma","state":"WA","address":"4505 S 19Th St","name":""},
  {"lat":42.88984,"lon":-112.44926,"city":"Pocatello","state":"ID","address":"800 Yellowstone Ave","name":""},
  {"lat":42.88984,"lon":-112.44926,"city":"Pocatello","state":"ID","address":"800 Yellowstone Ave","name":""},
  {"lat":42.215508,"lon":-121.755674,"city":"Klamath Falls","state":"OR","address":"2655 Shasta Way","name":""},
  {"lat":42.215508,"lon":-121.755674,"city":"Klamath Falls","state":"OR","address":"2655 Shasta Way","name":""},
  {"lat":33.58129,"lon":-111.97913,"city":"Phoenix","state":"AZ","address":"4707 E Shea Blvd","name":""},
  {"lat":32.424746,"lon":-111.044362,"city":"Marana","state":"AZ","address":"12020 N Thornydale Rd","name":""},
  {"lat":32.426289,"lon":-111.045032,"city":"Marana","state":"AZ","address":"12100 N Thornydale Rd","name":""},
  {"lat":33.537101,"lon":-112.098281,"city":"Phoenix","state":"AZ","address":"1815 W Glendale Ave","name":""},
  {"lat":47.244049,"lon":-122.497264,"city":"Tacoma","state":"WA","address":"4505 S 19Th St","name":""},
  {"lat":45.607647,"lon":-121.201537,"city":"The Dalles","state":"OR","address":"540 Cherry Heights Rd W","name":""},
  {"lat":45.606918,"lon":-121.199432,"city":"The Dalles","state":"OR","address":"1215 W 6Th St","name":""},
  {"lat":45.606918,"lon":-121.199432,"city":"The Dalles","state":"OR","address":"1215 W 6Th St","name":""},
  {"lat":47.862994,"lon":-121.978577,"city":"Monroe","state":"WA","address":"18805 State Route 2","name":""},
  {"lat":42.215508,"lon":-121.755674,"city":"Klamath Falls","state":"OR","address":"2655 Shasta Way","name":""},
  {"lat":45.619511,"lon":-122.556268,"city":"Vancouver","state":"WA","address":"11325 Se Mill Plain Blvd","name":""},
  {"lat":45.619511,"lon":-122.556268,"city":"Vancouver","state":"WA","address":"11325 Se Mill Plain Blvd","name":""},
  {"lat":45.619511,"lon":-122.556268,"city":"Vancouver","state":"WA","address":"11325 Se Mill Plain Blvd","name":""},
  {"lat":46.197345,"lon":-119.161465,"city":"Kennewick","state":"WA","address":"2811 W 10th Ave","name":""},
  {"lat":46.197345,"lon":-119.161465,"city":"Kennewick","state":"WA","address":"2811 W 10th Ave","name":""},
  {"lat":46.197345,"lon":-119.161465,"city":"Kennewick","state":"WA","address":"2811 W 10th Ave","name":""},
  {"lat":47.229962,"lon":-123.124041,"city":"Shelton","state":"WA","address":"301 E Wallace Kneeland Blvd","name":""},
  {"lat":32.426289,"lon":-111.045032,"city":"Marana","state":"AZ","address":"12100 N Thornydale Rd","name":""},
  {"lat":32.190205,"lon":-110.842503,"city":"Tucson","state":"AZ","address":"7050 E Golf Links Rd","name":""},
  {"lat":32.190205,"lon":-110.842503,"city":"Tucson","state":"AZ","address":"7050 E Golf Links Rd","name":""},
  {"lat":32.206095,"lon":-110.842186,"city":"Tucson","state":"AZ","address":"7010 E 22Nd St","name":""},
  {"lat":32.204473,"lon":-110.842429,"city":"Tucson","state":"AZ","address":"7050 E 22Nd St","name":""},
  {"lat":32.204473,"lon":-110.842429,"city":"Tucson","state":"AZ","address":"7050 E 22Nd St","name":""},
  {"lat":33.552726,"lon":-112.152048,"city":"Glendale","state":"AZ","address":"4301 W Northern Ave","name":""},
  {"lat":33.537101,"lon":-112.098281,"city":"Phoenix","state":"AZ","address":"1815 W Glendale Ave","name":""},
  {"lat":33.669707,"lon":-112.188918,"city":"Glendale","state":"AZ","address":"20220 N 59Th Ave","name":""},
  {"lat":33.669707,"lon":-112.188918,"city":"Glendale","state":"AZ","address":"20220 N 59Th Ave","name":""},
  {"lat":32.164858,"lon":-110.941992,"city":"Tucson","state":"AZ","address":"4733 S. Campbell Rd.","name":""},
  {"lat":32.164858,"lon":-110.941992,"city":"Tucson","state":"AZ","address":"2001 E Irvington Rd","name":""},
  {"lat":32.164858,"lon":-110.941992,"city":"Tucson","state":"AZ","address":"2001 E Irvington Rd","name":""},
  {"lat":33.492113,"lon":-112.28844,"city":"Avondale","state":"AZ","address":"10675 W Indian School Rd","name":""},
  {"lat":33.492113,"lon":-112.28844,"city":"Avondale","state":"AZ","address":"10675 W Indian School Rd","name":""},
  {"lat":33.714396,"lon":-112.270043,"city":"Peoria","state":"AZ","address":"25371 N Lake Pleasant Pkwy","name":""},
  {"lat":47.862994,"lon":-121.978577,"city":"Monroe","state":"WA","address":"18805 State Route 2","name":""},
  {"lat":47.862994,"lon":-121.978577,"city":"Monroe","state":"WA","address":"18805 State Route 2","name":""},
  {"lat":47.847542,"lon":-122.272908,"city":"Lynnwood","state":"WA","address":"2902 164Th St Sw","name":""},
  {"lat":47.847542,"lon":-122.272908,"city":"Lynnwood","state":"WA","address":"2902 164Th St Sw","name":""},
  {"lat":47.229962,"lon":-123.124041,"city":"Shelton","state":"WA","address":"301 E Wallace Kneeland Blvd","name":""},
  {"lat":47.229962,"lon":-123.124041,"city":"Shelton","state":"WA","address":"301 E Wallace Kneeland Blvd","name":""},
  {"lat":60.489506,"lon":-151.049127,"city":"Soldotna","state":"AK","address":"43843 Sterling Hwy","name":""},
  {"lat":60.489506,"lon":-151.049127,"city":"Soldotna","state":"AK","address":"43843 Sterling Hwy","name":""},
  {"lat":60.489506,"lon":-151.049127,"city":"Soldotna","state":"AK","address":"43843 Sterling Hwy","name":""},
  {"lat":45.458498,"lon":-122.581068,"city":"Happy Valley","state":"OR","address":"8955 Se 82Nd Ave","name":""},
  {"lat":45.458498,"lon":-122.581068,"city":"Happy Valley","state":"OR","address":"8955 Se 82Nd Ave","name":""},
  {"lat":33.552378,"lon":-112.153189,"city":"Glendale","state":"AZ","address":"4329 W Northern Ave","name":""},
  {"lat":33.552378,"lon":-112.153189,"city":"Glendale","state":"AZ","address":"4329 W Northern Ave","name":""},
  {"lat":32.279996,"lon":-110.960572,"city":"Tucson","state":"AZ","address":"4001 N 1st Ave","name":""},
  {"lat":32.280579,"lon":-110.959547,"city":"Tucson","state":"AZ","address":"4036 N 1st Ave","name":""},
  {"lat":32.280579,"lon":-110.959547,"city":"Tucson","state":"AZ","address":"4036 N 1st Ave","name":""},
  {"lat":33.710617,"lon":-112.201505,"city":"Glendale","state":"AZ","address":"6625 W Happy Valley Rd","name":""},
  {"lat":33.710617,"lon":-112.201505,"city":"Glendale","state":"AZ","address":"6625 W Happy Valley Rd","name":""},
  {"lat":33.219895,"lon":-111.567717,"city":"San Tan Valley","state":"AZ","address":"205 W. Combs","name":""},
  {"lat":33.715372,"lon":-112.267114,"city":"Peoria","state":"AZ","address":"25401 N. Lake Pleasant Parkway","name":""},
  {"lat":33.714458,"lon":-112.267706,"city":"Peoria","state":"AZ","address":"25401 N Lake Pleasant Pkwy","name":""},
  {"lat":32.683979,"lon":-114.626151,"city":"Yuma","state":"AZ","address":"2350 S. 4th Avenue","name":""},
  {"lat":32.68554,"lon":-114.625998,"city":"Yuma","state":"AZ","address":"500 W 24Th St","name":""},
  {"lat":32.68554,"lon":-114.625998,"city":"Yuma","state":"AZ","address":"500 W 24Th St","name":""},
  {"lat":33.600674,"lon":-112.288835,"city":"Sun City","state":"AZ","address":"10660 Grand Ave","name":""},
  {"lat":47.847542,"lon":-122.272908,"city":"Lynnwood","state":"WA","address":"2902 164Th St Sw","name":""},
  {"lat":43.357499,"lon":-124.209024,"city":"Coos Bay","state":"OR","address":"1075 S Broadway","name":""},
  {"lat":43.356928,"lon":-124.21068,"city":"Coos Bay","state":"OR","address":"1020 1st St","name":""},
  {"lat":45.458498,"lon":-122.581068,"city":"Happy Valley","state":"OR","address":"8955 Se 82Nd Ave","name":""},
  {"lat":44.948392,"lon":-122.986228,"city":"Salem","state":"OR","address":"3740 Market St Ne","name":""},
  {"lat":44.948392,"lon":-122.986228,"city":"Salem","state":"OR","address":"3740 Market St Ne","name":""},
  {"lat":33.218081,"lon":-111.56574,"city":"San Tan Valley","state":"AZ","address":"155 W Combs Rd","name":""},
  {"lat":33.218081,"lon":-111.56574,"city":"San Tan Valley","state":"AZ","address":"155 W Combs Rd","name":""},
  {"lat":33.413231,"lon":-111.858024,"city":"Mesa","state":"AZ","address":"1245 W Main St","name":""},
  {"lat":33.413093,"lon":-111.858086,"city":"Mesa","state":"AZ","address":"1245 W Main St","name":""},
  {"lat":33.600674,"lon":-112.288835,"city":"Sun City","state":"AZ","address":"10660 Grand Ave","name":""},
  {"lat":33.600674,"lon":-112.288835,"city":"Sun City","state":"AZ","address":"10660 Grand Ave","name":""},
  {"lat":33.41594,"lon":-111.735192,"city":"Mesa","state":"AZ","address":"4432 E Main St","name":""},
  {"lat":43.356928,"lon":-124.21068,"city":"Coos Bay","state":"OR","address":"1020 1st St","name":""},
  {"lat":45.676978,"lon":-122.663391,"city":"Vancouver","state":"WA","address":"7700 NE Highway 99","name":""},
  {"lat":45.676978,"lon":-122.663391,"city":"Vancouver","state":"WA","address":"7700 NE Highway 99","name":""},
  {"lat":45.676978,"lon":-122.663391,"city":"Vancouver","state":"WA","address":"7700 NE Highway 99","name":""},
  {"lat":45.495926,"lon":-122.405172,"city":"Gresham","state":"OR","address":"2497 Se Burnside Rd","name":""},
  {"lat":45.495926,"lon":-122.405172,"city":"Gresham","state":"OR","address":"2497 Se Burnside Rd","name":""},
  {"lat":45.495926,"lon":-122.405172,"city":"Gresham","state":"OR","address":"2497 Se Burnside Rd","name":""},
  {"lat":45.50007,"lon":-122.914574,"city":"Hillsboro","state":"OR","address":"6495 Se Tualatin Valley Hwy","name":""},
  {"lat":44.948392,"lon":-122.986228,"city":"Salem","state":"OR","address":"3740 Market St Ne","name":""},
  {"lat":45.742623,"lon":-122.878641,"city":"Scappoose","state":"OR","address":"51501 Columbia River Hwy","name":""},
  {"lat":45.742623,"lon":-122.878641,"city":"Scappoose","state":"OR","address":"51501 Columbia River Hwy","name":""},
  {"lat":45.742623,"lon":-122.878641,"city":"Scappoose","state":"OR","address":"51501 Columbia River Hwy","name":""},
  {"lat":45.6761,"lon":-122.550928,"city":"Vancouver","state":"WA","address":"7411 NE 117Th Ave","name":""},
  {"lat":45.6761,"lon":-122.550928,"city":"Vancouver","state":"WA","address":"7411 NE 117Th Ave","name":""},
  {"lat":45.6761,"lon":-122.550928,"city":"Vancouver","state":"WA","address":"7411 NE 117Th Ave","name":""},
  {"lat":43.228371,"lon":-123.364159,"city":"Roseburg","state":"OR","address":"770 Nw Garden Valley Blvd","name":""},
  {"lat":33.413093,"lon":-111.858086,"city":"Mesa","state":"AZ","address":"1245 W Main St","name":""},
  {"lat":33.659671,"lon":-112.35406,"city":"Sun City West","state":"AZ","address":"19407 N. RH Johnson","name":""},
  {"lat":33.661239,"lon":-112.353572,"city":"Sun City West","state":"AZ","address":"19403 N. RH Johnson BLVD","name":""},
  {"lat":33.661214,"lon":-112.353313,"city":"Sun City West","state":"AZ","address":"19403 N R H Johnson Blvd","name":""},
  {"lat":32.252792,"lon":-110.892279,"city":"Tucson","state":"AZ","address":"2490 N Swan Rd","name":""},
  {"lat":32.252522,"lon":-110.891058,"city":"Tucson","state":"AZ","address":"2480 N Swan Rd","name":""},
  {"lat":33.417328,"lon":-111.734967,"city":"Mesa","state":"AZ","address":"4440 E Main St","name":""},
  {"lat":33.417328,"lon":-111.734967,"city":"Mesa","state":"AZ","address":"4440 E Main St","name":""},
  {"lat":33.306591,"lon":-111.700251,"city":"Gilbert","state":"AZ","address":"4123 E Williams Field Rd","name":""},
  {"lat":33.304665,"lon":-111.70242,"city":"Gilbert","state":"AZ","address":"4075 E Williams Field Rd","name":""},
  {"lat":33.304665,"lon":-111.70242,"city":"Gilbert","state":"AZ","address":"4075 E Williams Field Rd","name":""},
  {"lat":32.207797,"lon":-110.79185,"city":"Tucson","state":"AZ","address":"9401 E 22Nd St","name":""},
  {"lat":32.207797,"lon":-110.79185,"city":"Tucson","state":"AZ","address":"9401 E 22Nd St","name":""},
  {"lat":33.844484,"lon":-112.133832,"city":"Phoenix","state":"AZ","address":"39508 N Daisy Mountain Dr","name":""},
  {"lat":45.50007,"lon":-122.914574,"city":"Hillsboro","state":"OR","address":"6495 Se Tualatin Valley Hwy","name":""},
  {"lat":45.50007,"lon":-122.914574,"city":"Hillsboro","state":"OR","address":"6495 Se Tualatin Valley Hwy","name":""},
  {"lat":43.621084,"lon":-116.372237,"city":"Meridian","state":"ID","address":"1850 E Fairview Ave","name":""},
  {"lat":43.621084,"lon":-116.372237,"city":"Meridian","state":"ID","address":"1850 E Fairview Ave","name":""},
  {"lat":43.621084,"lon":-116.372237,"city":"Meridian","state":"ID","address":"1850 E Fairview Ave","name":""},
  {"lat":61.21152,"lon":-149.736778,"city":"Anchorage","state":"AK","address":"7701 Debarr Rd","name":""},
  {"lat":43.227966,"lon":-123.368554,"city":"Roseburg","state":"OR","address":"929 Nw Garden Valley Blvd","name":""},
  {"lat":43.227966,"lon":-123.368554,"city":"Roseburg","state":"OR","address":"929 Nw Garden Valley Blvd","name":""},
  {"lat":47.297903,"lon":-122.358864,"city":"Federal Way","state":"WA","address":"33702 21St Ave Sw","name":""},
  {"lat":47.297903,"lon":-122.358864,"city":"Federal Way","state":"WA","address":"33702 21St Ave Sw","name":""},
  {"lat":47.297903,"lon":-122.358864,"city":"Federal Way","state":"WA","address":"33702 21St Ave Sw","name":""},
  {"lat":45.529404,"lon":-122.433151,"city":"Wood Village","state":"OR","address":"845 NW Wood Village Blvd","name":""},
  {"lat":45.530337,"lon":-122.428668,"city":"Wood Village","state":"OR","address":"22855 Ne Park Ln","name":""},
  {"lat":32.252522,"lon":-110.891058,"city":"Tucson","state":"AZ","address":"2480 N Swan Rd","name":""},
  {"lat":32.250847,"lon":-110.961487,"city":"Tucson","state":"AZ","address":"695 E Grant Rd","name":""},
  {"lat":33.844484,"lon":-112.133832,"city":"Phoenix","state":"AZ","address":"39508 N Daisy Mountain Dr","name":""},
  {"lat":33.671108,"lon":-111.904221,"city":"Scottsdale","state":"AZ","address":"20427 N Hayden Rd","name":""},
  {"lat":33.671108,"lon":-111.904221,"city":"Scottsdale","state":"AZ","address":"20427 N Hayden Rd","name":""},
  {"lat":33.494118,"lon":-112.281359,"city":"Phoenix","state":"AZ","address":"4120 N. 103rd Avenue","name":""},
  {"lat":33.492746,"lon":-112.239071,"city":"Phoenix","state":"AZ","address":"8325 W Indian School Rd","name":""},
  {"lat":61.21152,"lon":-149.736778,"city":"Anchorage","state":"AK","address":"7701 Debarr Rd","name":""},
  {"lat":61.21152,"lon":-149.736778,"city":"Anchorage","state":"AK","address":"7701 Debarr Rd","name":""},
  {"lat":47.712485,"lon":-116.794752,"city":"Coeur d'Alene","state":"ID","address":"560 W Kathleen Ave","name":""},
  {"lat":47.712485,"lon":-116.794752,"city":"Coeur d'Alene","state":"ID","address":"560 W Kathleen Ave","name":""},
  {"lat":47.712485,"lon":-116.794752,"city":"Coeur d'Alene","state":"ID","address":"560 W Kathleen Ave","name":""},
  {"lat":43.589215,"lon":-116.316491,"city":"Boise","state":"ID","address":"10751 W Overland Rd","name":""},
  {"lat":45.530337,"lon":-122.428668,"city":"Wood Village","state":"OR","address":"22855 Ne Park Ln","name":""},
  {"lat":32.251657,"lon":-110.962528,"city":"Tucson","state":"AZ","address":"555 E Grant Rd","name":""},
  {"lat":32.251657,"lon":-110.962528,"city":"Tucson","state":"AZ","address":"555 E Grant Rd","name":""},
  {"lat":33.639431,"lon":-112.120316,"city":"Phoenix","state":"AZ","address":"2825 W Bell Rd","name":""},
  {"lat":33.638177,"lon":-112.119906,"city":"Phoenix","state":"AZ","address":"2727 W Bell Rd","name":""},
  {"lat":33.492746,"lon":-112.239071,"city":"Phoenix","state":"AZ","address":"8325 W Indian School Rd","name":""},
  {"lat":33.622153,"lon":-112.426276,"city":"Surprise","state":"AZ","address":"15163 N Cotton Ln","name":""},
  {"lat":33.622631,"lon":-112.424642,"city":"Surprise","state":"AZ","address":"15215 N Cotton Ln","name":""},
  {"lat":33.622631,"lon":-112.424642,"city":"Surprise","state":"AZ","address":"15215 N Cotton Ln","name":""},
  {"lat":33.36351,"lon":-111.602604,"city":"Mesa","state":"AZ","address":"2712 S. Signal Butte","name":""},
  {"lat":43.589215,"lon":-116.316491,"city":"Boise","state":"ID","address":"10751 W Overland Rd","name":""},
  {"lat":43.589215,"lon":-116.316491,"city":"Boise","state":"ID","address":"10751 W Overland Rd","name":""},
  {"lat":45.266678,"lon":-122.67675,"city":"Canby","state":"OR","address":"369 SE 1St Ave","name":""},
  {"lat":45.266402,"lon":-122.67673,"city":"Canby","state":"OR","address":"1401 Se 1St Ave","name":""},
  {"lat":45.266402,"lon":-122.67673,"city":"Canby","state":"OR","address":"1401 Se 1St Ave","name":""},
  {"lat":33.638177,"lon":-112.119906,"city":"Phoenix","state":"AZ","address":"2727 W Bell Rd","name":""},
  {"lat":33.275562,"lon":-111.860919,"city":"Chandler","state":"AZ","address":"2010 S Alma School Rd","name":""},
  {"lat":33.275562,"lon":-111.860919,"city":"Chandler","state":"AZ","address":"2010 S Alma School Rd","name":""},
  {"lat":33.609749,"lon":-112.362022,"city":"Surprise","state":"AZ","address":"14024 W Waddell Rd","name":""},
  {"lat":33.363351,"lon":-111.60351,"city":"Mesa","state":"AZ","address":"2724 S. Signal Butte Rd.","name":""},
  {"lat":33.365825,"lon":-111.603988,"city":"Mesa","state":"AZ","address":"2724 S Signal Butte Rd","name":""},
  {"lat":33.611182,"lon":-112.361505,"city":"Surprise","state":"AZ","address":"13982 W Waddell Rd","name":""},
  {"lat":33.611182,"lon":-112.361505,"city":"Surprise","state":"AZ","address":"13982 W Waddell Rd","name":""},
  {"lat":34.690622,"lon":-118.173859,"city":"Lancaster","state":"CA","address":"44455 Valley Central Way","name":""},
  {"lat":32.815701,"lon":-115.572677,"city":"El Centro","state":"CA","address":"2420 Cottonwood Dr","name":""},
  {"lat":33.6911,"lon":-116.184199,"city":"Coachella","state":"CA","address":"49-245 Grapefruit Blvd","name":""},
  {"lat":33.690022,"lon":-116.185367,"city":"Coachella","state":"CA","address":"49241 Grapefruit Blvd","name":""},
  {"lat":41.737679,"lon":-87.627506,"city":"Chicago","state":"IL","address":"112 W 87Th St","name":""},
  {"lat":34.068436,"lon":-117.433813,"city":"Fontana","state":"CA","address":"16991 Valley Blvd","name":""},
  {"lat":33.92658,"lon":-117.452325,"city":"Riverside","state":"CA","address":"4250B Van Buren Blvd","name":""},
  {"lat":33.927505,"lon":-117.45336,"city":"Riverside","state":"CA","address":"4250 Van Buren Blvd","name":""},
  {"lat":34.55966,"lon":-118.086276,"city":"Palmdale","state":"CA","address":"2341 E Avenue S","name":""},
  {"lat":41.623919,"lon":-87.59319,"city":"Dolton","state":"IL","address":"1000 E Sibley Blvd","name":""},
  {"lat":32.808933,"lon":-116.957615,"city":"El Cajon","state":"CA","address":"444 Broadway","name":""},
  {"lat":33.799682,"lon":-116.460419,"city":"Cathedral City","state":"CA","address":"34500 Date Palm Dr","name":""},
  {"lat":33.799682,"lon":-116.460419,"city":"Cathedral City","state":"CA","address":"34251 Date Palm Dr","name":""},
  {"lat":33.778726,"lon":-118.265554,"city":"Wilmington","state":"CA","address":"336 W Anaheim St","name":""},
  {"lat":34.08159,"lon":-117.909346,"city":"West Covina","state":"CA","address":"615 N Azusa Ave","name":""},
  {"lat":34.017832,"lon":-118.198356,"city":"Los Angeles","state":"CA","address":"3654 E Olympic Blvd","name":""},
  {"lat":41.908302,"lon":-87.747368,"city":"Chicago","state":"IL","address":"4821 W North Ave","name":""},
  {"lat":41.552719,"lon":-88.128693,"city":"Crest Hill","state":"IL","address":"1701 N Larkin Ave Ste 100","name":""},
  {"lat":41.552719,"lon":-88.128693,"city":"Crest Hill","state":"IL","address":"1701 N Larkin Ave Ste 100","name":""},
  {"lat":34.040801,"lon":-118.205685,"city":"Los Angeles","state":"CA","address":"2750 E 1St St","name":""},
  {"lat":41.623919,"lon":-87.59319,"city":"Dolton","state":"IL","address":"1000 E Sibley Blvd","name":""},
  {"lat":33.811214,"lon":-118.288952,"city":"Torrance","state":"CA","address":"851 Sepulveda Blvd","name":""},
  {"lat":33.929037,"lon":-118.309505,"city":"Los Angeles","state":"CA","address":"11533 S. Western Ave","name":""},
  {"lat":33.929475,"lon":-118.310506,"city":"Los Angeles","state":"CA","address":"11507 S Western Ave","name":""},
  {"lat":32.602499,"lon":-117.082904,"city":"Chula Vista","state":"CA","address":"660 Palomar St","name":""},
  {"lat":33.944112,"lon":-118.327873,"city":"Inglewood","state":"CA","address":"3200 W Century Blvd","name":""},
  {"lat":32.708171,"lon":-117.085945,"city":"San Diego","state":"CA","address":"312 Euclid Ave","name":""},
  {"lat":33.974422,"lon":-118.07412,"city":"Whittier","state":"CA","address":"7810 Norwalk Blvd","name":""},
  {"lat":34.275402,"lon":-118.412304,"city":"Pacoima","state":"CA","address":"12765 Van Nuys Blvd","name":""},
  {"lat":41.908302,"lon":-87.747368,"city":"Chicago","state":"IL","address":"4821 W North Ave","name":""},
  {"lat":34.299742,"lon":-118.441967,"city":"Los Angeles","state":"CA","address":"12689 Glenoaks Blvd","name":""},
  {"lat":34.299742,"lon":-118.441967,"city":"Los Angeles","state":"CA","address":"12689 Glenoaks Blvd","name":""},
  {"lat":34.200644,"lon":-118.494064,"city":"Van Nuys","state":"CA","address":"16530 Sherman Way","name":""},
  {"lat":41.672379,"lon":-87.721335,"city":"Alsip","state":"IL","address":"12150 S Pulaski Rd","name":""},
  {"lat":41.672379,"lon":-87.721335,"city":"Alsip","state":"IL","address":"12150 S Pulaski Rd","name":""},
  {"lat":33.830905,"lon":-118.070346,"city":"Hawaiian Gardens","state":"CA","address":"12222 Carson St","name":""},
  {"lat":33.19283,"lon":-117.250813,"city":"Vista","state":"CA","address":"500 Hacienda Dr","name":""},
  {"lat":33.877601,"lon":-118.168716,"city":"Long Beach","state":"CA","address":"6760 Cherry Ave","name":""},
  {"lat":34.105395,"lon":-118.200108,"city":"Los Angeles","state":"CA","address":"5100 N Figueroa St","name":""},
  {"lat":34.042128,"lon":-118.310077,"city":"Los Angeles","state":"CA","address":"1717 S Western Ave","name":""},
  {"lat":32.848183,"lon":-116.985319,"city":"Santee","state":"CA","address":"9430 Cuyamaca St","name":""},
  {"lat":34.209104,"lon":-118.572805,"city":"Canoga Park","state":"CA","address":"20155 Saticoy St","name":""},
  {"lat":33.128719,"lon":-117.082998,"city":"Escondido","state":"CA","address":"644 N Broadway","name":""},
  {"lat":33.925937,"lon":-118.237377,"city":"Los Angeles","state":"CA","address":"11840 Wilmington Ave","name":""},
  {"lat":33.970651,"lon":-118.165975,"city":"Bell Gardens","state":"CA","address":"6901 Eastern Ave","name":""},
  {"lat":32.660251,"lon":-117.085464,"city":"National City","state":"CA","address":"1320 E 30Th St","name":""},
  {"lat":34.470162,"lon":-117.209059,"city":"Apple Valley","state":"CA","address":"20801 Bear Valley Rd","name":""},
  {"lat":33.941231,"lon":-118.044908,"city":"Whittier","state":"CA","address":"13413 Telegraph Rd","name":""},
  {"lat":34.887524,"lon":-117.021857,"city":"Barstow","state":"CA","address":"500 E Virginia Way","name":""},
  {"lat":33.876939,"lon":-118.167567,"city":"Long Beach","state":"CA","address":"6700 Cherry Ave","name":""},
  {"lat":34.134351,"lon":-117.225205,"city":"Highland","state":"CA","address":"26529 Highland Ave","name":""},
  {"lat":34.134351,"lon":-117.225205,"city":"Highland","state":"CA","address":"26529 Highland Ave","name":""},
  {"lat":34.414007,"lon":-118.470823,"city":"Santa Clarita","state":"CA","address":"19200 Soledad Canyon Rd","name":""},
  {"lat":33.803755,"lon":-117.226257,"city":"Perris","state":"CA","address":"1688 N Perris Blvd Ste M","name":""},
  {"lat":33.802194,"lon":-117.228546,"city":"Perris","state":"CA","address":"1688 N Perris Blvd Ste E","name":""},
  {"lat":34.08668,"lon":-118.175969,"city":"Los Angeles","state":"CA","address":"4910 Huntington Dr S","name":""},
  {"lat":33.71652,"lon":-116.233118,"city":"Indio","state":"CA","address":"82124 Us Highway 111","name":""},
  {"lat":34.079757,"lon":-117.352558,"city":"Colton","state":"CA","address":"1170 N Pepper Ave","name":""},
  {"lat":32.750801,"lon":-117.068176,"city":"San Diego","state":"CA","address":"5951 University Ave","name":""},
  {"lat":32.750844,"lon":-117.06788,"city":"San Diego","state":"CA","address":"5975 University Ave","name":""},
  {"lat":33.943599,"lon":-117.226272,"city":"Moreno Valley","state":"CA","address":"12250 Perris Blvd","name":""},
  {"lat":33.943943,"lon":-117.224609,"city":"Moreno Valley","state":"CA","address":"12200 Perris Blvd","name":""},
  {"lat":41.593926,"lon":-87.486781,"city":"Hammond","state":"IN","address":"1724 165Th St","name":""},
  {"lat":34.886967,"lon":-117.018257,"city":"Barstow","state":"CA","address":"580 E Virginia Way","name":""},
  {"lat":34.519389,"lon":-117.314519,"city":"Victorville","state":"CA","address":"14738 La Paz Dr","name":""},
  {"lat":33.987694,"lon":-118.310839,"city":"Los Angeles","state":"CA","address":"1820 W Slauson Ave","name":""},
  {"lat":33.986881,"lon":-118.187466,"city":"Maywood","state":"CA","address":"4400 Slauson Ave","name":""},
  {"lat":42.033672,"lon":-87.707283,"city":"Evanston","state":"IL","address":"2420 West Main St","name":""},
  {"lat":34.079826,"lon":-117.351311,"city":"Colton","state":"CA","address":"1150 N Pepper Ave","name":""},
  {"lat":32.680454,"lon":-115.501707,"city":"Calexico","state":"CA","address":"109 W Birch St","name":""},
  {"lat":32.680454,"lon":-115.501707,"city":"Calexico","state":"CA","address":"109 W Birch St","name":""},
  {"lat":33.919947,"lon":-117.236054,"city":"Moreno Valley","state":"CA","address":"24440 Alessandro Blvd","name":""},
  {"lat":41.837677,"lon":-87.741186,"city":"Cicero","state":"IL","address":"3039 S Cicero Ave","name":""},
  {"lat":41.837677,"lon":-87.741186,"city":"Cicero","state":"IL","address":"3039 S Cicero Ave","name":""},
  {"lat":32.831001,"lon":-117.163091,"city":"San Diego","state":"CA","address":"4995 Shawline St","name":""},
  {"lat":33.717949,"lon":-117.886633,"city":"Santa Ana","state":"CA","address":"2140 S Bristol St","name":""},
  {"lat":33.781238,"lon":-118.154151,"city":"Long Beach","state":"CA","address":"3210 E Anaheim St","name":""},
  {"lat":42.314469,"lon":-122.855931,"city":"Medford","state":"OR","address":"1301 Center Dr","name":""},
  {"lat":42.314469,"lon":-122.855931,"city":"Medford","state":"OR","address":"1301 Center Dr","name":""},
  {"lat":47.356379,"lon":-122.118499,"city":"Covington","state":"WA","address":"16735 Se 272Nd St","name":""},
  {"lat":47.356379,"lon":-122.118499,"city":"Covington","state":"WA","address":"16735 Se 272Nd St","name":""},
  {"lat":47.356379,"lon":-122.118499,"city":"Covington","state":"WA","address":"16735 Se 272Nd St","name":""},
  {"lat":45.502964,"lon":-122.5122,"city":"Portland","state":"OR","address":"14700 Se Division St","name":""},
  {"lat":33.349535,"lon":-111.911767,"city":"Tempe","state":"AZ","address":"1760 E. Elliot","name":""},
  {"lat":33.36226,"lon":-111.909144,"city":"Tempe","state":"AZ","address":"1835 E Guadalupe Rd","name":""},
  {"lat":33.36226,"lon":-111.909144,"city":"Tempe","state":"AZ","address":"1835 E Guadalupe Rd","name":""},
  {"lat":33.352435,"lon":-111.68928,"city":"Gilbert","state":"AZ","address":"3466 S. Power Rd.","name":""},
  {"lat":33.873547,"lon":-118.29481,"city":"Gardena","state":"CA","address":"1299 W Artesia Blvd","name":""},
  {"lat":33.899341,"lon":-118.366495,"city":"Hawthorne","state":"CA","address":"14500 Ocean Gate Ave","name":""},
  {"lat":34.025028,"lon":-118.30746,"city":"Los Angeles","state":"CA","address":"1748 S. Jefferson Blvd.","name":""},
  {"lat":32.742899,"lon":-117.037835,"city":"Lemon Grove","state":"CA","address":"7428 Broadway","name":""},
  {"lat":32.744057,"lon":-117.037582,"city":"Lemon Grove","state":"CA","address":"7420 Broadway","name":""},
  {"lat":34.104899,"lon":-117.524584,"city":"Rancho Cucamonga","state":"CA","address":"12879 Foothill Blvd","name":""},
  {"lat":34.068784,"lon":-117.979121,"city":"Baldwin Park","state":"CA","address":"3000 Baldwin Park Blvd","name":""},
  {"lat":32.772401,"lon":-117.15566,"city":"San Diego","state":"CA","address":"7730 Hazard Center Dr","name":""},
  {"lat":42.032683,"lon":-87.70699,"city":"Evanston","state":"IL","address":"2400 Main St","name":""},
  {"lat":33.905217,"lon":-118.144439,"city":"Downey","state":"CA","address":"13525 Lakewood Blvd","name":""},
  {"lat":33.746705,"lon":-117.86475,"city":"Santa Ana","state":"CA","address":"315 E 1St St","name":""},
  {"lat":33.857794,"lon":-117.94056,"city":"Fullerton","state":"CA","address":"914 W Orangethorpe Ave","name":""},
  {"lat":34.108147,"lon":-117.396779,"city":"Rialto","state":"CA","address":"1410 #G W Foothill Blvd","name":""},
  {"lat":34.10806,"lon":-117.399164,"city":"Rialto","state":"CA","address":"1410 W Foothill Blvd","name":""},
  {"lat":34.00178,"lon":-118.088356,"city":"Pico Rivera","state":"CA","address":"8620 Whittier Blvd","name":""},
  {"lat":34.065195,"lon":-117.225023,"city":"Redlands","state":"CA","address":"2070 W Redlands Blvd","name":""},
  {"lat":34.056986,"lon":-118.270399,"city":"Los Angeles","state":"CA","address":"1700 W 6Th St","name":""},
  {"lat":33.993935,"lon":-118.273378,"city":"Los Angeles","state":"CA","address":"5318 S Main St","name":""},
  {"lat":42.314469,"lon":-122.855931,"city":"Medford","state":"OR","address":"1301 Center Dr","name":""},
  {"lat":43.603879,"lon":-116.246006,"city":"Boise","state":"ID","address":"5230 W Franklin Rd","name":""},
  {"lat":43.603879,"lon":-116.246006,"city":"Boise","state":"ID","address":"5230 W Franklin Rd","name":""},
  {"lat":43.603879,"lon":-116.246006,"city":"Boise","state":"ID","address":"5230 W Franklin Rd","name":""},
  {"lat":42.43534,"lon":-123.305629,"city":"Grants Pass","state":"OR","address":"1101 Grants Pass Pkwy","name":""},
  {"lat":42.43534,"lon":-123.305629,"city":"Grants Pass","state":"OR","address":"1101 Grants Pass Pkwy","name":""},
  {"lat":42.43534,"lon":-123.305629,"city":"Grants Pass","state":"OR","address":"1101 Grants Pass Pkwy","name":""},
  {"lat":47.407072,"lon":-120.290994,"city":"East Wenatchee","state":"WA","address":"11 Grant Rd","name":""},
  {"lat":45.502964,"lon":-122.5122,"city":"Portland","state":"OR","address":"14700 Se Division St","name":""},
  {"lat":61.19448,"lon":-149.863814,"city":"Anchorage","state":"AK","address":"1000 E Northern Lights Blvd","name":""},
  {"lat":61.19448,"lon":-149.863814,"city":"Anchorage","state":"AK","address":"1000 E Northern Lights Blvd","name":""},
  {"lat":61.19448,"lon":-149.863814,"city":"Anchorage","state":"AK","address":"1000 E Northern Lights Blvd","name":""},
  {"lat":45.485423,"lon":-122.756037,"city":"Portland","state":"OR","address":"7700 Sw Beaverton Hillsdale Hwy","name":""},
  {"lat":45.485423,"lon":-122.756037,"city":"Portland","state":"OR","address":"7700 Sw Beaverton Hillsdale Hwy","name":""},
  {"lat":45.523957,"lon":-122.692796,"city":"Portland","state":"OR","address":"100 NW 20Th Pl","name":""},
  {"lat":33.352435,"lon":-111.68928,"city":"Gilbert","state":"AZ","address":"3490 S Power Rd","name":""},
  {"lat":33.352435,"lon":-111.68928,"city":"Gilbert","state":"AZ","address":"3490 S Power Rd","name":""},
  {"lat":34.601025,"lon":-112.456535,"city":"Prescott","state":"AZ","address":"3184 Willow Creek Rd","name":""},
  {"lat":34.600596,"lon":-112.45844,"city":"Prescott","state":"AZ","address":"3198 Willow Creek Rd","name":""},
  {"lat":34.600596,"lon":-112.45844,"city":"Prescott","state":"AZ","address":"3198 Willow Creek Rd","name":""},
  {"lat":33.592672,"lon":-112.41147,"city":"Surprise","state":"AZ","address":"16383 W. Cactus Rd","name":""},
  {"lat":33.592672,"lon":-112.41147,"city":"Surprise","state":"AZ","address":"16371 W Cactus Rd","name":""},
  {"lat":33.378592,"lon":-111.970248,"city":"Tempe","state":"AZ","address":"5110 S. WENDLER DRIVE","name":""},
  {"lat":33.379174,"lon":-111.976771,"city":"Tempe","state":"AZ","address":"2700 W Baseline Rd","name":""},
  {"lat":33.379174,"lon":-111.976771,"city":"Tempe","state":"AZ","address":"2700 W Baseline Rd","name":""},
  {"lat":32.34855,"lon":-111.099809,"city":"Marana","state":"AZ","address":"7840 N Silverbell Rd","name":""},
  {"lat":33.436059,"lon":-112.409649,"city":"Goodyear","state":"AZ","address":"1064 S Sarival Ave","name":""},
  {"lat":33.435665,"lon":-112.411951,"city":"Goodyear","state":"AZ","address":"16380 W Yuma Rd","name":""},
  {"lat":33.437491,"lon":-112.411304,"city":"Goodyear","state":"AZ","address":"16380 W Yuma Rd","name":""},
  {"lat":33.639219,"lon":-112.394598,"city":"Surprise","state":"AZ","address":"15502 W Bell Rd","name":""},
  {"lat":33.801868,"lon":-117.937759,"city":"Anaheim","state":"CA","address":"1616 W Katella Ave","name":""},
  {"lat":47.407072,"lon":-120.290994,"city":"East Wenatchee","state":"WA","address":"11 Grant Rd","name":""},
  {"lat":47.407072,"lon":-120.290994,"city":"East Wenatchee","state":"WA","address":"11 Grant Rd","name":""},
  {"lat":61.600669,"lon":-149.124516,"city":"Palmer","state":"AK","address":"170 W. Arctic Ave","name":""},
  {"lat":61.600669,"lon":-149.124516,"city":"Palmer","state":"AK","address":"535 E Palmer Wasilla Hwy","name":""},
  {"lat":61.600669,"lon":-149.124516,"city":"Palmer","state":"AK","address":"535 E Palmer Wasilla Hwy","name":""},
  {"lat":45.470741,"lon":-122.690231,"city":"Portland","state":"OR","address":"7555 Sw Barbur Blvd","name":""},
  {"lat":45.470741,"lon":-122.690231,"city":"Portland","state":"OR","address":"7555 Sw Barbur Blvd","name":""},
  {"lat":46.620139,"lon":-120.564365,"city":"Yakima","state":"WA","address":"1206 N 40Th Ave","name":""},
  {"lat":33.393872,"lon":-111.92449,"city":"Tempe","state":"AZ","address":"3255 S Rural Rd","name":""},
  {"lat":33.463042,"lon":-112.338997,"city":"Avondale","state":"AZ","address":"1575 N Dysart Rd","name":""},
  {"lat":33.434938,"lon":-112.558496,"city":"Buckeye","state":"AZ","address":"1300 S Watson Rd","name":""},
  {"lat":33.638177,"lon":-112.119906,"city":"Phoenix","state":"AZ","address":"2727 W Bell Rd","name":""},
  {"lat":33.636844,"lon":-112.200478,"city":"Glendale","state":"AZ","address":"6611 W Bell Rd","name":""},
  {"lat":45.523957,"lon":-122.692796,"city":"Portland","state":"OR","address":"100 NW 20Th Pl","name":""},
  {"lat":43.588472,"lon":-116.574511,"city":"Nampa","state":"ID","address":"50 2Nd St S","name":""},
  {"lat":43.588472,"lon":-116.574511,"city":"Nampa","state":"ID","address":"50 2Nd St S","name":""},
  {"lat":43.588472,"lon":-116.574511,"city":"Nampa","state":"ID","address":"50 2Nd St S","name":""},
  {"lat":44.63097,"lon":-123.075492,"city":"Albany","state":"OR","address":"2500 Santiam Hwy Se","name":""},
  {"lat":44.63097,"lon":-123.075492,"city":"Albany","state":"OR","address":"2500 Santiam Hwy Se","name":""},
  {"lat":44.63097,"lon":-123.075492,"city":"Albany","state":"OR","address":"2500 Santiam Hwy Se","name":""},
  {"lat":45.585829,"lon":-122.73805,"city":"Portland","state":"OR","address":"6850 N Lombard St","name":""},
  {"lat":33.592672,"lon":-112.41147,"city":"Surprise","state":"AZ","address":"16371 W Cactus Rd","name":""},
  {"lat":33.680176,"lon":-112.239296,"city":"Peoria","state":"AZ","address":"21630 N 83rd Ave","name":""},
  {"lat":33.680284,"lon":-112.239906,"city":"Peoria","state":"AZ","address":"8375 W Deer Valley Rd","name":""},
  {"lat":33.680284,"lon":-112.239906,"city":"Peoria","state":"AZ","address":"8375 W Deer Valley Rd","name":""},
  {"lat":33.159782,"lon":-111.56105,"city":"San Tan Valley","state":"AZ","address":"606 E Hunt Hwy","name":""},
  {"lat":33.160752,"lon":-111.560138,"city":"San Tan Valley","state":"AZ","address":"542 E Hunt Hwy","name":""},
  {"lat":33.160752,"lon":-111.560138,"city":"San Tan Valley","state":"AZ","address":"542 E Hunt Hwy","name":""},
  {"lat":33.481802,"lon":-112.016572,"city":"Phoenix","state":"AZ","address":"3036 E Thomas Rd","name":""},
  {"lat":32.350409,"lon":-111.099847,"city":"Tucson","state":"AZ","address":"7870 N Silverbell Rd","name":""},
  {"lat":32.350409,"lon":-111.099847,"city":"Tucson","state":"AZ","address":"7870 N Silverbell Rd","name":""},
  {"lat":33.571616,"lon":-112.060932,"city":"Phoenix","state":"AZ","address":"940 East Hatcher Road","name":""},
  {"lat":33.57279,"lon":-112.061058,"city":"Phoenix","state":"AZ","address":"850 E Hatcher Rd","name":""},
  {"lat":33.57279,"lon":-112.061058,"city":"Phoenix","state":"AZ","address":"850 E Hatcher Rd","name":""},
  {"lat":35.194086,"lon":-111.633607,"city":"Flagstaff","state":"AZ","address":"1322 E Route 66","name":""},
  {"lat":33.640373,"lon":-112.395334,"city":"Surprise","state":"AZ","address":"15510 W Bell Rd","name":""},
  {"lat":33.640373,"lon":-112.395334,"city":"Surprise","state":"AZ","address":"15510 W Bell Rd","name":""},
  {"lat":33.580695,"lon":-112.135349,"city":"Phoenix","state":"AZ","address":"3511 W Peoria Ave","name":""},
  {"lat":33.580695,"lon":-112.135349,"city":"Phoenix","state":"AZ","address":"3511 W Peoria Ave","name":""},
  {"lat":33.403918,"lon":-112.58741,"city":"Buckeye","state":"AZ","address":"4435 S Miller Rd","name":""},
  {"lat":33.403918,"lon":-112.58741,"city":"Buckeye","state":"AZ","address":"4625 S Miller Rd","name":""},
  {"lat":46.620139,"lon":-120.564365,"city":"Yakima","state":"WA","address":"1206 N 40Th Ave","name":""},
  {"lat":46.620139,"lon":-120.564365,"city":"Yakima","state":"WA","address":"1206 N 40Th Ave","name":""},
  {"lat":47.315344,"lon":-122.226304,"city":"Auburn","state":"WA","address":"801 Auburn Way N","name":""},
  {"lat":47.315344,"lon":-122.226304,"city":"Auburn","state":"WA","address":"801 Auburn Way N","name":""},
  {"lat":47.315344,"lon":-122.226304,"city":"Auburn","state":"WA","address":"801 Auburn Way N","name":""},
  {"lat":47.503286,"lon":-122.62923,"city":"Port Orchard","state":"WA","address":"1900 Se Sedgwick Rd","name":""},
  {"lat":33.450397,"lon":-111.802907,"city":"Mesa","state":"AZ","address":"1935 N Stapley Dr","name":""},
  {"lat":33.232731,"lon":-111.723131,"city":"Gilbert","state":"AZ","address":"6470 S Higley Rd","name":""},
  {"lat":33.218107,"lon":-111.565675,"city":"San Tan Valley","state":"AZ","address":"155 W Combs Rd","name":""},
  {"lat":33.321896,"lon":-111.929847,"city":"Tempe","state":"AZ","address":"9900 S Rural Rd","name":""},
  {"lat":33.365855,"lon":-111.603955,"city":"Mesa","state":"AZ","address":"2724 S Signal Butte Rd","name":""},
  {"lat":33.638671,"lon":-112.053584,"city":"Phoenix","state":"AZ","address":"1311 E Bell Rd","name":""},
  {"lat":45.585829,"lon":-122.73805,"city":"Portland","state":"OR","address":"6850 N Lombard St","name":""},
  {"lat":45.585829,"lon":-122.73805,"city":"Portland","state":"OR","address":"6850 N Lombard St","name":""},
  {"lat":45.527566,"lon":-122.595905,"city":"Portland","state":"OR","address":"6615 Ne Glisan St","name":""},
  {"lat":45.527566,"lon":-122.595905,"city":"Portland","state":"OR","address":"6615 Ne Glisan St","name":""},
  {"lat":61.13602,"lon":-149.9193,"city":"Anchorage","state":"AK","address":"9150 Northwood St","name":""},
  {"lat":61.13602,"lon":-149.9193,"city":"Anchorage","state":"AK","address":"2000 W Dimond Blvd","name":""},
  {"lat":33.481802,"lon":-112.016572,"city":"Phoenix","state":"AZ","address":"3036 E Thomas Rd","name":""},
  {"lat":33.578961,"lon":-111.760404,"city":"Fountain Hills","state":"AZ","address":"14845 E Shea Blvd","name":""},
  {"lat":33.578961,"lon":-111.760404,"city":"Fountain Hills","state":"AZ","address":"14845 E Shea Blvd","name":""},
  {"lat":33.377048,"lon":-112.168847,"city":"Laveen","state":"AZ","address":"7750 S. 51ST AVE","name":""},
  {"lat":33.379502,"lon":-112.17037,"city":"Laveen","state":"AZ","address":"5140 W Baseline Rd","name":""},
  {"lat":33.379502,"lon":-112.17037,"city":"Laveen","state":"AZ","address":"5140 W Baseline Rd","name":""},
  {"lat":33.570526,"lon":-111.887655,"city":"Scottsdale","state":"AZ","address":"9350 N 90Th St","name":""},
  {"lat":33.570468,"lon":-111.889168,"city":"Scottsdale","state":"AZ","address":"8900 E Via Linda","name":""},
  {"lat":35.195174,"lon":-111.635193,"city":"Flagstaff","state":"AZ","address":"201 N Switzer Canyon Dr","name":""},
  {"lat":35.195174,"lon":-111.635193,"city":"Flagstaff","state":"AZ","address":"201 N Switzer Canyon Dr","name":""},
  {"lat":33.580826,"lon":-111.889667,"city":"Scottsdale","state":"AZ","address":"10450 N 90Th St","name":""},
  {"lat":33.580826,"lon":-111.889667,"city":"Scottsdale","state":"AZ","address":"10450 N 90Th St","name":""},
  {"lat":34.588662,"lon":-112.339761,"city":"Prescott Valley","state":"AZ","address":"3170 N Glassford Hill Rd","name":""},
  {"lat":34.587977,"lon":-112.34197,"city":"Prescott Valley","state":"AZ","address":"3100 N Glassford Hill Rd","name":""},
  {"lat":33.403918,"lon":-112.58741,"city":"Buckeye","state":"AZ","address":"4625 S Miller Rd","name":""},
  {"lat":32.669002,"lon":-114.442531,"city":"Yuma","state":"AZ","address":"11203 S Frontage Rd","name":""},
  {"lat":32.668007,"lon":-114.440595,"city":"Yuma","state":"AZ","address":"11203 S Frontage Rd","name":""},
  {"lat":33.654083,"lon":-112.088745,"city":"Phoenix","state":"AZ","address":"1245 W Union Hills Dr","name":""},
  {"lat":33.653961,"lon":-112.101428,"city":"Phoenix","state":"AZ","address":"18420 N 19Th Ave","name":""},
  {"lat":33.653961,"lon":-112.101428,"city":"Phoenix","state":"AZ","address":"18420 N 19Th Ave","name":""},
  {"lat":33.304968,"lon":-111.998565,"city":"Phoenix","state":"AZ","address":"3955 E Chandler Blvd","name":""},
  {"lat":47.503286,"lon":-122.62923,"city":"Port Orchard","state":"WA","address":"1900 Se Sedgwick Rd","name":""},
  {"lat":47.503286,"lon":-122.62923,"city":"Port Orchard","state":"WA","address":"1900 Se Sedgwick Rd","name":""},
  {"lat":47.442945,"lon":-122.199398,"city":"Renton","state":"WA","address":"17801 108Th Ave Se","name":""},
  {"lat":47.442945,"lon":-122.199398,"city":"Renton","state":"WA","address":"17801 108Th Ave Se","name":""},
  {"lat":47.442945,"lon":-122.199398,"city":"Renton","state":"WA","address":"17801 108Th Ave Se","name":""},
  {"lat":44.906121,"lon":-123.040934,"city":"Salem","state":"OR","address":"3450 Commercial St Se","name":""},
  {"lat":44.906121,"lon":-123.040934,"city":"Salem","state":"OR","address":"3450 Commercial St Se","name":""},
  {"lat":34.587977,"lon":-112.34197,"city":"Prescott Valley","state":"AZ","address":"3100 N Glassford Hill Rd","name":""},
  {"lat":33.509894,"lon":-112.355997,"city":"Litchfield Park","state":"AZ","address":"13730 W Camelback Rd","name":""},
  {"lat":33.393426,"lon":-111.925711,"city":"Tempe","state":"AZ","address":"3285 S Rural Rd","name":""},
  {"lat":33.393872,"lon":-111.92449,"city":"Tempe","state":"AZ","address":"3255 S Rural Rd","name":""},
  {"lat":33.393872,"lon":-111.92449,"city":"Tempe","state":"AZ","address":"3255 S Rural Rd","name":""},
  {"lat":33.596354,"lon":-112.15055,"city":"Phoenix","state":"AZ","address":"4220 W Cactus Rd","name":""},
  {"lat":61.13602,"lon":-149.9193,"city":"Anchorage","state":"AK","address":"2000 W Dimond Blvd","name":""},
  {"lat":45.60584,"lon":-122.501507,"city":"Vancouver","state":"WA","address":"16600 Se Mcgillivray Blvd","name":""},
  {"lat":45.60584,"lon":-122.501507,"city":"Vancouver","state":"WA","address":"16600 Se Mcgillivray Blvd","name":""},
  {"lat":45.60584,"lon":-122.501507,"city":"Vancouver","state":"WA","address":"16600 Se Mcgillivray Blvd","name":""},
  {"lat":61.579542,"lon":-149.409117,"city":"Wasilla","state":"AK","address":"2191 E Parks Hwy","name":""},
  {"lat":61.579542,"lon":-149.409117,"city":"Wasilla","state":"AK","address":"1501 E Parks Hwy","name":""},
  {"lat":61.579542,"lon":-149.409117,"city":"Wasilla","state":"AK","address":"1501 E Parks Hwy","name":""},
  {"lat":44.575259,"lon":-123.274179,"city":"Corvallis","state":"OR","address":"777 NW Kings Blvd","name":""},
  {"lat":33.570468,"lon":-111.889168,"city":"Scottsdale","state":"AZ","address":"8900 E Via Linda","name":""},
  {"lat":34.719627,"lon":-112.002851,"city":"Cottonwood","state":"AZ","address":"1080 S State Route 260","name":""},
  {"lat":34.718376,"lon":-112.003227,"city":"Cottonwood","state":"AZ","address":"1100 S State Route 260","name":""},
  {"lat":34.718376,"lon":-112.003227,"city":"Cottonwood","state":"AZ","address":"1100 S State Route 260","name":""},
  {"lat":32.235203,"lon":-110.826168,"city":"Tucson","state":"AZ","address":"7770 E Speedway Blvd","name":""},
  {"lat":32.23407,"lon":-110.825661,"city":"Tucson","state":"AZ","address":"7812 E Speedway Blvd","name":""},
  {"lat":32.23407,"lon":-110.825661,"city":"Tucson","state":"AZ","address":"7812 E Speedway Blvd","name":""},
  {"lat":33.447386,"lon":-112.072287,"city":"Phoenix","state":"AZ","address":"100 E Jefferson St","name":""},
  {"lat":34.587977,"lon":-112.34197,"city":"Prescott Valley","state":"AZ","address":"3100 N Glassford Hill Rd","name":""},
  {"lat":33.393267,"lon":-111.940651,"city":"Tempe","state":"AZ","address":"34 W Southern","name":""},
  {"lat":33.393894,"lon":-111.941333,"city":"Tempe","state":"AZ","address":"3232 S Mill Ave","name":""},
  {"lat":33.393894,"lon":-111.941333,"city":"Tempe","state":"AZ","address":"3232 S Mill Ave","name":""},
  {"lat":33.752436,"lon":-111.990426,"city":"Cave Creek","state":"AZ","address":"29455 N Cave Creek Rd","name":""},
  {"lat":33.752436,"lon":-111.990426,"city":"Cave Creek","state":"AZ","address":"29455 N Cave Creek Rd","name":""},
  {"lat":33.4664,"lon":-112.15055,"city":"Phoenix","state":"AZ","address":"4260 W Mcdowell Rd","name":""},
  {"lat":32.668007,"lon":-114.440595,"city":"Yuma","state":"AZ","address":"11203 S Frontage Rd","name":""},
  {"lat":31.555149,"lon":-110.253521,"city":"Sierra Vista","state":"AZ","address":"4383 E Hwy 90","name":""},
  {"lat":31.556419,"lon":-110.253517,"city":"Sierra Vista","state":"AZ","address":"4351 E Highway 90","name":""},
  {"lat":31.556419,"lon":-110.253517,"city":"Sierra Vista","state":"AZ","address":"4351 E Highway 90","name":""},
  {"lat":33.262424,"lon":-111.60302,"city":"Queen Creek","state":"AZ","address":"22263 E Queen Creek Rd","name":""},
  {"lat":33.262424,"lon":-111.60302,"city":"Queen Creek","state":"AZ","address":"22265 E Queen Creek Rd","name":""},
  {"lat":33.262424,"lon":-111.60302,"city":"Queen Creek","state":"AZ","address":"22265 E Queen Creek Rd","name":""},
  {"lat":33.315785,"lon":-112.005635,"city":"Phoenix","state":"AZ","address":"3631 E Ray Rd","name":""},
  {"lat":33.376281,"lon":-111.721756,"city":"Gilbert","state":"AZ","address":"1425 N Higley Rd","name":""},
  {"lat":33.376732,"lon":-111.720379,"city":"Gilbert","state":"AZ","address":"1455 N Higley Rd","name":""},
  {"lat":33.376732,"lon":-111.720379,"city":"Gilbert","state":"AZ","address":"1455 N Higley Rd","name":""},
  {"lat":33.37923,"lon":-111.843893,"city":"Mesa","state":"AZ","address":"560 W Baseline Rd","name":""},
  {"lat":33.303538,"lon":-111.998754,"city":"Phoenix","state":"AZ","address":"3949 E Chandler Blvd","name":""},
  {"lat":33.303538,"lon":-111.998754,"city":"Phoenix","state":"AZ","address":"3949 E Chandler Blvd","name":""},
  {"lat":33.348099,"lon":-111.857972,"city":"Chandler","state":"AZ","address":"981 W Elliot Rd","name":""},
  {"lat":44.906121,"lon":-123.040934,"city":"Salem","state":"OR","address":"3450 Commercial St Se","name":""},
  {"lat":46.160422,"lon":-123.903109,"city":"Warrenton","state":"OR","address":"695 S Highway 101","name":""},
  {"lat":46.160422,"lon":-123.903109,"city":"Warrenton","state":"OR","address":"695 S Highway 101","name":""},
  {"lat":46.160422,"lon":-123.903109,"city":"Warrenton","state":"OR","address":"695 S Highway 101","name":""},
  {"lat":48.743477,"lon":-122.464562,"city":"Bellingham","state":"WA","address":"800 Lakeway Dr","name":""},
  {"lat":48.743477,"lon":-122.464562,"city":"Bellingham","state":"WA","address":"800 Lakeway Dr","name":""},
  {"lat":33.597998,"lon":-112.149981,"city":"Phoenix","state":"AZ","address":"4204 W Cactus Rd","name":""},
  {"lat":33.597998,"lon":-112.149981,"city":"Phoenix","state":"AZ","address":"4204 W Cactus Rd","name":""},
  {"lat":33.424866,"lon":-112.239067,"city":"Phoenix","state":"AZ","address":"2610 S 83Rd Ave","name":""},
  {"lat":33.424154,"lon":-112.240331,"city":"Phoenix","state":"AZ","address":"2626 S 83Rd Ave","name":""},
  {"lat":33.424154,"lon":-112.240331,"city":"Phoenix","state":"AZ","address":"2626 S 83Rd Ave","name":""},
  {"lat":33.640285,"lon":-111.989044,"city":"Phoenix","state":"AZ","address":"4235 E. Bell Rd.","name":""},
  {"lat":33.642779,"lon":-111.975981,"city":"Scottsdale","state":"AZ","address":"4842 E Bell Rd","name":""},
  {"lat":44.575259,"lon":-123.274179,"city":"Corvallis","state":"OR","address":"777 NW Kings Blvd","name":""},
  {"lat":45.404549,"lon":-122.570084,"city":"Clackamas","state":"OR","address":"16301 Se 82Nd Dr","name":""},
  {"lat":45.404549,"lon":-122.570084,"city":"Clackamas","state":"OR","address":"16301 Se 82Nd Dr","name":""},
  {"lat":47.477559,"lon":-122.21929,"city":"Renton","state":"WA","address":"365 Renton Center Way Sw","name":""},
  {"lat":47.477559,"lon":-122.21929,"city":"Renton","state":"WA","address":"365 Renton Center Way Sw","name":""},
  {"lat":47.477559,"lon":-122.21929,"city":"Renton","state":"WA","address":"365 Renton Center Way Sw","name":""},
  {"lat":47.943915,"lon":-122.105196,"city":"Snohomish","state":"WA","address":"2801 Bickford Ave","name":""},
  {"lat":33.447386,"lon":-112.072287,"city":"Phoenix","state":"AZ","address":"100 E Jefferson St","name":""},
  {"lat":32.206661,"lon":-110.903582,"city":"Tucson","state":"AZ","address":"4144 E 22nd St","name":""},
  {"lat":32.205131,"lon":-110.904147,"city":"Tucson","state":"AZ","address":"4150 E 22Nd St","name":""},
  {"lat":33.467809,"lon":-112.150681,"city":"Phoenix","state":"AZ","address":"4230 W Mcdowell Rd","name":""},
  {"lat":33.467809,"lon":-112.150681,"city":"Phoenix","state":"AZ","address":"4230 W Mcdowell Rd","name":""},
  {"lat":33.379285,"lon":-112.06611,"city":"Phoenix","state":"AZ","address":"520 E Baseline Rd","name":""},
  {"lat":33.379285,"lon":-112.06611,"city":"Phoenix","state":"AZ","address":"520 E Baseline Rd","name":""},
  {"lat":33.379285,"lon":-112.06611,"city":"Phoenix","state":"AZ","address":"520 E Baseline Rd","name":""},
  {"lat":33.220344,"lon":-111.634323,"city":"Queen Creek","state":"AZ","address":"25105 S Ellsworth Rd","name":""},
  {"lat":33.220344,"lon":-111.634323,"city":"Queen Creek","state":"AZ","address":"25105 S Ellsworth Rd","name":""},
  {"lat":33.316835,"lon":-112.005466,"city":"Phoenix","state":"AZ","address":"3616 E Ray Rd","name":""},
  {"lat":33.316835,"lon":-112.005466,"city":"Phoenix","state":"AZ","address":"3616 E Ray Rd","name":""},
  {"lat":33.406222,"lon":-111.632177,"city":"Mesa","state":"AZ","address":"445 S Ellsworth Rd","name":""},
  {"lat":33.406867,"lon":-111.630782,"city":"Mesa","state":"AZ","address":"435 S Ellsworth Rd","name":""},
  {"lat":33.406867,"lon":-111.630782,"city":"Mesa","state":"AZ","address":"435 S Ellsworth Rd","name":""},
  {"lat":33.641049,"lon":-112.012129,"city":"Phoenix","state":"AZ","address":"3244 E Bell Rd","name":""},
  {"lat":33.64197,"lon":-112.011324,"city":"Phoenix","state":"AZ","address":"3246 E Bell Rd","name":""},
  {"lat":33.380568,"lon":-111.843593,"city":"Mesa","state":"AZ","address":"554 W Baseline Rd","name":""},
  {"lat":33.380568,"lon":-111.843593,"city":"Mesa","state":"AZ","address":"554 W Baseline Rd","name":""},
  {"lat":33.479187,"lon":-111.984109,"city":"Phoenix","state":"AZ","address":"4507 E. Thomas Rd","name":""},
  {"lat":33.479187,"lon":-111.984109,"city":"Phoenix","state":"AZ","address":"4505 E Thomas Rd","name":""},
  {"lat":33.479187,"lon":-111.984109,"city":"Phoenix","state":"AZ","address":"4505 E Thomas Rd","name":""},
  {"lat":33.784284,"lon":-112.11848,"city":"Phoenix","state":"AZ","address":"2770 West Dove Valley","name":""},
  {"lat":33.348099,"lon":-111.857972,"city":"Chandler","state":"AZ","address":"981 W Elliot Rd","name":""},
  {"lat":33.321889,"lon":-111.874927,"city":"Chandler","state":"AZ","address":"1950 W Ray Rd","name":""},
  {"lat":33.321889,"lon":-111.874927,"city":"Chandler","state":"AZ","address":"1950 W Ray Rd","name":""},
  {"lat":33.625261,"lon":-111.943485,"city":"Scottsdale","state":"AZ","address":"6347 E Greenway Rd","name":""},
  {"lat":33.624603,"lon":-111.94428,"city":"Scottsdale","state":"AZ","address":"6321 E Greenway Rd","name":""},
  {"lat":33.624603,"lon":-111.94428,"city":"Scottsdale","state":"AZ","address":"6321 E Greenway Rd","name":""},
  {"lat":33.493824,"lon":-112.202769,"city":"Phoenix","state":"AZ","address":"6615 W Indian School Rd","name":""},
  {"lat":48.743477,"lon":-122.464562,"city":"Bellingham","state":"WA","address":"800 Lakeway Dr","name":""},
  {"lat":47.475271,"lon":-122.331592,"city":"Burien","state":"WA","address":"14300 1St Ave S","name":""},
  {"lat":47.475271,"lon":-122.331592,"city":"Burien","state":"WA","address":"14300 1St Ave S","name":""},
  {"lat":47.475271,"lon":-122.331592,"city":"Burien","state":"WA","address":"14300 1St Ave S","name":""},
  {"lat":47.307272,"lon":-122.581157,"city":"Gig Harbor","state":"WA","address":"5502 Point Fosdick Dr","name":""},
  {"lat":47.307272,"lon":-122.581157,"city":"Gig Harbor","state":"WA","address":"5502 Point Fosdick Dr","name":""},
  {"lat":33.642779,"lon":-111.975981,"city":"Scottsdale","state":"AZ","address":"4842 E Bell Rd","name":""},
  {"lat":33.335031,"lon":-111.808102,"city":"Gilbert","state":"AZ","address":"849 W Warner Rd","name":""},
  {"lat":33.333992,"lon":-111.808364,"city":"Gilbert","state":"AZ","address":"855 W Warner Rd","name":""},
  {"lat":33.333992,"lon":-111.808364,"city":"Gilbert","state":"AZ","address":"855 W Warner Rd","name":""},
  {"lat":33.63784,"lon":-112.205772,"city":"Scottsdale","state":"AZ","address":"6925 East Indian School Rd.","name":""},
  {"lat":33.636871,"lon":-112.200496,"city":"Glendale","state":"AZ","address":"6611 W Bell Rd","name":""},
  {"lat":33.636871,"lon":-112.200496,"city":"Glendale","state":"AZ","address":"6611 W Bell Rd","name":""},
  {"lat":47.943915,"lon":-122.105196,"city":"Snohomish","state":"WA","address":"2801 Bickford Ave","name":""},
  {"lat":47.943915,"lon":-122.105196,"city":"Snohomish","state":"WA","address":"2801 Bickford Ave","name":""},
  {"lat":47.166447,"lon":-122.150956,"city":"Bonney Lake","state":"WA","address":"20904 State Route 410 E","name":""},
  {"lat":47.166447,"lon":-122.150956,"city":"Bonney Lake","state":"WA","address":"20904 State Route 410 E","name":""},
  {"lat":32.205131,"lon":-110.904147,"city":"Tucson","state":"AZ","address":"4150 E 22Nd St","name":""},
  {"lat":33.233829,"lon":-111.720459,"city":"Gilbert","state":"AZ","address":"3127 S. Chandler Heights","name":""},
  {"lat":33.232731,"lon":-111.723131,"city":"Gilbert","state":"AZ","address":"6470 S Higley Rd","name":""},
  {"lat":33.232731,"lon":-111.723131,"city":"Gilbert","state":"AZ","address":"6470 S Higley Rd","name":""},
  {"lat":33.433854,"lon":-112.556393,"city":"Buckeye","state":"AZ","address":"1380 S Watson Rd","name":""},
  {"lat":33.434938,"lon":-112.558496,"city":"Buckeye","state":"AZ","address":"1300 S Watson Rd","name":""},
  {"lat":33.220344,"lon":-111.634323,"city":"Queen Creek","state":"AZ","address":"25105 S Ellsworth Rd","name":""},
  {"lat":33.452813,"lon":-111.70121,"city":"Mesa","state":"AZ","address":"2041 N. Recker Rd.","name":""},
  {"lat":33.450301,"lon":-111.702844,"city":"Mesa","state":"AZ","address":"5941 E Mckellips Rd","name":""},
  {"lat":33.450301,"lon":-111.702844,"city":"Mesa","state":"AZ","address":"5941 E Mckellips Rd","name":""},
  {"lat":33.595419,"lon":-112.220814,"city":"Peoria","state":"AZ","address":"7509 W Cactus Rd","name":""},
  {"lat":33.594497,"lon":-112.218931,"city":"Peoria","state":"AZ","address":"7455 W Cactus Rd","name":""},
  {"lat":33.594497,"lon":-112.218931,"city":"Peoria","state":"AZ","address":"7455 W Cactus Rd","name":""},
  {"lat":33.506939,"lon":-112.041379,"city":"Phoenix","state":"AZ","address":"4724 N 20Th St","name":""},
  {"lat":33.64197,"lon":-112.011324,"city":"Phoenix","state":"AZ","address":"3246 E Bell Rd","name":""},
  {"lat":33.247822,"lon":-111.78982,"city":"Chandler","state":"AZ","address":"2955 E. Ocotillo Road","name":""},
  {"lat":33.245519,"lon":-111.79158,"city":"Chandler","state":"AZ","address":"2929 E. Ocotillo Rd.","name":""},
  {"lat":33.245519,"lon":-111.79158,"city":"Chandler","state":"AZ","address":"2929 E Ocotillo Rd","name":""},
  {"lat":32.940831,"lon":-111.75597,"city":"Casa Grande","state":"AZ","address":"2862 N Pinal Ave","name":""},
  {"lat":32.940457,"lon":-111.754323,"city":"Casa Grande","state":"AZ","address":"2858 N Pinal Ave","name":""},
  {"lat":32.940457,"lon":-111.754323,"city":"Casa Grande","state":"AZ","address":"2858 N Pinal Ave","name":""},
  {"lat":33.717491,"lon":-112.11649,"city":"Phoenix","state":"AZ","address":"26390 N Norterra Pkwy","name":""},
  {"lat":33.786128,"lon":-112.118518,"city":"Phoenix","state":"AZ","address":"2800 West Dove Valley","name":""},
  {"lat":33.786026,"lon":-112.1194,"city":"Phoenix","state":"AZ","address":"2800 W Dove Valley Rd","name":""},
  {"lat":33.508778,"lon":-112.356731,"city":"Litchfield Park","state":"AZ","address":"13710 W. Camelback Road","name":""},
  {"lat":33.509991,"lon":-112.355685,"city":"Litchfield Park","state":"AZ","address":"13730 W Camelback Rd","name":""},
  {"lat":33.493071,"lon":-112.201674,"city":"Phoenix","state":"AZ","address":"6601 W Indian School Rd","name":""},
  {"lat":33.493071,"lon":-112.201674,"city":"Phoenix","state":"AZ","address":"6601 W Indian School Rd","name":""},
  {"lat":33.652232,"lon":-112.25683,"city":"Peoria","state":"AZ","address":"9247 W Union Hills","name":""},
  {"lat":33.651245,"lon":-112.256552,"city":"Peoria","state":"AZ","address":"9245 W Union Hills Dr","name":""},
  {"lat":33.651245,"lon":-112.256552,"city":"Peoria","state":"AZ","address":"9245 W Union Hills Dr","name":""},
  {"lat":47.307272,"lon":-122.581157,"city":"Gig Harbor","state":"WA","address":"5502 Point Fosdick Dr","name":""},
  {"lat":47.762117,"lon":-122.347742,"city":"Shoreline","state":"WA","address":"18325 Aurora Ave N","name":""},
  {"lat":47.762117,"lon":-122.347742,"city":"Shoreline","state":"WA","address":"18325 Aurora Ave N","name":""},
  {"lat":44.968332,"lon":-123.030178,"city":"Salem","state":"OR","address":"2980 River Drive N","name":""},
  {"lat":44.968332,"lon":-123.030178,"city":"Salem","state":"OR","address":"2855 Broadway St Ne","name":""},
  {"lat":44.968332,"lon":-123.030178,"city":"Salem","state":"OR","address":"2855 Broadway St Ne","name":""},
  {"lat":47.166447,"lon":-122.150956,"city":"Bonney Lake","state":"WA","address":"20904 State Route 410 E","name":""},
  {"lat":47.204496,"lon":-122.227855,"city":"Sumner","state":"WA","address":"1201 Valley Ave E","name":""},
  {"lat":47.204496,"lon":-122.227855,"city":"Sumner","state":"WA","address":"1201 Valley Ave E","name":""},
  {"lat":47.204496,"lon":-122.227855,"city":"Sumner","state":"WA","address":"1201 Valley Ave E","name":""},
  {"lat":44.267395,"lon":-121.176684,"city":"Redmond","state":"OR","address":"944 Sw Veterans Way","name":""},
  {"lat":44.267395,"lon":-121.176684,"city":"Redmond","state":"OR","address":"944 Sw Veterans Way","name":""},
  {"lat":33.434938,"lon":-112.558496,"city":"Buckeye","state":"AZ","address":"1300 S Watson Rd","name":""},
  {"lat":33.523562,"lon":-112.153022,"city":"Glendale","state":"AZ","address":"4353 W Bethany Home Rd","name":""},
  {"lat":33.522544,"lon":-112.153376,"city":"Glendale","state":"AZ","address":"4353 W Bethany Home Rd","name":""},
  {"lat":33.522544,"lon":-112.153376,"city":"Glendale","state":"AZ","address":"4353 W Bethany Home Rd","name":""},
  {"lat":32.397187,"lon":-110.995123,"city":"Oro Valley","state":"AZ","address":"10520 N La Canada Drive","name":""},
  {"lat":32.396452,"lon":-110.99375,"city":"Oro Valley","state":"AZ","address":"10450 N La Canada Dr","name":""},
  {"lat":32.396452,"lon":-110.99375,"city":"Oro Valley","state":"AZ","address":"10450 N La Canada Dr","name":""},
  {"lat":33.525214,"lon":-112.204251,"city":"Glendale","state":"AZ","address":"5616 N 67th Ave.","name":""},
  {"lat":33.506939,"lon":-112.041379,"city":"Phoenix","state":"AZ","address":"4724 N 20Th St","name":""},
  {"lat":32.879249,"lon":-111.729356,"city":"Casa Grande","state":"AZ","address":"1349 E Florence Blvd","name":""},
  {"lat":32.878636,"lon":-111.727735,"city":"Casa Grande","state":"AZ","address":"1385 E Florence Blvd","name":""},
  {"lat":32.878636,"lon":-111.727735,"city":"Casa Grande","state":"AZ","address":"1385 E Florence Blvd","name":""},
  {"lat":33.639053,"lon":-112.053635,"city":"Phoenix","state":"AZ","address":"1307 E. Bell Rd.","name":""},
  {"lat":33.63874,"lon":-112.053552,"city":"Phoenix","state":"AZ","address":"1311 E. Bell Rd.","name":""},
  {"lat":33.63874,"lon":-112.053552,"city":"Phoenix","state":"AZ","address":"1311 E Bell Rd","name":""},
  {"lat":32.400789,"lon":-110.95663,"city":"Oro Valley","state":"AZ","address":"10755 N 1st Avenue","name":""},
  {"lat":33.724009,"lon":-112.115957,"city":"Phoenix","state":"AZ","address":"26300 N Norterra Pkwy","name":""},
  {"lat":33.724009,"lon":-112.115957,"city":"Phoenix","state":"AZ","address":"26300 N Norterra Pkwy","name":""},
  {"lat":33.564647,"lon":-112.25374,"city":"Peoria","state":"AZ","address":"8280 W Olive Ave","name":""},
  {"lat":33.564647,"lon":-112.25374,"city":"Peoria","state":"AZ","address":"9043 W Olive Ave","name":""},
  {"lat":33.564647,"lon":-112.25374,"city":"Peoria","state":"AZ","address":"9043 W Olive Ave","name":""},
  {"lat":33.291215,"lon":-111.720394,"city":"Gilbert","state":"AZ","address":"3271 E Pecos Rd","name":""},
  {"lat":33.290439,"lon":-111.719626,"city":"Gilbert","state":"AZ","address":"3261 E Pecos Rd","name":""},
  {"lat":33.509991,"lon":-112.355685,"city":"Litchfield Park","state":"AZ","address":"13730 W Camelback Rd","name":""},
  {"lat":45.533039,"lon":-122.634924,"city":"Portland","state":"OR","address":"3030 Ne Weidler St","name":""},
  {"lat":45.533039,"lon":-122.634924,"city":"Portland","state":"OR","address":"3030 Ne Weidler St","name":""},
  {"lat":47.099214,"lon":-122.296862,"city":"Puyallup","state":"WA","address":"17404 MERIDIAN E","name":""},
  {"lat":47.099214,"lon":-122.296862,"city":"Puyallup","state":"WA","address":"17404 MERIDIAN E","name":""},
  {"lat":47.099214,"lon":-122.296862,"city":"Puyallup","state":"WA","address":"17404 MERIDIAN E","name":""},
  {"lat":64.835365,"lon":-147.817645,"city":"Fairbanks","state":"AK","address":"1382 S University Ave","name":""},
  {"lat":44.267395,"lon":-121.176684,"city":"Redmond","state":"OR","address":"944 Sw Veterans Way","name":""},
  {"lat":45.4249,"lon":-122.634469,"city":"Milwaukie","state":"OR","address":"13625 Se Mcloughlin Blvd","name":""},
  {"lat":45.417007,"lon":-122.630424,"city":"Oak Grove","state":"OR","address":"14700 Se Mcloughlin Blvd","name":""},
  {"lat":45.417007,"lon":-122.630424,"city":"Oak Grove","state":"OR","address":"14700 Se Mcloughlin Blvd","name":""},
  {"lat":45.518962,"lon":-122.841696,"city":"Beaverton","state":"OR","address":"15995 Sw Walker Rd","name":""},
  {"lat":45.518962,"lon":-122.841696,"city":"Beaverton","state":"OR","address":"15995 Sw Walker Rd","name":""},
  {"lat":33.525214,"lon":-112.204251,"city":"Glendale","state":"AZ","address":"6710 W Bethany Home Rd","name":""},
  {"lat":33.525214,"lon":-112.204251,"city":"Glendale","state":"AZ","address":"6710 W Bethany Home Rd","name":""},
  {"lat":32.400794,"lon":-110.957847,"city":"Oro Valley","state":"AZ","address":"10661 N Oracle Rd","name":""},
  {"lat":32.400794,"lon":-110.957847,"city":"Oro Valley","state":"AZ","address":"10661 N Oracle Rd","name":""},
  {"lat":33.435009,"lon":-112.303909,"city":"Avondale","state":"AZ","address":"11415 W Buckeye Rd","name":""},
  {"lat":33.290439,"lon":-111.719626,"city":"Gilbert","state":"AZ","address":"3261 E Pecos Rd","name":""},
  {"lat":32.1319,"lon":-111.004548,"city":"Tucson","state":"AZ","address":"1805 W. Valencia Rd.","name":""},
  {"lat":32.1319,"lon":-111.004548,"city":"Tucson","state":"AZ","address":"1795 W. Valencia Rd.","name":""},
  {"lat":32.1319,"lon":-111.004548,"city":"Tucson","state":"AZ","address":"1795 W Valencia Rd","name":""},
  {"lat":33.696822,"lon":-112.41378,"city":"Surprise","state":"AZ","address":"16454 W Pat Tillman Rd","name":""},
  {"lat":64.835321,"lon":-147.817606,"city":"Fairbanks","state":"AK","address":"1384 S University Ave","name":""},
  {"lat":64.835321,"lon":-147.817606,"city":"Fairbanks","state":"AK","address":"1384 S University Ave","name":""},
  {"lat":45.771609,"lon":-122.540657,"city":"Battle Ground","state":"WA","address":"214 Nw 12Th Ave","name":""},
  {"lat":45.784116,"lon":-122.548961,"city":"Battle Ground","state":"WA","address":"401 Nw 12Th Ave","name":""},
  {"lat":45.784116,"lon":-122.548961,"city":"Battle Ground","state":"WA","address":"401 Nw 12Th Ave","name":""},
  {"lat":45.722394,"lon":-122.668316,"city":"Vancouver","state":"WA","address":"14007 NE 3rd Court","name":""},
  {"lat":45.518962,"lon":-122.841696,"city":"Beaverton","state":"OR","address":"15995 Sw Walker Rd","name":""},
  {"lat":45.402856,"lon":-122.292464,"city":"Sandy","state":"OR","address":"16625 362ND Ave","name":""},
  {"lat":45.402856,"lon":-122.292464,"city":"Sandy","state":"OR","address":"16625 362ND Ave","name":""},
  {"lat":45.402856,"lon":-122.292464,"city":"Sandy","state":"OR","address":"16625 362ND Ave","name":""},
  {"lat":48.466745,"lon":-122.333507,"city":"Burlington","state":"WA","address":"920 S Burlington Blvd","name":""},
  {"lat":48.466745,"lon":-122.333507,"city":"Burlington","state":"WA","address":"920 S Burlington Blvd","name":""},
  {"lat":48.466745,"lon":-122.333507,"city":"Burlington","state":"WA","address":"920 S Burlington Blvd","name":""},
  {"lat":47.807305,"lon":-122.205946,"city":"Bothell","state":"WA","address":"21045 Bothell Everett Hwy","name":""},
  {"lat":33.43396,"lon":-112.304428,"city":"Avondale","state":"AZ","address":"11425 W Buckeye Rd","name":""},
  {"lat":33.43396,"lon":-112.304428,"city":"Avondale","state":"AZ","address":"11425 W Buckeye Rd","name":""},
  {"lat":33.610369,"lon":-112.183738,"city":"Glendale","state":"AZ","address":"5777 W Thunderbird Rd","name":""},
  {"lat":33.60931,"lon":-112.184028,"city":"Glendale","state":"AZ","address":"5771 W Thunderbird Rd","name":""},
  {"lat":33.60931,"lon":-112.184028,"city":"Glendale","state":"AZ","address":"5771 W Thunderbird Rd","name":""},
  {"lat":33.698514,"lon":-112.411469,"city":"Surprise","state":"AZ","address":"16400 W Pat Tillman Blvd","name":""},
  {"lat":33.698514,"lon":-112.411469,"city":"Surprise","state":"AZ","address":"16400 W Pat Tillman Blvd","name":""},
  {"lat":33.511415,"lon":-112.085451,"city":"Phoenix","state":"AZ","address":"744 W Camelback Rd","name":""},
  {"lat":33.511415,"lon":-112.085451,"city":"Phoenix","state":"AZ","address":"744 W Camelback Rd","name":""},
  {"lat":33.378469,"lon":-111.790312,"city":"Gilbert","state":"AZ","address":"1911 E Baseline Rd","name":""},
  {"lat":33.376947,"lon":-111.791134,"city":"Gilbert","state":"AZ","address":"1845 E Baseline Rd","name":""},
  {"lat":45.720609,"lon":-122.662498,"city":"Vancouver","state":"WA","address":"800 Ne Tenney Rd","name":""},
  {"lat":45.720609,"lon":-122.662498,"city":"Vancouver","state":"WA","address":"800 Ne Tenney Rd","name":""},
  {"lat":45.301001,"lon":-122.770783,"city":"Wilsonville","state":"OR","address":"30300 Sw Boones Ferry Rd","name":""},
  {"lat":45.301001,"lon":-122.770783,"city":"Wilsonville","state":"OR","address":"30300 Sw Boones Ferry Rd","name":""},
  {"lat":61.341355,"lon":-149.55534,"city":"Eagle River","state":"AK","address":"13401 Old Glenn Hwy","name":""},
  {"lat":47.807305,"lon":-122.205946,"city":"Bothell","state":"WA","address":"21045 Bothell Everett Hwy","name":""},
  {"lat":47.82217,"lon":-122.295509,"city":"Lynnwood","state":"WA","address":"4615 196Th St Sw Ste 175","name":""},
  {"lat":47.82217,"lon":-122.295509,"city":"Lynnwood","state":"WA","address":"4615 196Th St Sw Ste 175","name":""},
  {"lat":47.82217,"lon":-122.295509,"city":"Lynnwood","state":"WA","address":"4615 196Th St Sw Ste 175","name":""},
  {"lat":33.376947,"lon":-111.791134,"city":"Gilbert","state":"AZ","address":"1845 E Baseline Rd","name":""},
  {"lat":33.306053,"lon":-111.787535,"city":"Gilbert","state":"AZ","address":"101 E Williams Field Rd","name":""},
  {"lat":33.304864,"lon":-111.787944,"city":"Gilbert","state":"AZ","address":"87 E Williams Field Rd","name":""},
  {"lat":33.304864,"lon":-111.787944,"city":"Gilbert","state":"AZ","address":"87 E Williams Field Rd","name":""},
  {"lat":32.42914,"lon":-111.2054,"city":"Marana","state":"AZ","address":"11340 W Tangerine Rd","name":""},
  {"lat":32.428663,"lon":-111.20519,"city":"Marana","state":"AZ","address":"11350 W Tangerine Rd","name":""},
  {"lat":32.428663,"lon":-111.20519,"city":"Marana","state":"AZ","address":"11350 W Tangerine Rd","name":""},
  {"lat":33.378287,"lon":-112.032261,"city":"Phoenix","state":"AZ","address":"2246 East Baseline Road","name":""},
  {"lat":61.341355,"lon":-149.55534,"city":"Eagle River","state":"AK","address":"13401 Old Glenn Hwy","name":""},
  {"lat":61.341355,"lon":-149.55534,"city":"Eagle River","state":"AK","address":"13401 Old Glenn Hwy","name":""},
  {"lat":45.428533,"lon":-122.48779,"city":"Happy Valley","state":"OR","address":"17005 SE Sunnyside Rd","name":""},
  {"lat":45.428533,"lon":-122.48779,"city":"Happy Valley","state":"OR","address":"17005 SE Sunnyside Rd","name":""},
  {"lat":45.428533,"lon":-122.48779,"city":"Happy Valley","state":"OR","address":"17005 SE Sunnyside Rd","name":""},
  {"lat":33.379551,"lon":-112.031812,"city":"Phoenix","state":"AZ","address":"2250 E Baseline Rd","name":""},
  {"lat":33.379551,"lon":-112.031812,"city":"Phoenix","state":"AZ","address":"2250 E Baseline Rd","name":""},
  {"lat":33.751669,"lon":-112.31419,"city":"Peoria","state":"AZ","address":"29665 N El Mirage Rd","name":""},
  {"lat":33.75125,"lon":-112.3126,"city":"Peoria","state":"AZ","address":"11701 W Lone Mountain Pkwy","name":""},
  {"lat":38.453458,"lon":-85.673259,"city":"Charlestown","state":"IN","address":"9501 County Road 403","name":""},
  {"lat":38.453458,"lon":-85.673259,"city":"Charlestown","state":"IN","address":"9501 County Road 403","name":""},
  {"lat":38.453458,"lon":-85.673259,"city":"Charlestown","state":"IN","address":"9501 County Road 403","name":""},
  {"lat":38.86217,"lon":-86.50863,"city":"Bedford","state":"IN","address":"2631 16th St","name":""},
  {"lat":33.75125,"lon":-112.3126,"city":"Peoria","state":"AZ","address":"11701 W Lone Mountain Pkwy","name":""},
  {"lat":33.067242,"lon":-112.046156,"city":"Maricopa","state":"AZ","address":"20797 N John Wayne Pkwy","name":""},
  {"lat":33.067701,"lon":-112.044342,"city":"Maricopa","state":"AZ","address":"20797 N John Wayne Pkwy","name":""},
  {"lat":33.067701,"lon":-112.044342,"city":"Maricopa","state":"AZ","address":"20797 N John Wayne Pkwy","name":""},
  {"lat":32.180322,"lon":-110.982623,"city":"Tucson","state":"AZ","address":"3640 S 16Th Ave","name":""},
  {"lat":32.180322,"lon":-110.982623,"city":"Tucson","state":"AZ","address":"3640 S 16Th Ave","name":""},
  {"lat":38.86217,"lon":-86.50863,"city":"Bedford","state":"IN","address":"2631 16th St","name":""},
  {"lat":38.86217,"lon":-86.50863,"city":"Bedford","state":"IN","address":"2631 16th St","name":""},
  {"lat":39.019541,"lon":-85.642333,"city":"North Vernon","state":"IN","address":"2325 N State Highway 3","name":""},
  {"lat":39.019541,"lon":-85.642333,"city":"North Vernon","state":"IN","address":"2325 N State Highway 3","name":""},
  {"lat":39.019541,"lon":-85.642333,"city":"North Vernon","state":"IN","address":"2325 N State Highway 3","name":""},
  {"lat":33.214835,"lon":-96.684232,"city":"McKinney","state":"TX","address":"1881 N. Lake Forest Dr.","name":""},
  {"lat":38.651919,"lon":-87.15303,"city":"Washington","state":"IN","address":"20 Cherry Tree Plz","name":""},
  {"lat":38.382966,"lon":-85.769608,"city":"Sellersburg","state":"IN","address":"7605 Highway 311","name":""},
  {"lat":38.382966,"lon":-85.769608,"city":"Sellersburg","state":"IN","address":"7605 Highway 311","name":""},
  {"lat":38.314605,"lon":-85.900114,"city":"Floyds Knobs","state":"IN","address":"4909 Old Vincennes Rd","name":""},
  {"lat":33.903363,"lon":-84.19968,"city":"Norcross","state":"GA","address":"6050 Singleton Rd","name":""},
  {"lat":33.903363,"lon":-84.19968,"city":"Norcross","state":"GA","address":"6050 Singleton Rd","name":""},
  {"lat":33.903363,"lon":-84.19968,"city":"Norcross","state":"GA","address":"6050 Singleton Rd","name":""},
  {"lat":36.21655,"lon":-86.604002,"city":"Hermitage","state":"TN","address":"4400 Lebanon Pike","name":""},
  {"lat":36.21655,"lon":-86.604002,"city":"Hermitage","state":"TN","address":"4400 Lebanon Pike","name":""},
  {"lat":33.038832,"lon":-96.7352,"city":"Plano","state":"TX","address":"2925 Custer Rd","name":""},
  {"lat":33.038832,"lon":-96.7352,"city":"Plano","state":"TX","address":"2925 Custer Rd","name":""},