{"key":"lowes","displayName":"Lowe's","category":"shopping","useLocationName":false,"locations":[
  {"lat":34.82072,"lon":-82.338,"city":"Greenville","state":"SC","address":"101 VERDAE BLVD., SUITE 200","name":""},
  {"lat":44.891865,"lon":-93.08205,"city":"West St. Paul","state":"MN","address":"1795 Robert St S","name":""},
  {"lat":28.699084,"lon":-100.481468,"city":"Eagle Pass","state":"TX","address":"574 South Bibb Avenue","name":""},
  {"lat":29.041949,"lon":-95.456168,"city":"Lake Jackson","state":"TX","address":"200 HWY. 332 East","name":""},
  {"lat":37.13127,"lon":-93.461115,"city":"Republic","state":"MO","address":"1225 Us Highway 60 East","name":""},
  {"lat":45.033295,"lon":-92.827998,"city":"Oak Park Heights","state":"MN","address":"5888 NOVA SCOTIA AVENUE NORTH","name":""},
  {"lat":41.230072,"lon":-80.45198,"city":"Hermitage","state":"PA","address":"3000 GLIMCHER BLVD.","name":""},
  {"lat":32.402004,"lon":-99.766239,"city":"Abilene","state":"TX","address":"4134 RIDGEMONT DR.","name":""},
  {"lat":47.549381,"lon":-122.056009,"city":"Issaquah","state":"WA","address":"1625 11TH AVENUE NW","name":""},
  {"lat":44.029803,"lon":-88.585964,"city":"Oshkosh","state":"WI","address":"1075 North Washburn Street","name":""},
  {"lat":31.524636,"lon":-97.168991,"city":"Waco","state":"TX","address":"201 North New Road","name":""},
  {"lat":43.075681,"lon":-88.062915,"city":"Wauwatosa","state":"WI","address":"12000 West Burleigh","name":""},
  {"lat":33.980379,"lon":-117.700977,"city":"Chino Hills","state":"CA","address":"4777 CHINO HILLS PARKWAY","name":""},
  {"lat":38.555185,"lon":-90.264107,"city":"St. Louis","state":"MO","address":"932 LOUGHBOROUGH AVENUE","name":""},
  {"lat":35.76808,"lon":-95.330299,"city":"Muskogee","state":"OK","address":"2901 OLD SHAWNEE","name":""},
  {"lat":41.741206,"lon":-87.630824,"city":"Chicago","state":"IL","address":"8411 South Holland Road","name":""},
  {"lat":42.109836,"lon":-70.772099,"city":"Pembroke","state":"MA","address":"108 OLD CHURCH STREET","name":""},
  {"lat":21.398827,"lon":-158.008422,"city":"Waipahu","state":"HI","address":"94-805 LUMIAINA STREET","name":""},
  {"lat":41.155813,"lon":-87.848457,"city":"Bradley","state":"IL","address":"860 N Kinzie Ave","name":""},
  {"lat":35.593321,"lon":-80.866576,"city":"Mooresville","state":"NC","address":"509 River Hwy","name":""},
  {"lat":32.091412,"lon":-81.272669,"city":"Pooler","state":"GA","address":"1565 Pooler Parkway","name":""},
  {"lat":33.597274,"lon":-86.649385,"city":"Birmingham","state":"AL","address":"1885 Edwards Lake RD.","name":""},
  {"lat":37.51451,"lon":-77.608988,"city":"Richmond","state":"VA","address":"1512 WEST KOGER CENTER DR.","name":""},
  {"lat":34.460586,"lon":-93.056984,"city":"Hot Springs","state":"AR","address":"300 CORNER STONE BLVD.","name":""},
  {"lat":30.558631,"lon":-97.846446,"city":"Leander","state":"TX","address":"1495 S Highway 183","name":""},
  {"lat":40.072388,"lon":-80.878322,"city":"St. Clairsville","state":"OH","address":"50421 VALLEY PLAZA DR","name":""},
  {"lat":29.610544,"lon":-90.748295,"city":"Houma","state":"LA","address":"1592 MARTIN LUTHER KING BLVD.","name":""},
  {"lat":37.348375,"lon":-77.412704,"city":"Chester","state":"VA","address":"2601 WEIR PLACE","name":""},
  {"lat":36.695791,"lon":-86.569017,"city":"Franklin","state":"KY","address":"1555 Nashville Road","name":""},
  {"lat":28.151828,"lon":-82.742132,"city":"Tarpon Springs","state":"FL","address":"41800 US HIGHWAY 19 N","name":""},
  {"lat":36.557703,"lon":-82.599218,"city":"Kingsport","state":"TN","address":"2324 West Stone Drive","name":""},
  {"lat":35.563096,"lon":-77.408502,"city":"Winterville","state":"NC","address":"800 THOMAS LANGSTON RD.","name":""},
  {"lat":35.941446,"lon":-78.908506,"city":"Durham","state":"NC","address":"4402 Fayetteville Road","name":""},
  {"lat":42.488132,"lon":-90.732603,"city":"Dubuque","state":"IA","address":"4100 DODGE ST.","name":""},
  {"lat":32.942279,"lon":-96.697264,"city":"Richardson","state":"TX","address":"501 SOUTH PLANO ROAD","name":""},
  {"lat":40.21736,"lon":-85.438299,"city":"Muncie","state":"IN","address":"4401 West Clara Lane","name":""},
  {"lat":39.597685,"lon":-104.703355,"city":"Aurora","state":"CO","address":"24505 E. WHEATLANDS PARKWAY","name":""},
  {"lat":47.863047,"lon":-121.971219,"city":"Monroe","state":"WA","address":"19393 TJERNE PLACE SE","name":""},
  {"lat":40.137485,"lon":-79.849059,"city":"Belle Vernon","state":"PA","address":"203 SARAH WAY","name":""},
  {"lat":37.82853,"lon":-92.161512,"city":"St. Robert","state":"MO","address":"120 Carson Boulevard","name":""},
  {"lat":35.57785,"lon":-82.522647,"city":"Asheville","state":"NC","address":"89 South Tunnel Road","name":""},
  {"lat":41.561492,"lon":-90.524806,"city":"Davenport","state":"IA","address":"3955 Elmore AVE.","name":""},
  {"lat":38.818117,"lon":-90.880395,"city":"Wentzville","state":"MO","address":"1889 WENTZVILLE PARKWAY","name":""},
  {"lat":40.64552,"lon":-75.496251,"city":"Whitehall","state":"PA","address":"2650 Macarthur Road","name":""},
  {"lat":31.274447,"lon":-92.455411,"city":"Alexandria","state":"LA","address":"3201 INDUSTRIAL ST.","name":""},
  {"lat":39.684469,"lon":-104.867445,"city":"Aurora","state":"CO","address":"1701 SOUTH HAVANA STREET","name":""},
  {"lat":41.469266,"lon":-90.483485,"city":"Moline","state":"IL","address":"3820 44TH Avenue DR.","name":""},
  {"lat":37.857434,"lon":-82.043636,"city":"Logan","state":"WV","address":"NORMAN MORGAN BLVD, U.S RT 119","name":""},
  {"lat":42.14131,"lon":-83.238346,"city":"Woodhaven","state":"MI","address":"21000 West Road","name":""},
  {"lat":39.947584,"lon":-86.341557,"city":"Zionsville","state":"IN","address":"6711 WHITESTOWN PARKWAY","name":""},
  {"lat":39.192333,"lon":-75.548017,"city":"Dover","state":"DE","address":"1450 N. Dupont Highway","name":""},
  {"lat":30.658392,"lon":-96.326712,"city":"Bryan","state":"TX","address":"3225 FREEDOM BLVD.","name":""},
  {"lat":39.182946,"lon":-94.57434,"city":"Kansas City","state":"MO","address":"4811 North Oak Trafficway","name":""},
  {"lat":38.068065,"lon":-83.952776,"city":"Mt Sterling","state":"KY","address":"550 Indian Mound Drive","name":""},
  {"lat":30.192002,"lon":-93.176123,"city":"Lake Charles","state":"LA","address":"2800 DEREK DRIVE","name":""},
  {"lat":38.917626,"lon":-90.168413,"city":"Alton","state":"IL","address":"1619 HOMER ADAMS PKWY.","name":""},
  {"lat":30.468097,"lon":-97.792587,"city":"Austin","state":"TX","address":"13201 N Ranch Rd 620, Bldg G","name":""},
  {"lat":41.469438,"lon":-82.017311,"city":"Avon","state":"OH","address":"1445 Center Road","name":""},
  {"lat":41.321926,"lon":-72.880376,"city":"New Haven","state":"CT","address":"115 FOXON BLVD.","name":""},
  {"lat":36.114342,"lon":-79.752583,"city":"Greensboro","state":"NC","address":"2005 East Cone Boulevard","name":""},
  {"lat":42.878185,"lon":-76.94827,"city":"Geneva","state":"NY","address":"3030 Sessler Drive","name":""},
  {"lat":35.670981,"lon":-80.85143,"city":"Troutman","state":"NC","address":"1041 Charlotte Highway","name":""},
  {"lat":27.921114,"lon":-82.320009,"city":"Brandon","state":"FL","address":"11375 CAUSEWAY BLVD.","name":""},
  {"lat":42.25528,"lon":-87.950038,"city":"Vernon Hills","state":"IL","address":"1660 N Milwaukee Avenue","name":""},
  {"lat":26.670141,"lon":-81.939739,"city":"Cape Coral","state":"FL","address":"1651 Ne Pine Island RD.","name":""},
  {"lat":43.657518,"lon":-84.250713,"city":"Midland","state":"MI","address":"1918 Airport RD.","name":""},
  {"lat":42.010231,"lon":-71.050411,"city":"West Bridgewater","state":"MA","address":"724 West Center Street","name":""},
  {"lat":29.094115,"lon":-82.245867,"city":"Ocala","state":"FL","address":"7575 Sw 90TH Street","name":""},
  {"lat":35.452834,"lon":-79.134788,"city":"Sanford","state":"NC","address":"3015 S HORNER BOULEVARD","name":""},
  {"lat":36.044377,"lon":-78.900003,"city":"Durham","state":"NC","address":"117 William Penn Plaza","name":""},
  {"lat":38.555345,"lon":-121.538832,"city":"West Sacramento","state":"CA","address":"2250 LAKE WASHINGTON BLVD","name":""},
  {"lat":36.203355,"lon":-83.331965,"city":"Morristown","state":"TN","address":"2744 West Andrew Johnson Hwy","name":""},
  {"lat":36.059001,"lon":-96.001739,"city":"Tulsa","state":"OK","address":"7225 S OLYMPIA WEST","name":""},
  {"lat":36.13889,"lon":-85.494972,"city":"Cookeville","state":"TN","address":"510 Neal Street","name":""},
  {"lat":33.445527,"lon":-86.830686,"city":"Homewood","state":"AL","address":"375 State Farm Pkwy","name":""},
  {"lat":26.526686,"lon":-81.872876,"city":"Fort Myers","state":"FL","address":"14960 S. Tamiami Trail","name":""},
  {"lat":41.99916,"lon":-93.611647,"city":"Ames","state":"IA","address":"120 AIRPORT RD.","name":""},
  {"lat":30.369117,"lon":-87.680487,"city":"Foley","state":"AL","address":"3101 S. Mckenzie HWY.59","name":""},
  {"lat":43.482303,"lon":-83.96249,"city":"Saginaw","state":"MI","address":"2258 Tittabawasee RD.","name":""},
  {"lat":31.734738,"lon":-95.621032,"city":"Palestine","state":"TX","address":"2715 South Loop 256","name":""},
  {"lat":35.553221,"lon":-88.811411,"city":"Jackson","state":"TN","address":"2071 South Highland Ave","name":""},
  {"lat":42.95626,"lon":-76.546009,"city":"Auburn","state":"NY","address":"299 Grant Avenue Rd","name":""},
  {"lat":28.027823,"lon":-82.546242,"city":"Tampa","state":"FL","address":"6275 W. Waters AVE.","name":""},
  {"lat":38.859476,"lon":-86.519296,"city":"Bedford","state":"IN","address":"3300 16TH Street","name":""},
  {"lat":30.059648,"lon":-95.434868,"city":"Spring","state":"TX","address":"20201 N. IH45","name":""},
  {"lat":38.219038,"lon":-104.646298,"city":"Pueblo","state":"CO","address":"2900 WEST PUEBLO BLVD","name":""},
  {"lat":28.824139,"lon":-81.798696,"city":"Leesburg","state":"FL","address":"9540 U.S. 441","name":""},
  {"lat":37.503698,"lon":-121.970841,"city":"Fremont","state":"CA","address":"43612 PACIFIC COMMONS BLVD","name":""},
  {"lat":47.886791,"lon":-97.085418,"city":"Grand Forks","state":"ND","address":"4001 32ND AVENUE SOUTH","name":""},
  {"lat":29.529785,"lon":-95.806478,"city":"Rosenberg","state":"TX","address":"28005 Southwest Freeway","name":""},
  {"lat":47.658703,"lon":-122.678955,"city":"Silverdale","state":"WA","address":"2221 NW MYHRE ROAD","name":""},
  {"lat":39.650444,"lon":-79.894591,"city":"Morgantown","state":"WV","address":"901 Venture Drive","name":""},
  {"lat":30.219574,"lon":-93.323635,"city":"Sulphur","state":"LA","address":"305 S. CITIES SERVICE HIGHWAY","name":""},
  {"lat":35.099608,"lon":-77.089076,"city":"New Bern","state":"NC","address":"1400 LOWE'S BOULEVARD","name":""},
  {"lat":33.528259,"lon":-80.890506,"city":"Orangeburg","state":"SC","address":"2896 North Road Hwy 178","name":""},
  {"lat":42.163127,"lon":-71.504625,"city":"Milford","state":"MA","address":"40 Fortune Boulevard","name":""},
  {"lat":30.165539,"lon":-81.745112,"city":"Orange Park","state":"FL","address":"2285 Kingsley Avenue","name":""},
  {"lat":43.954339,"lon":-92.46007,"city":"Rochester","state":"MN","address":"4550 Maine Avenue Se","name":""},
  {"lat":39.565404,"lon":-76.970582,"city":"Westminster","state":"MD","address":"777 MARKET STREET","name":""},
  {"lat":34.750073,"lon":-77.461796,"city":"Jacksonville","state":"NC","address":"425 YOPP ROAD","name":""},
  {"lat":37.066344,"lon":-84.623157,"city":"Somerset","state":"KY","address":"2001 SOUTH HWY. 27","name":""},
  {"lat":46.997383,"lon":-122.826535,"city":"Lacey","state":"WA","address":"5610 CORPORATE LANE SE","name":""},
  {"lat":40.751216,"lon":-96.638124,"city":"Lincoln","state":"NE","address":"6101 Apples Way","name":""},
  {"lat":33.057177,"lon":-97.014977,"city":"Lewisville","state":"TX","address":"1051 N STEMMONS FWY","name":""},
  {"lat":42.990574,"lon":-78.69899,"city":"Williamsville","state":"NY","address":"8150 Transit Road","name":""},
  {"lat":42.797365,"lon":-78.746492,"city":"Orchard Park","state":"NY","address":"3195 Southwestern Blvd","name":""},
  {"lat":32.985725,"lon":-96.902855,"city":"Carrollton","state":"TX","address":"1253 EAST TRINITY MILLS RD","name":""},
  {"lat":40.709032,"lon":-76.189637,"city":"Pottsville","state":"PA","address":"PA RT 61 AND ANN STREET","name":""},
  {"lat":43.000355,"lon":-78.817664,"city":"Amherst","state":"NY","address":"1659 Niagara Falls Blvd","name":""},
  {"lat":35.646051,"lon":-120.661994,"city":"Paso Robles","state":"CA","address":"2445 GOLDEN HILL ROAD","name":""},
  {"lat":40.768344,"lon":-72.984146,"city":"East Patchogue","state":"NY","address":"825 Montauk Highway","name":""},
  {"lat":41.596941,"lon":-93.772866,"city":"West Des Moines","state":"IA","address":"1700 50TH ST.","name":""},
  {"lat":29.878113,"lon":-95.642838,"city":"Copperfield","state":"TX","address":"15555 FM529","name":""},
  {"lat":39.997407,"lon":-75.091537,"city":"Philadelphia","state":"PA","address":"3800 Aramingo Avenue","name":""},
  {"lat":47.498531,"lon":-122.645463,"city":"Port Orchard","state":"WA","address":"150 SEDGWICK RD","name":""},
  {"lat":40.225204,"lon":-75.658162,"city":"Pottstown","state":"PA","address":"1136 Town Square Road","name":""},
  {"lat":39.020101,"lon":-84.624919,"city":"Florence","state":"KY","address":"4800 HOUSTON ROAD","name":""},
  {"lat":47.157432,"lon":-122.285979,"city":"Puyallup","state":"WA","address":"3511 5TH STREET SE","name":""},
  {"lat":46.148268,"lon":-122.958544,"city":"Longview","state":"WA","address":"2850 OCEAN BEACH HIGHWAY","name":""},
  {"lat":35.379929,"lon":-77.93018,"city":"Goldsboro","state":"NC","address":"1202 N Berkeley Blvd","name":""},
  {"lat":37.801395,"lon":-81.173549,"city":"Beckley","state":"WV","address":"1210 North Eisenhower Drive","name":""},
  {"lat":34.783358,"lon":-77.401088,"city":"Jacksonville","state":"NC","address":"1255 WESTERN BLVD.","name":""},
  {"lat":43.105147,"lon":-73.746018,"city":"Saratoga Springs","state":"NY","address":"10 LOWE'S Drive","name":""},
  {"lat":36.288914,"lon":-95.631603,"city":"Claremore","state":"OK","address":"1746 SOUTH LYNN RIGGS BLVD","name":""},
  {"lat":35.702381,"lon":-85.783661,"city":"Mc Minnville","state":"TN","address":"1339 Smithville HIGHWAY, Ste 10","name":""},
  {"lat":35.979818,"lon":-85.040276,"city":"Crossville","state":"TN","address":"2431 N. Main","name":""},
  {"lat":35.744657,"lon":-78.875439,"city":"Apex","state":"NC","address":"1101 Beaver Creek Commons Dr","name":""},
  {"lat":36.047399,"lon":-86.711791,"city":"Nashville","state":"TN","address":"5520 Nolensville Pike","name":""},
  {"lat":43.090521,"lon":-75.320379,"city":"New Hartford","state":"NY","address":"4699 Middle Settlement Road","name":""},
  {"lat":35.9647,"lon":-77.821148,"city":"Rocky Mount","state":"NC","address":"700 N. Wesleyan BLVD.","name":""},
  {"lat":43.048537,"lon":-70.81964,"city":"Greenland","state":"NH","address":"1440 Greenland Road","name":""},
  {"lat":42.108061,"lon":-87.804244,"city":"Northbrook","state":"IL","address":"1000 Willow Road","name":""},
  {"lat":27.041802,"lon":-82.227868,"city":"North Port","state":"FL","address":"5601 Tuscola Boulevard","name":""},
  {"lat":30.686152,"lon":-88.224312,"city":"Mobile","state":"AL","address":"7760 Airport BLVD.","name":""},
  {"lat":41.458811,"lon":-74.373369,"city":"Middletown","state":"NY","address":"700 NORTH GALLERIA DRIVE","name":""},
  {"lat":38.796499,"lon":-77.603502,"city":"Gainesville","state":"VA","address":"13000 Gateway Center Dr","name":""},
  {"lat":38.135805,"lon":-122.206236,"city":"Vallejo","state":"CA","address":"401 COLUMBUS PARKWAY","name":""},
  {"lat":39.301502,"lon":-84.313052,"city":"Mason","state":"OH","address":"9380 S MASON MONTGOMERY RD","name":""},
  {"lat":33.993851,"lon":-117.916248,"city":"City of Industry","state":"CA","address":"17789 CASTLETON STREET","name":""},
  {"lat":34.236647,"lon":-118.560983,"city":"Northridge","state":"CA","address":"19601 Nordhoff St","name":""},
  {"lat":41.621261,"lon":-73.922091,"city":"Poughkeepsie","state":"NY","address":"1941 South Road","name":""},
  {"lat":40.150773,"lon":-105.098693,"city":"Longmont","state":"CO","address":"355 Ken Pratt Blvd","name":""},
  {"lat":36.242104,"lon":-115.115484,"city":"North Las Vegas","state":"NV","address":"2570 EAST CRAIG ROAD","name":""},
  {"lat":33.759339,"lon":-84.346626,"city":"Atlanta","state":"GA","address":"1280 Caroline Street Ne","name":""},
  {"lat":32.81351,"lon":-83.689328,"city":"Macon","state":"GA","address":"3190 MACON TECH DR.","name":""},
  {"lat":34.08181,"lon":-84.539671,"city":"Woodstock","state":"GA","address":"575 MOLLY LANE","name":""},
  {"lat":41.980266,"lon":-71.506657,"city":"North Smithfield","state":"RI","address":"19 DOWLING VILLAGE BLVD","name":""},
  {"lat":29.965705,"lon":-90.131183,"city":"Jefferson","state":"LA","address":"121 Jefferson Highway","name":""},
  {"lat":38.225678,"lon":-91.152712,"city":"Sullivan","state":"MO","address":"760 EAGLES COURT","name":""},
  {"lat":33.948322,"lon":-84.628269,"city":"Marietta","state":"GA","address":"2650 DALLAS HWY. S.W.","name":""},
  {"lat":39.22307,"lon":-78.133905,"city":"Winchester","state":"VA","address":"261 MARKET ST","name":""},
  {"lat":42.972358,"lon":-74.185737,"city":"Amsterdam","state":"NY","address":"4825 State Highway 30","name":""},
  {"lat":31.320522,"lon":-89.374352,"city":"Hattiesburg","state":"MS","address":"6004 Us Highway 98","name":""},
  {"lat":34.047766,"lon":-118.335082,"city":"Los Angeles","state":"CA","address":"4550 WEST PICO BLVD UNIT D-101","name":""},
  {"lat":40.629703,"lon":-75.398236,"city":"Bethlehem","state":"PA","address":"1235 Martin Court","name":""},
  {"lat":30.601364,"lon":-87.109481,"city":"Pace","state":"FL","address":"5143 Highway 90","name":""},
  {"lat":41.011855,"lon":-76.484597,"city":"Bloomsburg","state":"PA","address":"50 Lunger Drive","name":""},
  {"lat":32.826856,"lon":-79.833777,"city":"Mount Pleasant","state":"SC","address":"1104 Market Center BLVD.","name":""},
  {"lat":35.357119,"lon":-89.891838,"city":"Millington","state":"TN","address":"8490 HIGHWAY 51 NORTH","name":""},
  {"lat":35.163509,"lon":-79.419289,"city":"Southern Pines","state":"NC","address":"10845 Us 15-501 Hwy","name":""},
  {"lat":32.476085,"lon":-99.692934,"city":"Abilene","state":"TX","address":"1634 E MUSGRAVE BLVD","name":""},
  {"lat":41.792205,"lon":-86.248712,"city":"Niles","state":"MI","address":"2055 South 11TH Street","name":""},
  {"lat":39.018868,"lon":-74.874306,"city":"Rio Grande","state":"NJ","address":"3171 Route 9 South","name":""},
  {"lat":33.853174,"lon":-84.599714,"city":"Austell","state":"GA","address":"1717 EAST WEST CONNECTOR","name":""},
  {"lat":42.155422,"lon":-76.875115,"city":"Elmira","state":"NY","address":"913 County RD, Rt 64","name":""},
  {"lat":40.451386,"lon":-74.400796,"city":"East Brunswick","state":"NJ","address":"339 STATE HIGHWAY ROUTE 18","name":""},
  {"lat":32.858719,"lon":-97.184738,"city":"Hurst","state":"TX","address":"770 Grapevine HWY.","name":""},
  {"lat":36.240686,"lon":-115.227182,"city":"Las Vegas","state":"NV","address":"6050 WEST CRAIG ROAD","name":""},
  {"lat":42.430802,"lon":-76.513598,"city":"Ithaca","state":"NY","address":"130 Fairgrounds Memorial Pkwy","name":""},
  {"lat":35.944402,"lon":-86.817809,"city":"Franklin","state":"TN","address":"3060 Mallory Lane","name":""},
  {"lat":36.971538,"lon":-120.081728,"city":"Madera","state":"CA","address":"2100 WEST CLEVELAND AVENUE","name":""},
  {"lat":43.227747,"lon":-75.488124,"city":"Rome","state":"NY","address":"1230 Erie BLVD. West","name":""},
  {"lat":35.607064,"lon":-97.556547,"city":"Oklahoma City","state":"OK","address":"2400 W. MEMORIAL RD.","name":""},
  {"lat":39.26022,"lon":-84.60468,"city":"Cincinnati","state":"OH","address":"10235 COLERAIN AVE.","name":""},
  {"lat":39.33524,"lon":-82.059441,"city":"Athens","state":"OH","address":"983 East State Street","name":""},
  {"lat":35.569403,"lon":-82.62715,"city":"Asheville","state":"NC","address":"95 Smokey Park Hwy","name":""},
  {"lat":31.828469,"lon":-81.599481,"city":"Hinesville","state":"GA","address":"735 West Oglethorpe Highway","name":""},
  {"lat":32.687275,"lon":-97.411837,"city":"Fort Worth","state":"TX","address":"4305 BRYANT IRVIN ROAD","name":""},
  {"lat":42.754632,"lon":-78.84937,"city":"Hamburg","state":"NY","address":"4950 Southwestern BLVD.","name":""},
  {"lat":34.710367,"lon":-82.249515,"city":"Simpsonville","state":"SC","address":"3958 Grandview Drive","name":""},
  {"lat":42.496289,"lon":-71.727393,"city":"Leominster","state":"MA","address":"198 New Lancaster Road","name":""},
  {"lat":42.280077,"lon":-83.213429,"city":"Allen Park","state":"MI","address":"23111 Outer Drive","name":""},
  {"lat":40.26568,"lon":-75.318853,"city":"Hatfield","state":"PA","address":"160 Forty Foot Road","name":""},
  {"lat":39.73775,"lon":-82.629039,"city":"Lancaster","state":"OH","address":"2240 LOWES DRIVE","name":""},
  {"lat":25.476189,"lon":-80.451168,"city":"Homestead","state":"FL","address":"1850 N.E. 8TH Street","name":""},
  {"lat":41.906859,"lon":-71.034574,"city":"Raynham","state":"MA","address":"850 Route 44","name":""},
  {"lat":34.302552,"lon":-88.705487,"city":"Tupelo","state":"MS","address":"3354 NORTH GLOSTER ST.","name":""},
  {"lat":36.130173,"lon":-83.466386,"city":"Jefferson City","state":"TN","address":"638 E Broadway Boulevard","name":""},
  {"lat":33.466807,"lon":-111.910558,"city":"Scottsdale","state":"AZ","address":"7950 EAST MCDOWELL ROAD","name":""},
  {"lat":32.680568,"lon":-97.12222,"city":"Arlington","state":"TX","address":"1000 WEST ARBROOK","name":""},
  {"lat":34.273361,"lon":-118.424797,"city":"Pacoima","state":"CA","address":"13500 PAXTON STREET","name":""},
  {"lat":40.279945,"lon":-76.821316,"city":"Harrisburg","state":"PA","address":"4000 UNION DEPOSIT RD.","name":""},
  {"lat":39.037527,"lon":-95.768373,"city":"Topeka","state":"KS","address":"1621 Southwest Arvonia Place","name":""},
  {"lat":30.395001,"lon":-88.661828,"city":"Gautier","state":"MS","address":"3200 Highway 90","name":""},
  {"lat":28.85727,"lon":-82.395719,"city":"Inverness","state":"FL","address":"2301 East Gulf To Lake Hwy","name":""},
  {"lat":41.972771,"lon":-73.982811,"city":"Kingston","state":"NY","address":"901 Frank Sottile BLVD.","name":""},
  {"lat":42.837662,"lon":-73.938915,"city":"Glenville","state":"NY","address":"93 Freemans Bridge Road","name":""},
  {"lat":28.272639,"lon":-82.190268,"city":"Zephyrhills","state":"FL","address":"7921 Gall Boulevard","name":""},
  {"lat":29.204971,"lon":-82.072699,"city":"Ocala","state":"FL","address":"4600 East Silver Springs Blvd","name":""},
  {"lat":28.138491,"lon":-81.634597,"city":"Haines City","state":"FL","address":"37051 Us Highway 27","name":""},
  {"lat":43.126065,"lon":-75.224919,"city":"Utica","state":"NY","address":"710 Horatio Street","name":""},
  {"lat":32.911742,"lon":-96.817169,"city":"Dallas","state":"TX","address":"11920 INWOOD RD.","name":""},
  {"lat":41.928289,"lon":-87.789122,"city":"Chicago","state":"IL","address":"2630 N. Narragansett AVE.","name":""},
  {"lat":32.562048,"lon":-97.31594,"city":"Burleson","state":"TX","address":"920 NORTH BURLESON BLVD.","name":""},
  {"lat":42.324415,"lon":-83.47535,"city":"Canton","state":"MI","address":"44080 Ford Road","name":""},
  {"lat":38.090208,"lon":-78.47154,"city":"Charlottesville","state":"VA","address":"400 WOODBROOK DRIVE","name":""},
  {"lat":39.388113,"lon":-77.407316,"city":"Frederick","state":"MD","address":"5611 BUCKEYSTOWN PIKE","name":""},
  {"lat":40.081272,"lon":-75.024775,"city":"Philadelphia","state":"PA","address":"9701 East Roosevelt BLVD.","name":""},
  {"lat":32.544189,"lon":-94.732371,"city":"Longview","state":"TX","address":"3313 NORTH FOURTH","name":""},
  {"lat":39.920016,"lon":-75.14325,"city":"Philadelphia","state":"PA","address":"2106 S CHRISTOPHER COLUMBUS BLVD","name":""},
  {"lat":29.593213,"lon":-95.631664,"city":"Sugar Land","state":"TX","address":"16510 S. W. Freeway","name":""},
  {"lat":34.205086,"lon":-82.188558,"city":"Greenwood","state":"SC","address":"513 Bypass 72 Nw","name":""},
  {"lat":25.931849,"lon":-80.295305,"city":"Hialeah","state":"FL","address":"17460 Nw 57TH Avenue","name":""},
  {"lat":30.22236,"lon":-81.58823,"city":"Jacksonville","state":"FL","address":"8054 Philips Highway","name":""},
  {"lat":32.825566,"lon":-96.621513,"city":"Mesquite","state":"TX","address":"4444 N. GALLOWAY AVE.","name":""},
  {"lat":27.465146,"lon":-82.577238,"city":"Bradenton","state":"FL","address":"4012 14TH STREET WEST","name":""},
  {"lat":32.643216,"lon":-96.855389,"city":"Dallas","state":"TX","address":"8520 SOUTH HAMPTON RD.","name":""},
  {"lat":33.550014,"lon":-84.279241,"city":"Stockbridge","state":"GA","address":"3505 MT. ZION RD.","name":""},
  {"lat":28.555818,"lon":-80.849866,"city":"Titusville","state":"FL","address":"4660 SOUTH ST.","name":""},
  {"lat":36.142037,"lon":-81.860682,"city":"Banner Elk","state":"NC","address":"2014 Tynecastle Highway","name":""},
  {"lat":30.331922,"lon":-81.549764,"city":"Jacksonville","state":"FL","address":"9525 Regency Square Blvd N","name":""},
  {"lat":35.798149,"lon":-78.793337,"city":"Cary","state":"NC","address":"1920 Nw Maynard Road","name":""},
  {"lat":36.162832,"lon":-115.33552,"city":"Las Vegas","state":"NV","address":"851 S. PAVILION CENTER DRIVE","name":""},
  {"lat":33.917131,"lon":-83.446175,"city":"Athens","state":"GA","address":"1851 EPPS BRIDGE RD.","name":""},
  {"lat":33.053776,"lon":-96.697876,"city":"Plano","state":"TX","address":"5001 CENTRAL EXPY","name":""},
  {"lat":40.157488,"lon":-75.14106,"city":"Willow Grove","state":"PA","address":"4055 Welsh Road","name":""},
  {"lat":36.079258,"lon":-79.48134,"city":"Burlington","state":"NC","address":"125 HUFFMAN MILL RD.","name":""},
  {"lat":37.060343,"lon":-81.749759,"city":"Pounding Mill","state":"VA","address":"200 ADAIR DR","name":""},
  {"lat":38.009645,"lon":-84.451033,"city":"Lexington","state":"KY","address":"200 OLD TODDS ROAD","name":""},
  {"lat":37.435089,"lon":-79.125874,"city":"Madison Heights","state":"VA","address":"150 River James Shopping Ctr","name":""},
  {"lat":38.437005,"lon":-78.845767,"city":"Harrisonburg","state":"VA","address":"201 LINDA LANE","name":""},
  {"lat":40.683143,"lon":-80.303903,"city":"Monaca","state":"PA","address":"115 WAGNER RD.","name":""},
  {"lat":39.117738,"lon":-94.740579,"city":"Kansas City","state":"KS","address":"6920 State Avenue","name":""},
  {"lat":41.644193,"lon":-70.985485,"city":"N. Dartmouth","state":"MA","address":"55 Faunce Corner Mall Rd","name":""},
  {"lat":29.980654,"lon":-95.564018,"city":"Houston","state":"TX","address":"19580 TOMBALL PKWY, STATE HWY 249","name":""},
  {"lat":45.195481,"lon":-93.335535,"city":"Coon Rapids","state":"MN","address":"2700 MAIN ST NW","name":""},
  {"lat":42.659299,"lon":-83.45423,"city":"White Lake","state":"MI","address":"8550 HIGHLAND ROAD","name":""},
  {"lat":45.424378,"lon":-122.584276,"city":"Milwaukie","state":"OR","address":"13631 S.E. JOHNSON ROAD","name":""},
  {"lat":27.701055,"lon":-97.361767,"city":"Corpus Christi","state":"TX","address":"1530 Airline Road","name":""},
  {"lat":42.282042,"lon":-71.641702,"city":"Westborough","state":"MA","address":"260-266 TURNPIKE RD","name":""},
  {"lat":36.173781,"lon":-94.177688,"city":"Springdale","state":"AR","address":"4233 WEST SUNSET AVE","name":""},
  {"lat":28.533208,"lon":-82.408941,"city":"Brooksville","state":"FL","address":"7117 BROAD STREET","name":""},
  {"lat":30.167129,"lon":-81.604028,"city":"Jacksonville","state":"FL","address":"4040 Oldfield Crossing DR.","name":""},
  {"lat":41.606143,"lon":-87.850093,"city":"Orland Park","state":"IL","address":"15601 South Lagrange Road","name":""},
  {"lat":29.657186,"lon":-81.672371,"city":"Palatka","state":"FL","address":"500 North State Road 19","name":""},
  {"lat":41.938693,"lon":-88.1331,"city":"Carol Stream","state":"IL","address":"400 West Army Trail","name":""},
  {"lat":30.530177,"lon":-92.069649,"city":"Opelousas","state":"LA","address":"1130 East Landry Street","name":""},
  {"lat":40.398145,"lon":-104.754913,"city":"Greeley","state":"CO","address":"2400 47TH AVENUE","name":""},
  {"lat":32.545893,"lon":-93.706713,"city":"Bossier City","state":"LA","address":"2360 AIRLINE DRIVE","name":""},
  {"lat":42.542755,"lon":-83.449758,"city":"Commerce Township","state":"MI","address":"2745 E West Maple Rd","name":""},
  {"lat":36.434675,"lon":-77.634227,"city":"Roanoke Rapids","state":"NC","address":"1600 Julian Allsbrook Highway","name":""},
  {"lat":39.425695,"lon":-75.042901,"city":"Millville","state":"NJ","address":"113 Bluebird Lane","name":""},
  {"lat":42.874109,"lon":-77.238691,"city":"Canandaigua","state":"NY","address":"4200 Recreation Drive","name":""},
  {"lat":35.892006,"lon":-94.979426,"city":"Tahlequah","state":"OK","address":"161 MEADOW CREEK DRIVE","name":""},
  {"lat":37.296231,"lon":-83.21727,"city":"Hazard","state":"KY","address":"81 Commerce Drive","name":""},
  {"lat":33.107415,"lon":-95.59859,"city":"Sulphur Springs","state":"TX","address":"1711 SOUTH BROADWAY STREET","name":""},
  {"lat":32.328938,"lon":-96.114276,"city":"Gun Barrel City","state":"TX","address":"201 WEST MAIN STREET","name":""},
  {"lat":33.172957,"lon":-94.999612,"city":"Mount Pleasant","state":"TX","address":"1220 LAKEWOOD DRIVE","name":""},
  {"lat":38.485554,"lon":-77.971618,"city":"Culpeper","state":"VA","address":"15150 MONTANUS DRIVE","name":""},
  {"lat":39.005251,"lon":-80.233979,"city":"Buckhannon","state":"WV","address":"40 Clarksburg Road","name":""},
  {"lat":36.049715,"lon":-94.20647,"city":"Fayetteville","state":"AR","address":"3231 W. Martin Luther King BLVD.","name":""},
  {"lat":33.91716,"lon":-84.377532,"city":"Sandy Springs","state":"GA","address":"5925 Roswell Road","name":""},
  {"lat":38.192229,"lon":-83.482505,"city":"Morehead","state":"KY","address":"100 KROGER CENTER","name":""},
  {"lat":35.893015,"lon":-84.549016,"city":"Harriman","state":"TN","address":"1800 Roane State Highway","name":""},
  {"lat":38.210446,"lon":-90.407835,"city":"Festus","state":"MO","address":"1111 BRADLEY STREET","name":""},
  {"lat":39.637738,"lon":-75.657886,"city":"Bear","state":"DE","address":"1030 EAST SONGSMITH DRIVE","name":""},
  {"lat":39.967395,"lon":-75.299681,"city":"Havertown","state":"PA","address":"116 West Township Line RD.","name":""},
  {"lat":34.192691,"lon":-118.939962,"city":"Thousand Oaks","state":"CA","address":"1027 Academy Drive","name":""},
  {"lat":40.806555,"lon":-73.291348,"city":"Commack","state":"NY","address":"100 Long Island Expressway","name":""},
  {"lat":30.391594,"lon":-86.419701,"city":"Destin","state":"FL","address":"4405 Legendary Drive","name":""},
  {"lat":38.292097,"lon":-122.031707,"city":"Fairfield","state":"CA","address":"3400 NORTH TEXAS STREET","name":""},
  {"lat":32.442814,"lon":-104.262236,"city":"Carlsbad","state":"NM","address":"2519 WEST PIERCE STREET","name":""},
  {"lat":34.103668,"lon":-117.904382,"city":"Covina","state":"CA","address":"1348 NORTH AZUSA AVENUE","name":""},
  {"lat":39.094324,"lon":-77.529994,"city":"Leesburg","state":"VA","address":"1390 RUSSELL BRANCH PARKWAY SE","name":""},
  {"lat":41.496935,"lon":-72.807105,"city":"Wallingford","state":"CT","address":"1094 North Colony Road","name":""},
  {"lat":43.080382,"lon":-75.685889,"city":"Oneida","state":"NY","address":"1200 LOWE'S Drive","name":""},
  {"lat":44.774219,"lon":-68.725289,"city":"Brewer","state":"ME","address":"15 Arista Drive","name":""},
  {"lat":40.390454,"lon":-111.825713,"city":"Lehi","state":"UT","address":"242 North 1200 East","name":""},
  {"lat":33.678713,"lon":-117.172773,"city":"Menifee","state":"CA","address":"30472 HAUN ROAD","name":""},
  {"lat":40.524732,"lon":-111.982665,"city":"Riverton City","state":"UT","address":"12462 S CREEK MEADOW ROAD","name":""},
  {"lat":33.440806,"lon":-112.558777,"city":"Buckeye","state":"AZ","address":"700 SOUTH WATSON ROAD","name":""},
  {"lat":46.619314,"lon":-112.014027,"city":"Helena","state":"MT","address":"3291 NORTH SANDERS STREET","name":""},
  {"lat":36.053741,"lon":-119.028342,"city":"Porterville","state":"CA","address":"500 West Vandalia Avenue","name":""},
  {"lat":37.97157,"lon":-120.368779,"city":"Sonora","state":"CA","address":"120 OLD WARDS FERRY ROAD","name":""},
  {"lat":32.830558,"lon":-96.82877,"city":"Dallas","state":"TX","address":"6011 LEMMON AVENUE","name":""},
  {"lat":27.935733,"lon":-82.262395,"city":"Brandon","state":"FL","address":"1515 E. BRANDON BLVD.","name":""},
  {"lat":40.611662,"lon":-73.918723,"city":"Brooklyn","state":"NY","address":"5602 Avenue U","name":""},
  {"lat":39.773737,"lon":-84.04784,"city":"Fairborn","state":"OH","address":"2850-I CENTRE DRIVE","name":""},
  {"lat":41.876098,"lon":-84.031359,"city":"Adrian","state":"MI","address":"1369 Division ST.","name":""},
  {"lat":33.80299,"lon":-118.333935,"city":"Torrance","state":"CA","address":"2700 Skypark Drive","name":""},
  {"lat":40.976711,"lon":-90.378633,"city":"Galesburg","state":"IL","address":"531 West Carl Sandburg Dr","name":""},
  {"lat":34.032139,"lon":-117.630005,"city":"Ontario","state":"CA","address":"2390 SOUTH GROVE AVENUE","name":""},
  {"lat":36.084156,"lon":-115.121617,"city":"Las Vegas","state":"NV","address":"5825 SOUTH EASTERN AVENUE","name":""},
  {"lat":32.881045,"lon":-111.724965,"city":"Casa Grande","state":"AZ","address":"1436 E. FLORENCE BOULEVARD","name":""},
  {"lat":37.702795,"lon":-121.867323,"city":"Dublin","state":"CA","address":"3750 DUBLIN BOULEVARD","name":""},
  {"lat":39.412201,"lon":-104.875973,"city":"Castle Rock","state":"CO","address":"1360 New Beale Street","name":""},
  {"lat":30.119038,"lon":-94.16479,"city":"Beaumont","state":"TX","address":"4120 Dowlen Road","name":""},
  {"lat":40.740313,"lon":-111.89817,"city":"Salt Lake City","state":"UT","address":"1335 SOUTH 300 WEST","name":""},
  {"lat":29.783314,"lon":-95.713894,"city":"Houston","state":"TX","address":"19935 Katy Freeway","name":""},
  {"lat":34.914499,"lon":-88.507337,"city":"Corinth","state":"MS","address":"1800 South Parkway","name":""},
  {"lat":29.779511,"lon":-94.976146,"city":"Baytown","state":"TX","address":"5002 Garth RD.","name":""},
  {"lat":31.427941,"lon":-100.507413,"city":"San Angelo","state":"TX","address":"5301 SHERWOOD WAY","name":""},
  {"lat":36.384395,"lon":-81.481219,"city":"W. Jefferson","state":"NC","address":"158 LOWE'S Drive","name":""},
  {"lat":34.45293,"lon":-77.60829,"city":"Hampstead","state":"NC","address":"106 WILKES LN E","name":""},
  {"lat":41.407109,"lon":-82.659752,"city":"Sandusky","state":"OH","address":"5500 MILAN RD. - SPACE 304","name":""},
  {"lat":35.353984,"lon":-83.202517,"city":"Sylva","state":"NC","address":"1716 East Main Street","name":""},
  {"lat":39.686444,"lon":-75.716399,"city":"Newark","state":"DE","address":"2000 Ogletown Road","name":""},
  {"lat":33.220975,"lon":-96.735504,"city":"Prosper","state":"TX","address":"4301 E. UNIVERSITY DR.","name":""},
  {"lat":39.697814,"lon":-74.271119,"city":"Manahawkin","state":"NJ","address":"297 Route 72 WEST, Suite 30","name":""},
  {"lat":26.062882,"lon":-81.701336,"city":"Naples","state":"FL","address":"12730 Tamiami Trail East","name":""},
  {"lat":31.31395,"lon":-94.710894,"city":"Lufkin","state":"TX","address":"3501 SOUTH MEDFORD","name":""},
  {"lat":41.369274,"lon":-72.159598,"city":"Waterford","state":"CT","address":"167 WATERFORD PARKWAY NORTH","name":""},
  {"lat":44.310705,"lon":-69.806653,"city":"Augusta","state":"ME","address":"53 Crossing Way","name":""},
  {"lat":36.810929,"lon":-76.096805,"city":"Virginia Beach","state":"VA","address":"3565 HOLLAND ROAD","name":""},
  {"lat":39.182994,"lon":-76.792422,"city":"Elkridge","state":"MD","address":"8281 GATEWAY OVERLOOK DRIVE","name":""},
  {"lat":38.310363,"lon":-88.961467,"city":"Mount Vernon","state":"IL","address":"111 DAVIDSON AVE.","name":""},
  {"lat":38.312782,"lon":-85.575107,"city":"Louisville","state":"KY","address":"4930 Norton Healthcare Blvd","name":""},
  {"lat":39.21751,"lon":-81.548851,"city":"Parkersburg","state":"WV","address":"2 Walton Drive","name":""},
  {"lat":42.259412,"lon":-85.174559,"city":"Battle Creek","state":"MI","address":"6122 B Drive North","name":""},
  {"lat":40.139021,"lon":-88.255447,"city":"Champaign","state":"IL","address":"1904 North Prospect AVE.","name":""},
  {"lat":40.348887,"lon":-80.014402,"city":"Bethel Park","state":"PA","address":"5775 Baptist Road","name":""},
  {"lat":38.662911,"lon":-75.595825,"city":"Seaford","state":"DE","address":"22880 Sussex Highway","name":""},
  {"lat":41.109138,"lon":-74.024524,"city":"Nanuet","state":"NY","address":"100 Overlook Boulevard","name":""},
  {"lat":36.747012,"lon":-97.068839,"city":"Ponca City","state":"OK","address":"3500 NORTH 14TH ST.","name":""},
  {"lat":41.617744,"lon":-85.895324,"city":"Goshen","state":"IN","address":"2219 Rieth BLVD.","name":""},
  {"lat":44.691174,"lon":-74.990567,"city":"Potsdam","state":"NY","address":"61 Country Lane","name":""},
  {"lat":30.656895,"lon":-87.854685,"city":"Daphne","state":"AL","address":"29645 Frederick Boulevard","name":""},
  {"lat":41.001466,"lon":-75.26669,"city":"Bartonsville","state":"PA","address":"5027 Windsor Drive","name":""},
  {"lat":28.087391,"lon":-81.976309,"city":"Lakeland","state":"FL","address":"3600 North Road 98","name":""},
  {"lat":25.853749,"lon":-80.3159,"city":"Hialeah","state":"FL","address":"1650 West 37TH Street","name":""},
  {"lat":33.88059,"lon":-98.537666,"city":"Wichita Falls","state":"TX","address":"3301 KELL BLVD.","name":""},
  {"lat":33.896063,"lon":-118.048225,"city":"Norwalk","state":"CA","address":"14873 CARMENITA ROAD","name":""},
  {"lat":40.872198,"lon":-73.127898,"city":"Stony Brook","state":"NY","address":"2150 Nesconset Highway","name":""},
  {"lat":31.121884,"lon":-93.274529,"city":"Leesville","state":"LA","address":"2200 Mcrae Street","name":""},
  {"lat":33.230084,"lon":-97.5997,"city":"Decatur","state":"TX","address":"1201 W. US HIGHWAY 380 BUSINESS","name":""},
  {"lat":34.141366,"lon":-118.015045,"city":"Monrovia","state":"CA","address":"725 W HUNTINGTON DRIVE","name":""},
  {"lat":40.81244,"lon":-91.149326,"city":"Burlington","state":"IA","address":"3435 AGENCY","name":""},
  {"lat":41.525387,"lon":-72.763223,"city":"Meriden","state":"CT","address":"1201 EAST MAIN ST","name":""},
  {"lat":36.355453,"lon":-92.335485,"city":"Mountain Home","state":"AR","address":"124 Charles Blackburn Drive","name":""},
  {"lat":35.14706,"lon":-89.909806,"city":"Memphis","state":"TN","address":"585 NORTH PERKINS ROAD","name":""},
  {"lat":34.163838,"lon":-117.337531,"city":"San Bernardino","state":"CA","address":"4060 NORTH HALLMARK PKWY","name":""},
  {"lat":41.948874,"lon":-88.726399,"city":"Dekalb","state":"IL","address":"2050 Sycamore RD.","name":""},
  {"lat":28.189695,"lon":-82.462521,"city":"Lutz","state":"FL","address":"21500 STATE RD 54","name":""},
  {"lat":25.747667,"lon":-80.338531,"city":"Miami","state":"FL","address":"8859 SW 24TH STREET","name":""},
  {"lat":35.905614,"lon":-83.839914,"city":"Knoxville","state":"TN","address":"7520 Mountain Grove Drive","name":""},
  {"lat":48.1498,"lon":-122.186336,"city":"Arlington","state":"WA","address":"3300 169TH PLACE NE","name":""},
  {"lat":33.568619,"lon":-84.330391,"city":"Morrow","state":"GA","address":"1865 Mount Zion Road","name":""},
  {"lat":32.013243,"lon":-102.16039,"city":"Midland","state":"TX","address":"3315 NORTH LOOP 250 W.","name":""},
  {"lat":27.948759,"lon":-81.615009,"city":"Lake Wales","state":"FL","address":"23227 Us Highway 27","name":""},
  {"lat":29.550988,"lon":-81.219964,"city":"Palm Coast","state":"FL","address":"315 Cypress Edge Drive","name":""},
  {"lat":41.808613,"lon":-87.723668,"city":"Chicago","state":"IL","address":"4640 S. PULASKI RD","name":""},
  {"lat":32.833252,"lon":-96.996007,"city":"Irving","state":"TX","address":"3500 W AIRPORT FREEWAY","name":""},
  {"lat":42.131735,"lon":-71.067096,"city":"Avon","state":"MA","address":"75 STOCKWELL DRIVE","name":""},
  {"lat":36.002238,"lon":-79.795423,"city":"Greensboro","state":"NC","address":"109 West Elmsley Drive","name":""},
  {"lat":40.238481,"lon":-76.984599,"city":"Mechanicsburg","state":"PA","address":"5500 CARLISLE PIKE","name":""},
  {"lat":40.372093,"lon":-80.671715,"city":"Steubenville","state":"OH","address":"4115 MALL DRIVE","name":""},
  {"lat":27.501355,"lon":-81.488615,"city":"Sebring","state":"FL","address":"2050 US 27 NORTH","name":""},
  {"lat":42.079963,"lon":-86.426131,"city":"Benton Harbor","state":"MI","address":"1300 Mall Drive","name":""},
  {"lat":32.432808,"lon":-97.773948,"city":"Granbury","state":"TX","address":"1021 EAST HIGHWAY 377","name":""},
  {"lat":37.002674,"lon":-93.223607,"city":"Ozark","state":"MO","address":"1800 West Marler Lane","name":""},
  {"lat":38.050345,"lon":-121.372192,"city":"Stockton","state":"CA","address":"10342 TRINITY PARKWAY","name":""},
  {"lat":39.740602,"lon":-77.529698,"city":"Waynesboro","state":"PA","address":"12925 Washington Township Blvd","name":""},
  {"lat":41.114163,"lon":-77.477585,"city":"Mill Hall","state":"PA","address":"284 Hogan Boulevard","name":""},
  {"lat":36.418988,"lon":-94.224298,"city":"Bentonville","state":"AR","address":"1100 N.W. LOWES AVENUE","name":""},
  {"lat":40.188501,"lon":-87.631094,"city":"Danville","state":"IL","address":"3636 N Vermilion","name":""},
  {"lat":42.032607,"lon":-91.684692,"city":"Cedar Rapids","state":"IA","address":"5300 Blairs Forest Blvd Ne","name":""},
  {"lat":41.076145,"lon":-85.199697,"city":"Fort Wayne","state":"IN","address":"4430 Illinois RD.","name":""},
  {"lat":33.699251,"lon":-84.170079,"city":"Lithonia","state":"GA","address":"5375 Fairington Road","name":""},
  {"lat":40.568852,"lon":-79.801248,"city":"Tarentum","state":"PA","address":"1005 Village Center Drive","name":""},
  {"lat":37.382159,"lon":-122.011008,"city":"Sunnyvale","state":"CA","address":"811 EAST ARQUES AVENUE","name":""},
  {"lat":31.777603,"lon":-85.941534,"city":"Troy","state":"AL","address":"1421 US HIGHWAY 231 SOUTH","name":""},
  {"lat":33.39372,"lon":-84.747356,"city":"Newnan","state":"GA","address":"955 BULLSBORO DR","name":""},
  {"lat":40.527568,"lon":-105.02828,"city":"Fort Collins","state":"CO","address":"4227 Corbett Drive","name":""},
  {"lat":41.040574,"lon":-81.694946,"city":"Wadsworth","state":"OH","address":"1065 Williams Reserve Blvd","name":""},
  {"lat":34.003221,"lon":-96.409104,"city":"Durant","state":"OK","address":"720 UNIVERSITY PLACE","name":""},
  {"lat":36.67219,"lon":-76.944928,"city":"Franklin","state":"VA","address":"1240 Armory Drive","name":""},
  {"lat":48.436995,"lon":-122.344553,"city":"Mount Vernon","state":"WA","address":"1717 FREEWAY DRIVE","name":""},
  {"lat":36.326154,"lon":-119.67798,"city":"Hanford","state":"CA","address":"1955 W Lacey Blvd","name":""},
  {"lat":40.586129,"lon":-77.601696,"city":"Lewistown","state":"PA","address":"10472 Us Highway 522 South","name":""},
  {"lat":40.027965,"lon":-83.118883,"city":"Hilliard","state":"OH","address":"3600 PARK MILL RUN DR.","name":""},
  {"lat":37.015309,"lon":-79.860866,"city":"Rocky Mount","state":"VA","address":"800 Old Franklin Turnpike","name":""},
  {"lat":35.227564,"lon":-88.21351,"city":"Savannah","state":"TN","address":"1895 Wayne Road","name":""},
  {"lat":32.379061,"lon":-97.39085,"city":"Cleburne","state":"TX","address":"2100 NORTH MAIN STREET","name":""},
  {"lat":26.610289,"lon":-81.809012,"city":"Ft. Myers","state":"FL","address":"8040 Dani Dr","name":""},
  {"lat":39.819867,"lon":-84.28783,"city":"Trotwood","state":"OH","address":"5252 SALEM AVE.","name":""},
  {"lat":32.761986,"lon":-89.147211,"city":"Philadelphia","state":"MS","address":"1105 Central Drive","name":""},
  {"lat":46.695835,"lon":-67.999786,"city":"Presque Isle","state":"ME","address":"135 Maysville Street","name":""},
  {"lat":40.310769,"lon":-76.426257,"city":"Lebanon","state":"PA","address":"1755 QUENTIN ROAD","name":""},
  {"lat":41.355183,"lon":-74.287677,"city":"Chester","state":"NY","address":"3924 Summerville Way","name":""},
  {"lat":35.448776,"lon":-82.537904,"city":"Arden","state":"NC","address":"19 Mckenna Road","name":""},
  {"lat":35.122567,"lon":-114.579685,"city":"Bullhead City","state":"AZ","address":"1680 Highway 95","name":""},
  {"lat":40.054235,"lon":-76.258144,"city":"Lancaster","state":"PA","address":"1845 Hempstead Road","name":""},
  {"lat":30.23264,"lon":-92.360836,"city":"Crowley","state":"LA","address":"142 Julia John Drive","name":""},
  {"lat":33.940482,"lon":-83.322451,"city":"Athens","state":"GA","address":"3341 Lexington Road","name":""},
  {"lat":38.03144,"lon":-81.120752,"city":"Fayetteville","state":"WV","address":"46 FAYETTE TOWN CENTER ROAD","name":""},
  {"lat":47.236534,"lon":-122.503309,"city":"Tacoma","state":"WA","address":"2701 SOUTH ORCHARD STREET","name":""},
  {"lat":44.075662,"lon":-87.70468,"city":"Manitowoc","state":"WI","address":"4401 CRAWFORD BLVD.","name":""},
  {"lat":33.502082,"lon":-81.960902,"city":"North Augusta","state":"SC","address":"1220 Knox Avenue","name":""},
  {"lat":29.397336,"lon":-94.953001,"city":"Texas City","state":"TX","address":"3620 Emmett F. Lowry Expway","name":""},
  {"lat":37.529708,"lon":-77.351565,"city":"Henrico","state":"VA","address":"4551 S. LABURNUM AVENUE","name":""},
  {"lat":44.50629,"lon":-73.138616,"city":"Essex Junction","state":"VT","address":"10 SUSIE WILSON RD","name":""},
  {"lat":36.366355,"lon":-78.984606,"city":"Roxboro","state":"NC","address":"2044 Durham Road","name":""},
  {"lat":35.330541,"lon":-82.450612,"city":"Hendersonville","state":"NC","address":"1415 7TH AVE. East","name":""},
  {"lat":41.372005,"lon":-83.119598,"city":"Fremont","state":"OH","address":"1952 NORTH STATE, RT. 53","name":""},
  {"lat":40.418797,"lon":-86.841018,"city":"Lafayette","state":"IN","address":"100 North Creasy Lane","name":""},
  {"lat":28.688964,"lon":-81.539874,"city":"Apopka","state":"FL","address":"1651 WEST ORANGE BLOSSOM TRAIL","name":""},
  {"lat":35.668322,"lon":-88.848054,"city":"Jackson","state":"TN","address":"671 Vann Drive","name":""},
  {"lat":35.653777,"lon":-80.460001,"city":"Salisbury","state":"NC","address":"207 Faith Road","name":""},
  {"lat":32.063802,"lon":-84.200229,"city":"Americus","state":"GA","address":"1700 E. Lamar Street","name":""},
  {"lat":32.966,"lon":-96.345,"city":"Royse City","state":"TX","address":"634 W INTERSTATE 30","name":""},
  {"lat":36.574963,"lon":-87.304954,"city":"Clarksville","state":"TN","address":"2150 LOWES DRIVE","name":""},
  {"lat":32.937978,"lon":-80.047293,"city":"North Charleston","state":"SC","address":"7555 Northwood BLVD.","name":""},
  {"lat":40.661297,"lon":-74.106235,"city":"Bayonne","state":"NJ","address":"400 Bayonne Crossing Way","name":""},
  {"lat":30.22095,"lon":-95.674693,"city":"Magnolia","state":"TX","address":"4427 MAGNOLIA VILLAGE DR","name":""},
  {"lat":37.350706,"lon":-87.488273,"city":"Madisonville","state":"KY","address":"550 ISLAND FORD RD.","name":""},
  {"lat":33.978519,"lon":-81.112208,"city":"West Columbia","state":"SC","address":"2829 Augusta Rd","name":""},
  {"lat":41.088153,"lon":-111.9851,"city":"Layton","state":"UT","address":"1055 W. ANTELOPE DRIVE","name":""},
  {"lat":47.702101,"lon":-116.801016,"city":"Coeur D Alene","state":"ID","address":"901 APPLEWAY AVE","name":""},
  {"lat":32.481132,"lon":-97.006184,"city":"Midlothian","state":"TX","address":"200 NICOLETTE CREEK RD","name":""},
  {"lat":39.859234,"lon":-86.410017,"city":"Brownsburg","state":"IN","address":"630 West Northfield Drive","name":""},
  {"lat":33.801199,"lon":-111.964031,"city":"Carefree","state":"AZ","address":"34700 N CAVE CREEK RD","name":""},
  {"lat":40.330075,"lon":-83.763517,"city":"Bellefontaine","state":"OH","address":"2168 US 68 SOUTH","name":""},
  {"lat":32.965561,"lon":-97.411346,"city":"Haslet","state":"TX","address":"12980 N.W HIGHWAY 287","name":""},
  {"lat":38.95294,"lon":-92.296141,"city":"Columbia","state":"MO","address":"201 CONLEY RD","name":""},
  {"lat":30.679694,"lon":-97.664362,"city":"Georgetown","state":"TX","address":"2301 N IH 35","name":""},
  {"lat":40.892465,"lon":-111.893988,"city":"West Bountiful","state":"UT","address":"350 N 545 W","name":""},
  {"lat":34.946883,"lon":-85.22716,"city":"Fort Oglethorpe","state":"GA","address":"2215 BATTLEFIELD PKWY","name":""},
  {"lat":30.170591,"lon":-92.068612,"city":"Lafayette","state":"LA","address":"3726 AMBASSADOR CAFFERY","name":""},
  {"lat":31.557426,"lon":-110.260534,"city":"Sierra Vista","state":"AZ","address":"3700 MARTIN LUTHER KING PARKWAY","name":""},
  {"lat":35.947422,"lon":-79.012709,"city":"Chapel Hill","state":"NC","address":"1801 Fordham Boulevard","name":""},
  {"lat":39.920776,"lon":-82.830277,"city":"Columbus","state":"OH","address":"2888 BRICE ROAD","name":""},
  {"lat":35.918301,"lon":-84.082387,"city":"Knoxville","state":"TN","address":"210 N. Peters RD.","name":""},
  {"lat":40.638858,"lon":-73.73972,"city":"Rosedale","state":"NY","address":"253-01 Rockaway Blvd","name":""},
  {"lat":35.44581,"lon":-80.864842,"city":"Huntersville","state":"NC","address":"16830 Statesville RD.","name":""},
  {"lat":35.381769,"lon":-96.927902,"city":"Shawnee","state":"OK","address":"4817 NORTH KICKAPOO AVE","name":""},
  {"lat":37.104696,"lon":-84.086505,"city":"London","state":"KY","address":"136 Keavy Road","name":""},
  {"lat":35.723834,"lon":-78.65005,"city":"Garner","state":"NC","address":"1575 Us Hwy 70 West","name":""},
  {"lat":47.579562,"lon":-122.298188,"city":"Seattle","state":"WA","address":"2700 RAINIER AVENUE SOUTH","name":""},
  {"lat":43.065579,"lon":-77.368886,"city":"Macedon","state":"NY","address":"1605 Macedon Parkway","name":""},
  {"lat":25.951818,"lon":-97.510248,"city":"Brownsville","state":"TX","address":"525 East Ruben Torres Blvd","name":""},
  {"lat":35.792532,"lon":-80.25777,"city":"Lexington","state":"NC","address":"130 LOWE'S BLVD.","name":""},
  {"lat":38.163284,"lon":-84.898565,"city":"Frankfort","state":"KY","address":"350 LEONARDWOOD RD.","name":""},
  {"lat":30.542943,"lon":-97.562949,"city":"Hutto","state":"TX","address":"201 Ed Schmidt Boulevard","name":""},
  {"lat":31.614735,"lon":-84.210234,"city":"Albany","state":"GA","address":"1200 NORTH WESTOVER BLVD.","name":""},
  {"lat":36.972021,"lon":-84.099287,"city":"Corbin","state":"KY","address":"777 W CUMBERLAND GAP PKY","name":""},
  {"lat":47.460529,"lon":-122.250993,"city":"Tukwila","state":"WA","address":"101 ANDOVER PARK EAST","name":""},
  {"lat":37.733052,"lon":-89.195799,"city":"Carbondale","state":"IL","address":"1170 RENDLEMAN RD","name":""},
  {"lat":33.708818,"lon":-85.819046,"city":"Anniston","state":"AL","address":"4901 Mcclellan Boulevard","name":""},
  {"lat":38.23982,"lon":-85.574586,"city":"Louisville","state":"KY","address":"501 S. HURSTBOURNE PKWY","name":""},
  {"lat":28.655829,"lon":-81.343827,"city":"Fern Park","state":"FL","address":"6735 South Us Hwy 17-92","name":""},
  {"lat":39.3121,"lon":-81.550882,"city":"Vienna","state":"WV","address":"1300 Grand Central AVE.","name":""},
  {"lat":38.29978,"lon":-77.507738,"city":"Fredericksburg","state":"VA","address":"1361 CARL D. SILVER PKWY","name":""},
  {"lat":36.031358,"lon":-80.263964,"city":"Winston Salem","state":"NC","address":"1450 Lumber Lane","name":""},
  {"lat":36.179405,"lon":-86.514527,"city":"Mt. Juliet","state":"TN","address":"300 Pleasant Grove RD, Ste 200","name":""},
  {"lat":36.484895,"lon":-80.615877,"city":"Mount Airy","state":"NC","address":"692 S. Andy Griffith PKY, STE100","name":""},
  {"lat":28.524229,"lon":-81.580219,"city":"Winter Garden","state":"FL","address":"3391 Daniels Road","name":""},
  {"lat":35.324963,"lon":-97.492878,"city":"Moore","state":"OK","address":"1501 South I-35 Service Road","name":""},
  {"lat":38.734909,"lon":-82.86212,"city":"Wheelersburg","state":"OH","address":"7915 OHIO RIVER RD.","name":""},
  {"lat":26.254478,"lon":-98.219162,"city":"McAllen","state":"TX","address":"5700 North 10TH Street","name":""},
  {"lat":42.618245,"lon":-71.323741,"city":"Lowell","state":"MA","address":"50 Lowes Way","name":""},
  {"lat":30.443713,"lon":-86.639752,"city":"Fort Walton Beach","state":"FL","address":"774 Beal Pkwy Nw","name":""},
  {"lat":41.233123,"lon":-73.023606,"city":"Milford","state":"CT","address":"311 Old Gate Lane","name":""},
  {"lat":34.828037,"lon":-87.629994,"city":"Florence","state":"AL","address":"130 Cox Creek Pkwy South","name":""},
  {"lat":36.182976,"lon":-80.272568,"city":"Winston Salem","state":"NC","address":"5901 University PKWY.","name":""},
  {"lat":36.357449,"lon":-119.330184,"city":"Visalia","state":"CA","address":"3020 NORTH DEMAREE STREET","name":""},
  {"lat":32.620251,"lon":-83.670628,"city":"Warner Robins","state":"GA","address":"2704 WATSON BLVD.","name":""},
  {"lat":33.507562,"lon":-82.090872,"city":"Augusta","state":"GA","address":"224 BOBBY JONES EXP.","name":""},
  {"lat":39.613418,"lon":-119.211418,"city":"Fernley","state":"NV","address":"375 STANLEY DR E","name":""},
  {"lat":41.562746,"lon":-93.807877,"city":"West Des Moines","state":"IA","address":"450 South Jordan Creek Parkway","name":""},
  {"lat":39.352912,"lon":-84.378123,"city":"West Chester","state":"OH","address":"7975 Tylersville Square Road","name":""},
  {"lat":32.285759,"lon":-95.302055,"city":"Tyler","state":"TX","address":"5720 SOUTH BROADWAY","name":""},
  {"lat":34.659909,"lon":-84.487392,"city":"East Ellijay","state":"GA","address":"380 Highland Crossing","name":""},
  {"lat":35.350689,"lon":-94.343855,"city":"Fort Smith","state":"AR","address":"8001 ROGERS AVE.","name":""},
  {"lat":30.839774,"lon":-83.323596,"city":"Valdosta","state":"GA","address":"1106 North ST. Augustine Road","name":""},
  {"lat":37.072897,"lon":-88.691803,"city":"Paducah","state":"KY","address":"5176 HINKLEVILLE RD.","name":""},
  {"lat":38.778796,"lon":-89.95181,"city":"Glen Carbon","state":"IL","address":"159 WHISTLE STOP DRIVE","name":""},
  {"lat":37.997649,"lon":-84.216531,"city":"Winchester","state":"KY","address":"1221 BY-PASS ROAD","name":""},
  {"lat":36.999661,"lon":-85.93041,"city":"Glasgow","state":"KY","address":"208 Sl Rogers Wells Blvd","name":""},
  {"lat":31.202904,"lon":-81.480517,"city":"Brunswick","state":"GA","address":"300 GLYNN ISLES","name":""},
  {"lat":27.996667,"lon":-80.632639,"city":"Palm Bay","state":"FL","address":"1166 Malabar Rd Se","name":""},
  {"lat":37.825808,"lon":-82.821318,"city":"Paintsville","state":"KY","address":"527 North Mayo Trail","name":""},
  {"lat":28.913932,"lon":-81.289277,"city":"Orange City","state":"FL","address":"901 Saxon BLVD.","name":""},
  {"lat":30.250856,"lon":-90.922733,"city":"Gonzales","state":"LA","address":"12484 Airline Highway","name":""},
  {"lat":30.39643,"lon":-89.087544,"city":"Gulfport","state":"MS","address":"2151 John Hill BLVD.","name":""},
  {"lat":35.968068,"lon":-78.539019,"city":"Wake Forest","state":"NC","address":"11800 GALAXY DRIVE","name":""},
  {"lat":34.787245,"lon":-86.951692,"city":"Athens","state":"AL","address":"1109 Us Highway 72 East","name":""},
  {"lat":33.097217,"lon":-96.113514,"city":"Greenville","state":"TX","address":"3122 INTERSTATE 30 WEST","name":""},
  {"lat":34.825033,"lon":-82.576732,"city":"Easley","state":"SC","address":"6068 Calhoun MEM. HWY.","name":""},
  {"lat":39.640658,"lon":-78.833486,"city":"Lavale","state":"MD","address":"1211 NATIONAL HWY.","name":""},
  {"lat":37.141303,"lon":-94.316009,"city":"Carthage","state":"MO","address":"433 West Fir Road","name":""},
  {"lat":35.520069,"lon":-82.958004,"city":"Waynesville","state":"NC","address":"100 Liner Cove Road","name":""},
  {"lat":39.352313,"lon":-82.974602,"city":"Chillicothe","state":"OH","address":"867 NORTH BRIDGE ST.","name":""},
  {"lat":39.63362,"lon":-77.759919,"city":"Hagerstown","state":"MD","address":"1500 WESEL BLVD.","name":""},
  {"lat":35.254883,"lon":-81.037449,"city":"Belmont","state":"NC","address":"200 Caldwell Farm Road","name":""},
  {"lat":38.866711,"lon":-78.536106,"city":"Woodstock","state":"VA","address":"1220 HENRY FORD DRIVE","name":""},
  {"lat":35.991693,"lon":-80.026535,"city":"High Point","state":"NC","address":"2600 North Main ST.","name":""},
  {"lat":34.959352,"lon":-80.758369,"city":"Waxhaw","state":"NC","address":"2508 Cuthbertson Road","name":""},
  {"lat":28.034355,"lon":-82.644413,"city":"Tampa","state":"FL","address":"13841 W. Hillsborough Ave","name":""},
  {"lat":30.727338,"lon":-86.574221,"city":"Crestview","state":"FL","address":"298 Rasberry Road","name":""},
  {"lat":38.944754,"lon":-76.720813,"city":"Bowie","state":"MD","address":"16301 HERITAGE BLVD.","name":""},
  {"lat":39.748501,"lon":-74.992947,"city":"Sicklerville","state":"NJ","address":"485 CROSS KEYS ROAD","name":""},
  {"lat":31.485292,"lon":-82.845332,"city":"Douglas","state":"GA","address":"1340 Bowens Mill Rd Se","name":""},
  {"lat":36.948834,"lon":-86.437283,"city":"Bowling Green","state":"KY","address":"150 AMERICAN LN","name":""},
  {"lat":38.417575,"lon":-82.267014,"city":"Barboursville","state":"WV","address":"700 Mall Road","name":""},
  {"lat":42.611285,"lon":-73.790045,"city":"Glenmont","state":"NY","address":"271 Route 9 West","name":""},
  {"lat":43.603987,"lon":-116.597044,"city":"Nampa","state":"ID","address":"1400 NAMPA-CALDWELL BLVD","name":""},
  {"lat":39.945144,"lon":-83.836059,"city":"Springfield","state":"OH","address":"1601 N. BECHTLE AVE.","name":""},
  {"lat":34.435999,"lon":-85.754605,"city":"Fort Payne","state":"AL","address":"1600 Glenn Boulevard Sw","name":""},
  {"lat":38.411327,"lon":-82.529071,"city":"South Point","state":"OH","address":"294 COUNTY ROAD 120 S.","name":""},
  {"lat":35.704568,"lon":-82.576346,"city":"Weaverville","state":"NC","address":"24 Northridge Commons Parkway","name":""},
  {"lat":32.203284,"lon":-82.358061,"city":"Vidalia","state":"GA","address":"3209 East First Street","name":""},
  {"lat":35.338841,"lon":-81.895729,"city":"Forest City","state":"NC","address":"184 LOWE'S Boulevard","name":""},
  {"lat":35.817058,"lon":-80.879675,"city":"Statesville","state":"NC","address":"140 North Pointe BLVD.","name":""},
  {"lat":35.448309,"lon":-81.004459,"city":"Denver","state":"NC","address":"7144 Highway 73","name":""},
  {"lat":36.284042,"lon":-88.304774,"city":"Paris","state":"TN","address":"117 Memorial Drive","name":""},
  {"lat":30.708353,"lon":-94.951526,"city":"Livingston","state":"TX","address":"120 Us 59 Loop South","name":""},
  {"lat":32.135409,"lon":-111.004376,"city":"Tucson","state":"AZ","address":"1800 WEST VALENCIA ROAD","name":""},
  {"lat":30.462021,"lon":-91.09356,"city":"Baton Rouge","state":"LA","address":"9460 CORTANA PLACE","name":""},
  {"lat":37.730782,"lon":-85.881441,"city":"Elizabethtown","state":"KY","address":"100 LOWE'S DRIVE","name":""},
  {"lat":26.255448,"lon":-80.101668,"city":"Pompano Beach","state":"FL","address":"1851 N. Federal Highway","name":""},
  {"lat":42.561749,"lon":-83.087054,"city":"Sterling Height","state":"MI","address":"2000 Metropolitan Parkway","name":""},
  {"lat":35.693383,"lon":-79.793891,"city":"Asheboro","state":"NC","address":"1120 East Dixie Dr","name":""},
  {"lat":35.259808,"lon":-81.120314,"city":"Gastonia","state":"NC","address":"3250 East Franklin BLVD.","name":""},
  {"lat":38.810982,"lon":-94.490515,"city":"Raymore","state":"MO","address":"225 North Dean Avenue","name":""},
  {"lat":45.090082,"lon":-93.422951,"city":"Maple Grove","state":"MN","address":"11201 FOUNTAINS DR NORTH","name":""},
  {"lat":30.188129,"lon":-85.655073,"city":"Panama City","state":"FL","address":"300 EAST 23RD ST.","name":""},
  {"lat":44.777233,"lon":-93.466338,"city":"Shakopee","state":"MN","address":"4270 Dean Lakes Boulevard","name":""},
  {"lat":43.838303,"lon":-70.448556,"city":"Windham","state":"ME","address":"64 Manchester Drive","name":""},
  {"lat":32.354566,"lon":-86.220154,"city":"Montgomery","state":"AL","address":"1950 Eastern BLVD.","name":""},
  {"lat":32.764741,"lon":-96.900828,"city":"Dallas","state":"TX","address":"1710 CHALK HILL RD","name":""},
  {"lat":31.653154,"lon":-94.659473,"city":"Nacogdoches","state":"TX","address":"220 NORTH STALLINGS ROAD","name":""},
  {"lat":29.151016,"lon":-82.181232,"city":"Ocala","state":"FL","address":"3535 Sw 36TH AVE.","name":""},
  {"lat":32.465948,"lon":-90.129794,"city":"Madison","state":"MS","address":"128 Grandview Boulevard","name":""},
  {"lat":40.772326,"lon":-85.164276,"city":"Bluffton","state":"IN","address":"2105 North Main Street","name":""},
  {"lat":39.63698,"lon":-86.119247,"city":"Indianapolis","state":"IN","address":"8850 Madison Ave","name":""},
  {"lat":31.193751,"lon":-83.763191,"city":"Moultrie","state":"GA","address":"602 VETERAN'S PARKWAY N","name":""},
  {"lat":31.258436,"lon":-90.477337,"city":"McComb","state":"MS","address":"1802 Pikes Point Circle","name":""},
  {"lat":34.236404,"lon":-77.878828,"city":"Wilmington","state":"NC","address":"354 South College RD.","name":""},
  {"lat":32.401098,"lon":-90.139216,"city":"Ridgeland","state":"MS","address":"910 East County Line","name":""},
  {"lat":35.248517,"lon":-91.684479,"city":"Searcy","state":"AR","address":"3701 East Race Avenue","name":""},
  {"lat":38.239949,"lon":-77.508269,"city":"Fredericksburg","state":"VA","address":"10101 Southpoint Parkway","name":""},
  {"lat":34.983805,"lon":-81.210331,"city":"York","state":"SC","address":"1010 East Liberty St","name":""},
  {"lat":35.845962,"lon":-78.581495,"city":"Raleigh","state":"NC","address":"4601 Capital BLVD.","name":""},
  {"lat":35.324906,"lon":-78.646037,"city":"Erwin","state":"NC","address":"524 EAST JACKSON BOULEVARD","name":""},
  {"lat":37.89843,"lon":-76.868407,"city":"Tappahannock","state":"VA","address":"2000 Tappahannock Blvd","name":""},
  {"lat":37.163402,"lon":-80.416777,"city":"Christiansburg","state":"VA","address":"350 PEPPERS FERRY RD NE","name":""},
  {"lat":40.053038,"lon":-80.726913,"city":"Wheeling","state":"WV","address":"2801 Chapline Street","name":""},
  {"lat":40.49538,"lon":-78.387211,"city":"Altoona","state":"PA","address":"1707 MCMAHON RD.","name":""},
  {"lat":32.493323,"lon":-92.059407,"city":"Monroe","state":"LA","address":"4750 FRONTAGE RD","name":""},
  {"lat":32.865487,"lon":-96.684135,"city":"Dallas","state":"TX","address":"11333 E. NORTHWEST HIGHWAY","name":""},
  {"lat":34.435097,"lon":-103.195107,"city":"Clovis","state":"NM","address":"3601 NORTH PRINCE STREET","name":""},
  {"lat":40.978152,"lon":-81.490784,"city":"Akron","state":"OH","address":"940 Interstate Parkway","name":""},
  {"lat":30.480099,"lon":-87.213815,"city":"Pensacola","state":"FL","address":"1201 Airport BLVD.","name":""},
  {"lat":30.905784,"lon":-94.018866,"city":"Jasper","state":"TX","address":"900 West Gibson","name":""},
  {"lat":37.345601,"lon":-79.232318,"city":"Lynchburg","state":"VA","address":"8216 TIMBERLAKE ROAD","name":""},
  {"lat":43.213389,"lon":-71.529237,"city":"Concord","state":"NH","address":"90 Fort Eddy Road","name":""},
  {"lat":36.365815,"lon":-86.486773,"city":"Gallatin","state":"TN","address":"1301 Nashville Pike","name":""},
  {"lat":36.763081,"lon":-76.252985,"city":"Chesapeake","state":"VA","address":"1308 BATTLEFIELD BLVD N","name":""},
  {"lat":45.010413,"lon":-122.999866,"city":"Keizer","state":"OR","address":"6225 ULALI DRIVE NE","name":""},
  {"lat":36.736369,"lon":-78.913407,"city":"South Boston","state":"VA","address":"3603 OLD HALIFAX ROAD","name":""},
  {"lat":32.935365,"lon":-105.962891,"city":"Alamogordo","state":"NM","address":"4201 Scenic Dr","name":""},
  {"lat":32.553485,"lon":-94.348177,"city":"Marshall","state":"TX","address":"910 EAST END BLVD. NORTH","name":""},
  {"lat":36.130139,"lon":-94.143107,"city":"Fayetteville","state":"AR","address":"1050 ZION RD","name":""},
  {"lat":43.44994,"lon":-71.579772,"city":"Tilton","state":"NH","address":"48 LOWES DRIVE","name":""},
  {"lat":27.493205,"lon":-97.850553,"city":"Kingsville","state":"TX","address":"1420 General Cavazos Blvd","name":""},
  {"lat":37.323976,"lon":-79.874128,"city":"Roanoke","state":"VA","address":"4520 Challenger Avenue","name":""},
  {"lat":41.172135,"lon":-96.020763,"city":"Papillion","state":"NE","address":"8707 SOUTH 71ST PLAZA","name":""},
  {"lat":34.290578,"lon":-83.848837,"city":"Gainesville","state":"GA","address":"1514 SKELTON ROAD","name":""},
  {"lat":40.746291,"lon":-73.502469,"city":"Hicksville","state":"NY","address":"920 South Broadway","name":""},
  {"lat":40.399093,"lon":-82.451496,"city":"Mount Vernon","state":"OH","address":"1010 Coshocton Avenue","name":""},
  {"lat":34.07209,"lon":-80.951932,"city":"Columbia","state":"SC","address":"7441 Two Notch Road","name":""},
  {"lat":36.063586,"lon":-80.313452,"city":"Winston Salem","state":"NC","address":"935 Hanes Mall BLVD.","name":""},
  {"lat":41.033604,"lon":-78.397479,"city":"Clearfield","state":"PA","address":"100 Lowes Boulevard","name":""},
  {"lat":34.887301,"lon":-92.104724,"city":"Jacksonville","state":"AR","address":"2301 T.P. White Drive","name":""},
  {"lat":35.509746,"lon":-86.453989,"city":"Shelbyville","state":"TN","address":"1734 North Main Street","name":""},
  {"lat":41.878244,"lon":-79.152774,"city":"Warren","state":"PA","address":"2625 Market Street","name":""},
  {"lat":37.503445,"lon":-82.536079,"city":"Pikeville","state":"KY","address":"183 CASSADY BLVD.","name":""},
  {"lat":37.340062,"lon":-85.363356,"city":"Campbellsville","state":"KY","address":"205 Jefra Avenue","name":""},
  {"lat":38.005269,"lon":-122.043695,"city":"Concord","state":"CA","address":"1935 ARNOLD INDUSTRIAL WAY","name":""},
  {"lat":34.311392,"lon":-89.909605,"city":"Batesville","state":"MS","address":"1135 HIGHWAY 6 EAST","name":""},
  {"lat":35.75739,"lon":-78.743082,"city":"Cary","state":"NC","address":"2000 Walnut St","name":""},
  {"lat":33.699547,"lon":-117.825653,"city":"Tustin","state":"CA","address":"2500 PARK AVENUE","name":""},
  {"lat":40.657114,"lon":-75.287996,"city":"Easton","state":"PA","address":"4443 Birkland Place","name":""},
  {"lat":40.585142,"lon":-111.86028,"city":"Sandy","state":"UT","address":"9291 SOUTH QUARRY BEND DRIVE","name":""},
  {"lat":38.721336,"lon":-104.701696,"city":"Fountain","state":"CO","address":"7710 FOUNTAIN MESA ROAD","name":""},
  {"lat":32.410098,"lon":-93.800172,"city":"Shreveport","state":"LA","address":"2710 ALKAY DRIVE","name":""},
  {"lat":45.698102,"lon":-111.060471,"city":"Bozeman","state":"MT","address":"1731 TSCHACHE LANE","name":""},
  {"lat":35.940545,"lon":-83.214418,"city":"Newport","state":"TN","address":"120 Epley Road","name":""},
  {"lat":42.291933,"lon":-83.844696,"city":"Ann Arbor","state":"MI","address":"5900 Jackson Road","name":""},
  {"lat":34.248017,"lon":-80.641962,"city":"Camden","state":"SC","address":"11 Bay Lane","name":""},
  {"lat":36.574122,"lon":-94.766614,"city":"Grove","state":"OK","address":"2131 SOUTH MAIN STREET","name":""},
  {"lat":37.124024,"lon":-76.511962,"city":"Newport News","state":"VA","address":"300 CHATHAM DRIVE","name":""},
  {"lat":33.716729,"lon":-117.985591,"city":"Huntington Beach","state":"CA","address":"8175 WARNER AVENUE","name":""},
  {"lat":38.77771,"lon":-93.738271,"city":"Warrensburg","state":"MO","address":"912 NORTH COLLEGE AVENUE","name":""},
  {"lat":33.167498,"lon":-87.553984,"city":"Tuscaloosa","state":"AL","address":"4900 Oscar Baxter DR.","name":""},
  {"lat":32.423382,"lon":-96.837266,"city":"Waxahachie","state":"TX","address":"1420 NORTH HIGHWAY 77","name":""},
  {"lat":32.236818,"lon":-110.839784,"city":"Tucson","state":"AZ","address":"7105 EAST SPEEDWAY BOULEVARD","name":""},
  {"lat":37.149214,"lon":-93.261356,"city":"Springfield","state":"MO","address":"1850 E. PRIMROSE","name":""},
  {"lat":38.066798,"lon":-78.940187,"city":"Waynesboro","state":"VA","address":"801 Lew Dewitt Boulevard","name":""},
  {"lat":39.534627,"lon":-104.773185,"city":"Parker","state":"CO","address":"10000 SOUTH TWENTY MILE ROAD","name":""},
  {"lat":35.035245,"lon":-85.149875,"city":"Chattanooga","state":"TN","address":"2180 Gunbarrel RD.","name":""},
  {"lat":37.253141,"lon":-121.801784,"city":"San Jose","state":"CA","address":"5550 COTTLE ROAD","name":""},
  {"lat":39.686157,"lon":-83.969183,"city":"Xenia","state":"OH","address":"126 Hospitality Drive","name":""},
  {"lat":38.411344,"lon":-75.569266,"city":"Salisbury","state":"MD","address":"2606 NORTH SALISBURY BLVD.","name":""},
  {"lat":37.790697,"lon":-90.429656,"city":"Farmington","state":"MO","address":"625 West Karsch Boulevard","name":""},
  {"lat":34.939065,"lon":-80.962662,"city":"Rock Hill","state":"SC","address":"1350 Springdale Road","name":""},
  {"lat":36.488473,"lon":-86.883573,"city":"Springfield","state":"TN","address":"3480 Tom Austin Highway","name":""},
  {"lat":39.976935,"lon":-76.677538,"city":"York","state":"PA","address":"2449 E. MARKET ST","name":""},
  {"lat":42.010623,"lon":-87.719481,"city":"Lincolnwood","state":"IL","address":"3601 West Touhy Avenue","name":""},
  {"lat":30.481242,"lon":-84.234869,"city":"Tallahassee","state":"FL","address":"2121 NE CAPITAL CIRCLE","name":""},
  {"lat":34.18889,"lon":-97.162144,"city":"Ardmore","state":"OK","address":"2701 12TH AVENUE NW","name":""},
  {"lat":37.316267,"lon":-79.964319,"city":"Roanoke","state":"VA","address":"5040 RUTGERS ST., NW","name":""},
  {"lat":33.714273,"lon":-78.892596,"city":"Myrtle Beach","state":"SC","address":"1160 Seaboard ST.","name":""},
  {"lat":42.862244,"lon":-73.764303,"city":"Halfmoon","state":"NY","address":"476 Route 146","name":""},
  {"lat":43.250626,"lon":-123.358364,"city":"Roseburg","state":"OR","address":"3300 NW AVIATION DRIVE","name":""},
  {"lat":32.648916,"lon":-116.969239,"city":"Chula Vista","state":"CA","address":"2225 OTAY LAKES ROAD","name":""},
  {"lat":34.6427,"lon":-86.568672,"city":"Huntsville","state":"AL","address":"10050 S. Memorial Pkwy","name":""},
  {"lat":33.868381,"lon":-117.541779,"city":"Corona","state":"CA","address":"1285 MAGNOLIA AVENUE","name":""},
  {"lat":35.819025,"lon":-90.674234,"city":"Jonesboro","state":"AR","address":"2111 FAIR PARK BLVD.","name":""},
  {"lat":33.610139,"lon":-86.803568,"city":"Fultondale","state":"AL","address":"1335 Walker Chapel Road","name":""},
  {"lat":38.073516,"lon":-97.890424,"city":"Hutchinson","state":"KS","address":"1930 East 17TH Avenue","name":""},
  {"lat":36.279098,"lon":-86.711191,"city":"Madison","state":"TN","address":"10 E Campbell Rd","name":""},
  {"lat":38.783623,"lon":-85.380327,"city":"Madison","state":"IN","address":"511 Ivy Tech Drive","name":""},
  {"lat":38.227923,"lon":-84.532682,"city":"Georgetown","state":"KY","address":"109 Magnolia Drive","name":""},
  {"lat":36.053714,"lon":-79.887277,"city":"Greensboro","state":"NC","address":"1703 South Forty DR.","name":""},
  {"lat":33.56505,"lon":-86.518128,"city":"Leeds","state":"AL","address":"8900 Weaver Avenue","name":""},
  {"lat":41.898458,"lon":-88.343179,"city":"St. Charles","state":"IL","address":"955 South Randall Road","name":""},
  {"lat":42.181007,"lon":-88.338462,"city":"Lake In The Hills","state":"IL","address":"300 North Randall Road","name":""},
  {"lat":35.292343,"lon":-80.742057,"city":"Charlotte","state":"NC","address":"1100 Chancellor Park DR.","name":""},
  {"lat":39.635887,"lon":-104.793281,"city":"Aurora","state":"CO","address":"4455 SOUTH BUCKLEY ROAD","name":""},
  {"lat":36.054563,"lon":-89.400759,"city":"Dyersburg","state":"TN","address":"1155 Highway 51 Bypass West","name":""},
  {"lat":27.006089,"lon":-82.128353,"city":"Port Charlotte","state":"FL","address":"2000 Tamiami Trail","name":""},
  {"lat":31.981702,"lon":-81.141308,"city":"Savannah","state":"GA","address":"11114 ABERCORN ST.","name":""},
  {"lat":33.245465,"lon":-84.29167,"city":"Griffin","state":"GA","address":"1520 Highway 16 West","name":""},
  {"lat":34.266049,"lon":-119.244704,"city":"Ventura","state":"CA","address":"500 SOUTH MILLS ROAD","name":""},
  {"lat":38.64297,"lon":-76.89625,"city":"Waldorf","state":"MD","address":"2525 CRAIN HWY","name":""},
  {"lat":30.41538,"lon":-97.675179,"city":"Austin","state":"TX","address":"13000 N I35 Svc Rd SB, Bldg 12","name":""},
  {"lat":34.621584,"lon":-98.447218,"city":"Lawton","state":"OK","address":"4402 N.W. Cache Road","name":""},
  {"lat":30.364508,"lon":-97.740776,"city":"Austin","state":"TX","address":"8000 Shoal Creek Boulevard","name":""},
  {"lat":33.420507,"lon":-86.680287,"city":"Birmingham","state":"AL","address":"5291 Highway 280","name":""},
  {"lat":33.551529,"lon":-112.184358,"city":"Glendale","state":"AZ","address":"5809 West Northern AVE.","name":""},
  {"lat":40.019016,"lon":-75.665701,"city":"Downingtown","state":"PA","address":"1250 Cornerstone Boulevard","name":""},
  {"lat":26.804852,"lon":-80.085257,"city":"Lake Park","state":"FL","address":"401 North Congress Avenue","name":""},
  {"lat":34.965163,"lon":-89.993155,"city":"Southaven","state":"MS","address":"178 GOODMAN ROAD WEST","name":""},
  {"lat":35.259361,"lon":-77.649955,"city":"Kinston","state":"NC","address":"4489 HIGHWAY 70 WEST","name":""},
  {"lat":37.383475,"lon":-76.532643,"city":"Gloucester","state":"VA","address":"6659 George Washington MEM. HWY.","name":""},
  {"lat":36.290944,"lon":-76.245708,"city":"Elizabeth City","state":"NC","address":"1605 West Ehringhaus Street","name":""},
  {"lat":27.959057,"lon":-82.72838,"city":"Clearwater","state":"FL","address":"2619 Gulf To Bay Boulevard","name":""},
  {"lat":33.656426,"lon":-84.505202,"city":"East Point","state":"GA","address":"3625 North Commerce Drive","name":""},
  {"lat":42.555577,"lon":-82.901605,"city":"Clinton Township","state":"MI","address":"35115 South Gratiot Avenue","name":""},
  {"lat":40.31595,"lon":-75.996883,"city":"Sinking Spring","state":"PA","address":"2625 Shillington Road","name":""},
  {"lat":34.893677,"lon":-82.406898,"city":"Greenville","state":"SC","address":"1900 Poinsett Highway","name":""},
  {"lat":36.007704,"lon":-115.117385,"city":"Las Vegas","state":"NV","address":"9955 SOUTH EASTERN AVENUE","name":""},
  {"lat":40.198361,"lon":-77.171913,"city":"Carlisle","state":"PA","address":"850 East High Street","name":""},
  {"lat":41.742633,"lon":-88.204641,"city":"Naperville","state":"IL","address":"1440 South Route 59","name":""},
  {"lat":42.455278,"lon":-92.349606,"city":"Waterloo","state":"IA","address":"400 East Tower Park Drive","name":""},
  {"lat":26.191178,"lon":-98.202889,"city":"Pharr","state":"TX","address":"707 South Jackson Road","name":""},
  {"lat":36.097045,"lon":-115.294495,"city":"Las Vegas","state":"NV","address":"5050 South Fort Apache Road","name":""},
  {"lat":36.414035,"lon":-89.067485,"city":"Union City","state":"TN","address":"800 West Reelfoot Avenue","name":""},
  {"lat":33.792491,"lon":-78.996563,"city":"Conway","state":"SC","address":"2301 E Highway 501","name":""},
  {"lat":38.117198,"lon":-121.309137,"city":"Lodi","state":"CA","address":"1389 S. LOWER SACRAMENTO ROAD","name":""},
  {"lat":32.336442,"lon":-111.051647,"city":"Tucson","state":"AZ","address":"4075 WEST INA ROAD","name":""},
  {"lat":35.298232,"lon":-119.027048,"city":"Bakersfield","state":"CA","address":"6200 COLONY STREET","name":""},
  {"lat":40.727128,"lon":-73.281154,"city":"Bay Shore","state":"NY","address":"800 Sunrise Highway","name":""},
  {"lat":34.13799,"lon":-117.437946,"city":"Fontana","state":"CA","address":"16851 SIERRA LAKES PARKWAY","name":""},
  {"lat":27.895552,"lon":-82.793272,"city":"Largo","state":"FL","address":"11101 Ulmerton Road","name":""},
  {"lat":37.740233,"lon":-122.40618,"city":"San Francisco","state":"CA","address":"491 BAYSHORE BLVD","name":""},
  {"lat":39.44337,"lon":-92.420147,"city":"Moberly","state":"MO","address":"1800 EAST OUTER ROAD","name":""},
  {"lat":34.690659,"lon":-82.787184,"city":"Central","state":"SC","address":"608 Issaqueena Trail","name":""},
  {"lat":33.052933,"lon":-112.044871,"city":"Maricopa","state":"AZ","address":"44400 W. HONEYCUTT AVENUE","name":""},
  {"lat":34.815752,"lon":-106.752413,"city":"Los Lunas","state":"NM","address":"1600 MAIN STREET NW","name":""},
  {"lat":34.483368,"lon":-82.663429,"city":"Anderson","state":"SC","address":"408 Highway 28 Byp","name":""},
  {"lat":40.570574,"lon":-80.025044,"city":"Pittsburgh","state":"PA","address":"9051 St Simon Way","name":""},
  {"lat":44.631864,"lon":-123.086895,"city":"Albany","state":"OR","address":"1300 9TH AVE SE","name":""},
  {"lat":34.490101,"lon":-89.028718,"city":"New Albany","state":"MS","address":"500 PARK PLAZA DRIVE","name":""},
  {"lat":34.999833,"lon":-80.858333,"city":"Indian Land","state":"SC","address":"181 Fort Mill Highway","name":""},
  {"lat":47.717646,"lon":-117.408827,"city":"Spokane","state":"WA","address":"6606 NORTH DIVISION STREET","name":""},
  {"lat":34.140145,"lon":-80.941567,"city":"Columbia","state":"SC","address":"1051 Sams Crossing Drive","name":""},
  {"lat":29.566438,"lon":-95.562128,"city":"Missouri City","state":"TX","address":"3807 Fm 1092","name":""},
  {"lat":30.56215,"lon":-96.257453,"city":"College Station","state":"TX","address":"4451 HIGHWAY 6 S","name":""},
  {"lat":31.353508,"lon":-89.237566,"city":"Petal","state":"MS","address":"40 Tyner Road","name":""},
  {"lat":39.530432,"lon":-119.718076,"city":"Sparks","state":"NV","address":"1355 SCHEELS DRIVE","name":""},
  {"lat":29.970451,"lon":-92.102957,"city":"Abbeville","state":"LA","address":"2700 Charity Street","name":""},
  {"lat":35.881776,"lon":-77.546813,"city":"Tarboro","state":"NC","address":"111 River Oaks Drive","name":""},
  {"lat":36.512847,"lon":-87.318593,"city":"Clarksville","state":"TN","address":"1622 MADISON STREET","name":""},
  {"lat":34.46248,"lon":-86.951483,"city":"Hartselle","state":"AL","address":"1807 Highway 31 Nw","name":""},
  {"lat":28.192,"lon":-82.593,"city":"Odessa","state":"FL","address":"2317 GUNN HIGHWAY","name":""},
  {"lat":34.212529,"lon":-78.020518,"city":"Leland","state":"NC","address":"3716 GATEWAY BLVD","name":""},
  {"lat":33.377051,"lon":-111.930911,"city":"Tempe","state":"AZ","address":"777 EAST BASELINE ROAD","name":""},
  {"lat":34.105739,"lon":-83.814366,"city":"Braselton","state":"GA","address":"1180 BRASELTON VILLAGE PARKWAY","name":""},
  {"lat":30.604361,"lon":-98.268749,"city":"Marble Falls","state":"TX","address":"3200 N Us Highway 281","name":""},
  {"lat":36.626719,"lon":-82.145299,"city":"Bristol","state":"VA","address":"401 MERCHANT TRACE","name":""},
  {"lat":29.812232,"lon":-90.817015,"city":"Thibodaux","state":"LA","address":"614 North Canal","name":""},
  {"lat":40.014053,"lon":-105.101405,"city":"Erie","state":"CO","address":"2910 ARAPAHOE ROAD","name":""},
  {"lat":42.58557,"lon":-114.458173,"city":"Twin Falls","state":"ID","address":"1350 BLUE LAKES BLVD NORTH","name":""},
  {"lat":35.466962,"lon":-94.353896,"city":"Van Buren","state":"AR","address":"2120 FAYETTEVILLE ROAD","name":""},
  {"lat":30.086693,"lon":-81.472028,"city":"St. Johns","state":"FL","address":"480 County Road 210 W","name":""},
  {"lat":27.543,"lon":-82.476,"city":"Parrish","state":"FL","address":"8740 US 301 NORTH","name":""},
  {"lat":45.347547,"lon":-84.973528,"city":"Petoskey","state":"MI","address":"2140 Anderson Road","name":""},
  {"lat":44.495037,"lon":-89.510269,"city":"Plover","state":"WI","address":"230 Crossroads Drive","name":""},
  {"lat":42.911277,"lon":-112.460458,"city":"Pocatello","state":"ID","address":"650 BULLOCK STREET","name":""},
  {"lat":39.03849,"lon":-94.641991,"city":"Roeland Park","state":"KS","address":"4960 ROE BOULEVARD","name":""},
  {"lat":39.457611,"lon":-76.319121,"city":"Abingdon","state":"MD","address":"414 Constant Friendship Blvd","name":""},
  {"lat":36.561062,"lon":-82.211542,"city":"Bristol","state":"TN","address":"1340 Volunteer Parkway","name":""},
  {"lat":38.208125,"lon":-85.265914,"city":"Shelbyville","state":"KY","address":"544 Taylorsville Road","name":""},
  {"lat":41.626795,"lon":-86.254237,"city":"South Bend","state":"IN","address":"250 West Ireland Road","name":""},
  {"lat":39.148557,"lon":-76.647736,"city":"Severn","state":"MD","address":"415 GEORGE CLAUSS BOULEVARD","name":""},
  {"lat":34.934093,"lon":-81.991256,"city":"Spartanburg","state":"SC","address":"120 E. Blackstock Road","name":""},
  {"lat":38.792654,"lon":-77.514399,"city":"Manassas","state":"VA","address":"7500 BROKEN BRANCH LANE","name":""},
  {"lat":35.43704,"lon":-97.403007,"city":"Midwest City","state":"OK","address":"7151 SE 29TH STREET","name":""},
  {"lat":35.917637,"lon":-80.586712,"city":"Mocksville","state":"NC","address":"1427 Yadkinville Road","name":""},
  {"lat":36.91172,"lon":-93.897226,"city":"Monett","state":"MO","address":"925 EAST US HIGHWAY 60","name":""},
  {"lat":28.826712,"lon":-81.644953,"city":"Mt. Dora","state":"FL","address":"18795 Us Highway 441","name":""},
  {"lat":38.970698,"lon":-104.749213,"city":"Colorado Springs","state":"CO","address":"4252 ROYAL PINE DRIVE","name":""},
  {"lat":45.593132,"lon":-122.677208,"city":"Portland","state":"OR","address":"1160 N. HAYDEN MEADOWS DRIVE","name":""},
  {"lat":41.507069,"lon":-87.918753,"city":"New Lenox","state":"IL","address":"2480 E. Lincoln Highway","name":""},
  {"lat":37.900186,"lon":-84.585603,"city":"Nicholasville","state":"KY","address":"1421 Keene Road","name":""},
  {"lat":33.243973,"lon":-111.842894,"city":"Chandler","state":"AZ","address":"4300 S. ARIZONA AVENUE","name":""},
  {"lat":33.788784,"lon":-116.38689,"city":"Palm Desert","state":"CA","address":"35900 MONTEREY AVENUE","name":""},
  {"lat":40.322126,"lon":-76.565074,"city":"Palmyra","state":"PA","address":"70 North Londonderry Square","name":""},
  {"lat":31.707504,"lon":-89.149954,"city":"Laurel","state":"MS","address":"1490 Highway 15 North","name":""},
  {"lat":34.761453,"lon":-79.479644,"city":"Laurinburg","state":"NC","address":"910 US 401 BY-PASS","name":""},
  {"lat":34.080756,"lon":-81.152185,"city":"Columbia","state":"SC","address":"390 Harbison BLVD.","name":""},
  {"lat":35.066424,"lon":-78.964459,"city":"Fayetteville","state":"NC","address":"1929 Skibo Square","name":""},
  {"lat":37.66575,"lon":-92.646371,"city":"Lebanon","state":"MO","address":"190 Highway 32","name":""},
  {"lat":36.11511,"lon":-79.837233,"city":"Greensboro","state":"NC","address":"3001 Battleground AVE.","name":""},
  {"lat":40.127017,"lon":-111.637618,"city":"Spanish Fork","state":"UT","address":"1386 N. CANYON CREEK PKWY","name":""},
  {"lat":25.927196,"lon":-80.182786,"city":"N. Miami Beach","state":"FL","address":"850 NE 167TH ST","name":""},
  {"lat":40.816963,"lon":-75.733309,"city":"Lehighton","state":"PA","address":"1204 Blakeslee Blvd DR. East","name":""},
  {"lat":33.180098,"lon":-96.888855,"city":"Little Elm","state":"TX","address":"2773 E. Eldorado Parkway","name":""},
  {"lat":40.40537,"lon":-105.037391,"city":"Loveland","state":"CO","address":"1355 Sculptor Drive","name":""},
  {"lat":36.193523,"lon":-86.619576,"city":"Hermitage","state":"TN","address":"5025 Old Hickory BLVD.","name":""},
  {"lat":42.514552,"lon":-83.611224,"city":"New Hudson","state":"MI","address":"30547 Lyon Center Drive East","name":""},
  {"lat":34.915839,"lon":-95.743265,"city":"McAlester","state":"OK","address":"530 SOUTH GEORGE NIGH EXPRESSWAY","name":""},
  {"lat":37.613053,"lon":-77.326268,"city":"Mechanicsville","state":"VA","address":"6425 MECHANICSVILLE TURNPIKE","name":""},
  {"lat":43.634873,"lon":-116.351334,"city":"Meridian","state":"ID","address":"3400 N EAGLE RD","name":""},
  {"lat":40.527119,"lon":-74.853136,"city":"Flemington","state":"NJ","address":"150 ROUTE 31","name":""},
  {"lat":32.340828,"lon":-90.071227,"city":"Flowood","state":"MS","address":"120 Ridge Way","name":""},
  {"lat":35.090623,"lon":-80.856193,"city":"Charlotte","state":"NC","address":"10625 Mcmullen Creek Parkway","name":""},
  {"lat":42.91812,"lon":-87.952509,"city":"Franklin","state":"WI","address":"7027 South 27TH Street","name":""},
  {"lat":38.962512,"lon":-78.187064,"city":"Front Royal","state":"VA","address":"80 RIVERTON COMMONS DRIVE","name":""},
  {"lat":35.643633,"lon":-106.014898,"city":"Santa Fe","state":"NM","address":"3458 Zafarano Road","name":""},
  {"lat":33.710916,"lon":-112.110027,"city":"Phoenix","state":"AZ","address":"2501 W. HAPPY VALLEY RD, BDG 40","name":""},
  {"lat":37.858557,"lon":-87.564003,"city":"Henderson","state":"KY","address":"2190 Us Highway 60 East","name":""},
  {"lat":32.138391,"lon":-94.795287,"city":"Henderson","state":"TX","address":"1603 US HIGHWAY 79 SOUTH","name":""},
  {"lat":42.575397,"lon":-87.888386,"city":"Kenosha","state":"WI","address":"6500 Green Bay Road","name":""},
  {"lat":47.385719,"lon":-122.294881,"city":"Kent","state":"WA","address":"24050 PACIFIC HIGHWAY SOUTH","name":""},
  {"lat":43.149116,"lon":-76.120276,"city":"Cicero","state":"NY","address":"5701 East Circle Drive","name":""},
  {"lat":36.378455,"lon":-79.662462,"city":"Reidsville","state":"NC","address":"5201 Us 29 Business","name":""},
  {"lat":39.974165,"lon":-82.904765,"city":"Columbus","state":"OH","address":"3616 East Broad Street","name":""},
  {"lat":34.545341,"lon":-114.352847,"city":"Lake Havasu City","state":"AZ","address":"4000 Highway 95N","name":""},
  {"lat":42.450399,"lon":-96.330838,"city":"Sioux City","state":"IA","address":"5758 SUNNYBROOK DRIVE","name":""},
  {"lat":38.327565,"lon":-85.75763,"city":"Clarksville","state":"IN","address":"1350 Veterans Parkway","name":""},
  {"lat":40.844563,"lon":-81.948065,"city":"Wooster","state":"OH","address":"3788 BURBANK ROAD","name":""},
  {"lat":37.641338,"lon":-77.556897,"city":"Richmond","state":"VA","address":"9490 WEST BROAD ST.","name":""},
  {"lat":35.051682,"lon":-89.689441,"city":"Collierville","state":"TN","address":"425 NEW BYHALIA ROAD","name":""},
  {"lat":41.418118,"lon":-73.416512,"city":"Danbury","state":"CT","address":"67 Eagle Road","name":""},
  {"lat":42.630237,"lon":-88.607854,"city":"Delavan","state":"WI","address":"2015 E. Geneva Street","name":""},
  {"lat":30.447569,"lon":-90.079311,"city":"Covington","state":"LA","address":"1280 North Highway 190","name":""},
  {"lat":32.763829,"lon":-97.165968,"city":"Ft. Worth","state":"TX","address":"1111 EASTCHASE PARKWAY","name":""},
  {"lat":30.321482,"lon":-81.46819,"city":"Jacksonville","state":"FL","address":"12945 Atlantic BLVD.","name":""},
  {"lat":34.557003,"lon":-118.042849,"city":"Palmdale","state":"CA","address":"37080 47TH STREET EAST","name":""},
  {"lat":32.812029,"lon":-115.567588,"city":"El Centro","state":"CA","address":"2053 NORTH IMPERIAL AVENUE","name":""},
  {"lat":43.031346,"lon":-71.069558,"city":"Epping","state":"NH","address":"36 Fresh River Road","name":""},
  {"lat":43.038493,"lon":-76.269514,"city":"Camillus","state":"NY","address":"5377 W Genesee Street","name":""},
  {"lat":38.786615,"lon":-121.279714,"city":"Roseville","state":"CA","address":"10201 FAIRWAY DRIVE","name":""},
  {"lat":35.107625,"lon":-106.660171,"city":"Albuquerque","state":"NM","address":"2001 12TH STREET NW","name":""},
  {"lat":36.861002,"lon":-89.581992,"city":"Sikeston","state":"MO","address":"1240 S. MAIN STREET","name":""},
  {"lat":37.800064,"lon":-85.431586,"city":"Bardstown","state":"KY","address":"3790 East John Rowan BLVD.","name":""},
  {"lat":34.971411,"lon":-81.883946,"city":"Spartanburg","state":"SC","address":"2079 East Main Street","name":""},
  {"lat":27.070736,"lon":-82.421091,"city":"Venice","state":"FL","address":"1745 TAMIAMI TRAIL SOUTH","name":""},
  {"lat":27.902815,"lon":-81.839286,"city":"Bartow","state":"FL","address":"425 East Van Fleet Drive","name":""},
  {"lat":30.280035,"lon":-89.747323,"city":"Slidell","state":"LA","address":"39184 Natchez Drive","name":""},
  {"lat":40.450546,"lon":-80.171345,"city":"Pittsburgh","state":"PA","address":"400 Davis BLVD.","name":""},
  {"lat":28.956865,"lon":-81.958442,"city":"Lady Lake","state":"FL","address":"13705 Us Higway 441","name":""},
  {"lat":39.716589,"lon":-121.798318,"city":"Chico","state":"CA","address":"2350 FOREST AVE","name":""},
  {"lat":43.686373,"lon":-85.515274,"city":"Big Rapids","state":"MI","address":"21555 Perry Avenue","name":""},
  {"lat":36.179967,"lon":-82.779995,"city":"Greeneville","state":"TN","address":"2375 East Andrew Johnson Highway","name":""},
  {"lat":40.486685,"lon":-88.946867,"city":"Bloomington","state":"IL","address":"2101 East Empire Street","name":""},
  {"lat":46.831257,"lon":-100.813513,"city":"Bismarck","state":"ND","address":"1401 W CENTURY AVE","name":""},
  {"lat":35.930625,"lon":-89.868419,"city":"Blytheville","state":"AR","address":"3790 East Main Street","name":""},
  {"lat":40.439654,"lon":-86.128942,"city":"Kokomo","state":"IN","address":"4005 South Lafountain","name":""},
  {"lat":40.283277,"lon":-79.381079,"city":"Latrobe","state":"PA","address":"200 Colony Lane","name":""},
  {"lat":41.693391,"lon":-88.125661,"city":"Bolingbrook","state":"IL","address":"245 South Weber Road","name":""},
  {"lat":41.259649,"lon":-76.920792,"city":"Montoursville","state":"PA","address":"701 N LOYALSOCK AVE","name":""},
  {"lat":33.609622,"lon":-112.12137,"city":"Phoenix","state":"AZ","address":"2929 W. Thunderbird Road","name":""},
  {"lat":41.690593,"lon":-91.610885,"city":"Coralville","state":"IA","address":"2701 2ND Street","name":""},
  {"lat":34.992646,"lon":-78.337976,"city":"Clinton","state":"NC","address":"911 Sunset Avenue","name":""},
  {"lat":42.186371,"lon":-83.192828,"city":"Southgate","state":"MI","address":"16410 Trenton","name":""},
  {"lat":43.908198,"lon":-69.905158,"city":"Brunswick","state":"ME","address":"250 BATH ROAD","name":""},
  {"lat":33.033182,"lon":-80.158544,"city":"Summerville","state":"SC","address":"1207 N. Main ST.","name":""},
  {"lat":39.096604,"lon":-75.548927,"city":"Camden","state":"DE","address":"516 Walmart Drive","name":""},
  {"lat":42.292741,"lon":-71.77266,"city":"Worcester","state":"MA","address":"533 LINCOLN STREET","name":""},
  {"lat":44.108048,"lon":-121.299206,"city":"Bend","state":"OR","address":"20501 COOLEY ROAD","name":""},
  {"lat":30.315743,"lon":-81.73381,"city":"Jacksonville","state":"FL","address":"5155 Lenox Avenue","name":""},
  {"lat":36.191149,"lon":-86.297376,"city":"Lebanon","state":"TN","address":"634 South Cumberland Street","name":""},
  {"lat":35.51006,"lon":-97.56713,"city":"Oklahoma City","state":"OK","address":"3801 NORTH MAY ROAD","name":""},
  {"lat":45.191431,"lon":-123.212346,"city":"McMinnville","state":"OR","address":"1250 SW BOOTH BEND ROAD","name":""},
  {"lat":33.392315,"lon":-111.630531,"city":"Mesa","state":"AZ","address":"1229 S. Ellsworth Road","name":""},
  {"lat":34.472621,"lon":-117.240686,"city":"Apple Valley","state":"CA","address":"12189 Apple Valley Road","name":""},
  {"lat":42.053831,"lon":-87.995337,"city":"Arlington Heights","state":"IL","address":"990 West Algonquin Road","name":""},
  {"lat":37.317457,"lon":-120.496687,"city":"Merced","state":"CA","address":"1750 WEST OLIVE AVENUE","name":""},
  {"lat":40.67347,"lon":-111.904616,"city":"Murray","state":"UT","address":"469 WEST 4500 SOUTH","name":""},
  {"lat":34.284108,"lon":-81.590098,"city":"Newberry","state":"SC","address":"2911 Main Street","name":""},
  {"lat":30.139003,"lon":-96.397676,"city":"Brenham","state":"TX","address":"2750 Highway 36 South","name":""},
  {"lat":40.671781,"lon":-73.995834,"city":"Brooklyn","state":"NY","address":"118 2ND Avenue","name":""},
  {"lat":36.050521,"lon":-87.362359,"city":"Dickson","state":"TN","address":"116 Jackson Brothers BLVD.","name":""},
  {"lat":39.505109,"lon":-86.066667,"city":"Franklin","state":"IN","address":"2219 N. Morton Street","name":""},
  {"lat":40.13007,"lon":-74.220227,"city":"Howell","state":"NJ","address":"4975 Us Highway 9","name":""},
  {"lat":40.129183,"lon":-84.620502,"city":"Greenville","state":"OH","address":"1550 Wagner Avenue","name":""},
  {"lat":42.447995,"lon":-82.931494,"city":"Harper Woods","state":"MI","address":"19340 Vernier Road","name":""},
  {"lat":33.231413,"lon":-86.80484,"city":"Alabaster","state":"AL","address":"235 Colonial Promenade Pkwy","name":""},
  {"lat":36.973663,"lon":-82.592044,"city":"Wise","state":"VA","address":"201 WOODLAND DRIVE S.W.","name":""},
  {"lat":42.808222,"lon":-71.565949,"city":"Amherst","state":"NH","address":"124 ROUTE 101A, UNIT 15","name":""},
  {"lat":39.837392,"lon":-89.601642,"city":"Springfield","state":"IL","address":"2560 North Dirksen Parkway","name":""},
  {"lat":39.084077,"lon":-84.878957,"city":"Lawrenceburg","state":"IN","address":"970 W. Eads Parkway","name":""},
  {"lat":39.932404,"lon":-91.320496,"city":"Quincy","state":"IL","address":"6030 BROADWAY STREET","name":""},
  {"lat":26.010394,"lon":-80.250537,"city":"Pembroke Pines","state":"FL","address":"130 North University Drive","name":""},
  {"lat":36.741366,"lon":-95.951803,"city":"Bartlesville","state":"OK","address":"2205 SE ADAMS BLVD.","name":""},
  {"lat":46.892881,"lon":-114.037305,"city":"Missoula","state":"MT","address":"3100 NORTH RESERVE STREET","name":""},
  {"lat":40.247925,"lon":-75.248731,"city":"Lansdale","state":"PA","address":"630 Cowpath Road","name":""},
  {"lat":33.071062,"lon":-97.081043,"city":"Flower Mound","state":"TX","address":"6200 LONG PRAIRIE ROAD","name":""},
  {"lat":36.067101,"lon":-79.302007,"city":"Mebane","state":"NC","address":"200 Lowes Boulevard","name":""},
  {"lat":33.447895,"lon":-88.843991,"city":"Starkville","state":"MS","address":"882 Highway 12 West","name":""},
  {"lat":44.097598,"lon":-93.254667,"city":"Owatonna","state":"MN","address":"1280 21ST AVENUE NW","name":""},
  {"lat":32.839869,"lon":-116.992366,"city":"Santee","state":"CA","address":"9416 MISSION GORGE ROAD","name":""},
  {"lat":42.820343,"lon":-86.093883,"city":"Holland","state":"MI","address":"12635 Felch ST., Suite 10","name":""},
  {"lat":36.302852,"lon":-82.451338,"city":"Jonesborough","state":"TN","address":"1498 East Jackson Blvd","name":""},
  {"lat":36.013351,"lon":-106.066584,"city":"Espanola","state":"NM","address":"407 Lowdermilk Lane","name":""},
  {"lat":41.972605,"lon":-70.708213,"city":"Kingston","state":"MA","address":"32 William C. Gould Way","name":""},
  {"lat":40.288765,"lon":-84.200093,"city":"Sidney","state":"OH","address":"2700 Michigan Street","name":""},
  {"lat":39.185852,"lon":-84.259219,"city":"Milford","state":"OH","address":"5694 Romar Drive","name":""},
  {"lat":39.383753,"lon":-76.568366,"city":"Parkville","state":"MD","address":"1400 TAYLOR AVENUE","name":""},
  {"lat":41.814443,"lon":-72.715489,"city":"Bloomfield","state":"CT","address":"325 COTTAGE GROVE ROAD","name":""},
  {"lat":36.41353,"lon":-79.939656,"city":"Mayodan","state":"NC","address":"6844 Nc Highway 135","name":""},
  {"lat":61.573187,"lon":-149.384223,"city":"Wasilla","state":"AK","address":"2561 EAST SUN MOUNTAIN AVE","name":""},
  {"lat":36.820331,"lon":-87.46991,"city":"Hopkinsville","state":"KY","address":"4580 FORT CAMPBELL BLVD.","name":""},
  {"lat":30.219484,"lon":-97.829007,"city":"Austin","state":"TX","address":"6400 BRODIE LANE","name":""},
  {"lat":44.116486,"lon":-70.236056,"city":"Auburn","state":"ME","address":"650 Turner Street","name":""},
  {"lat":40.419836,"lon":-75.343519,"city":"Quakertown","state":"PA","address":"1001 S. West End BLVD.","name":""},
  {"lat":34.09455,"lon":-84.281596,"city":"Alpharetta","state":"GA","address":"4925 Windward Parkway","name":""},
  {"lat":40.019155,"lon":-74.941898,"city":"Delran","state":"NJ","address":"1331 FAIRVIEW BOULEVARD","name":""},
  {"lat":39.795151,"lon":-105.080719,"city":"Arvada","state":"CO","address":"5405 WADSWORTH BYPASS","name":""},
  {"lat":39.624521,"lon":-79.993147,"city":"Morgantown","state":"WV","address":"9595 Mall Road","name":""},
  {"lat":35.098513,"lon":-84.018922,"city":"Murphy","state":"NC","address":"198 Bulldog Drive","name":""},
  {"lat":40.550128,"lon":-74.29389,"city":"Woodbridge","state":"NJ","address":"51 Woodbridge Center Drive","name":""},
  {"lat":27.923579,"lon":-97.178899,"city":"Aransas Pass","state":"TX","address":"150 South Fm 1069","name":""},
  {"lat":41.722582,"lon":-83.57061,"city":"Toledo","state":"OH","address":"1136 West Alexis Road","name":""},
  {"lat":37.811891,"lon":-80.434633,"city":"Lewisburg","state":"WV","address":"20 GATEWAY BLVD","name":""},
  {"lat":37.962588,"lon":-121.745613,"city":"Antioch","state":"CA","address":"5503 LONE TREE WAY","name":""},
  {"lat":36.351416,"lon":-82.242298,"city":"Elizabethton","state":"TN","address":"925 Patriot Drive","name":""},
  {"lat":35.375802,"lon":-80.728136,"city":"Concord","state":"NC","address":"8670 CONCORD MILLS BLVD","name":""},
  {"lat":46.864242,"lon":-96.870765,"city":"Fargo","state":"ND","address":"5001 13TH AVE S","name":""},
  {"lat":34.035249,"lon":-84.672846,"city":"Kennesaw","state":"GA","address":"3250 Cobb Pkwy Nw","name":""},
  {"lat":34.302302,"lon":-77.789084,"city":"Wilmington","state":"NC","address":"191 Porters Neck Road","name":""},
  {"lat":28.34002,"lon":-81.417759,"city":"Kissimmee","state":"FL","address":"1300 W Osceola Pkwy","name":""},
  {"lat":41.095593,"lon":-81.3844,"city":"Kent","state":"OH","address":"218 Nicholas Way","name":""},
  {"lat":39.474799,"lon":-119.794604,"city":"Reno","state":"NV","address":"5075 KIETZKE LANE","name":""},
  {"lat":29.801422,"lon":-82.500152,"city":"Alachua","state":"FL","address":"15910 Nw 144 Terrace","name":""},
  {"lat":36.273865,"lon":-80.841064,"city":"Elkin","state":"NC","address":"492 Cc Camp Rd","name":""},
  {"lat":36.772426,"lon":-108.141556,"city":"Farmington","state":"NM","address":"5451 PINON HILLS BLVD","name":""},
  {"lat":42.074706,"lon":-80.182091,"city":"Erie","state":"PA","address":"2305 Asbury Road","name":""},
  {"lat":34.6737,"lon":-118.145394,"city":"Lancaster","state":"CA","address":"730 WEST AVENUE K","name":""},
  {"lat":43.213616,"lon":-77.712419,"city":"Rochester","state":"NY","address":"3150 West Ridge Road","name":""},
  {"lat":40.515408,"lon":-74.626528,"city":"Hillsborough","state":"NJ","address":"315 Route 206 Suite 600","name":""},
  {"lat":41.641801,"lon":-93.506234,"city":"Altoona","state":"IA","address":"3610 8TH STREET SW","name":""},
  {"lat":28.760203,"lon":-81.288357,"city":"Sanford","state":"FL","address":"3780 S Orlando Dr","name":""},
  {"lat":37.5782,"lon":-97.27857,"city":"Derby","state":"KS","address":"424 WEST PATRIOT AVENUE","name":""},
  {"lat":40.437571,"lon":-79.762932,"city":"Monroeville","state":"PA","address":"4200 William Penn Highway","name":""},
  {"lat":39.721425,"lon":-91.399319,"city":"Hannibal","state":"MO","address":"3651 STARDUST DRIVE","name":""},
  {"lat":40.56563,"lon":-84.175458,"city":"Wapakoneta","state":"OH","address":"1340 Bellefontaine Street","name":""},
  {"lat":30.61963,"lon":-81.51859,"city":"Fernandina Beach","state":"FL","address":"474283 East Sr 200","name":""},
  {"lat":37.296297,"lon":-89.583005,"city":"Cape Girardeau","state":"MO","address":"3440 LOWES DRIVE","name":""},
  {"lat":34.013544,"lon":-117.740955,"city":"Chino Hills","state":"CA","address":"13251 PEYTON DRIVE","name":""},
  {"lat":38.537084,"lon":-91.008084,"city":"Washington","state":"MO","address":"2023 WASHINGTON CROSSING","name":""},
  {"lat":41.543105,"lon":-83.591688,"city":"Perrysburg","state":"OH","address":"10295 Fremont Pike","name":""},
  {"lat":45.757659,"lon":-108.582211,"city":"Billings","state":"MT","address":"2717 KING AVENUE WEST","name":""},
  {"lat":38.30977,"lon":-104.623438,"city":"Pueblo","state":"CO","address":"1225 W US HIGHWAY 50","name":""},
  {"lat":30.109707,"lon":-81.82463,"city":"Middleburg","state":"FL","address":"1700 Blanding Boulevard","name":""},
  {"lat":33.634798,"lon":-111.918075,"city":"Scottsdale","state":"AZ","address":"16285 NORTH SCOTTSDALE RD","name":""},
  {"lat":33.997637,"lon":-85.996663,"city":"Gadsden","state":"AL","address":"615 George Wallace Drive","name":""},