{"key":"macys","displayName":"Macy's","category":"shopping","useLocationName":false,"locations":[
  {"lat":33.377235,"lon":-86.807359,"city":"Hoover","state":"AL","address":"2600 Riverchase Galleria","name":""},
  {"lat":32.288043,"lon":-110.97141,"city":"Tucson","state":"AZ","address":"4470 N Oracle Rd","name":""},
  {"lat":34.070444,"lon":-117.92933,"city":"West Covina","state":"CA","address":"1111 Plaza Dr","name":""},
  {"lat":39.960683,"lon":-104.992897,"city":"Westminster","state":"CO","address":"14535 Delaware St","name":""},
  {"lat":41.229386,"lon":-73.226931,"city":"Trumbull","state":"CT","address":"5065 Main St Ste C","name":""},
  {"lat":39.680781,"lon":-75.651648,"city":"Newark","state":"DE","address":"501 Christiana Mall","name":""},
  {"lat":39.82301,"lon":-75.545121,"city":"Wilmington","state":"DE","address":"4747 Concord Pike","name":""},
  {"lat":28.5226,"lon":-81.58303,"city":"Winter Garden","state":"FL","address":"3215 Daniels Rd","name":""},
  {"lat":33.879575,"lon":-84.013415,"city":"Snellville","state":"GA","address":"1905 Scenic Highway South. Suite 9000","name":""},
  {"lat":19.651032,"lon":-155.997188,"city":"Kailua-Kona","state":"HI","address":"74-5475 Kamakaeha Ave","name":""},
  {"lat":42.242339,"lon":-87.951877,"city":"Vernon Hills","state":"IL","address":"1 Hawthorn Ctr","name":""},
  {"lat":43.608251,"lon":-116.280143,"city":"Boise","state":"ID","address":"370 N Milwaukee St","name":""},
  {"lat":41.718675,"lon":-86.190276,"city":"Mishawaka","state":"IN","address":"6501 Grape Rd Ste 100","name":""},
  {"lat":38.954395,"lon":-94.716756,"city":"Overland Park","state":"KS","address":"11845 West 95th Street","name":""},
  {"lat":43.065805,"lon":-88.045209,"city":"Wauwatosa","state":"WI","address":"2500 N Mayfair Rd Ste M199","name":""},
  {"lat":43.072661,"lon":-89.453389,"city":"Madison","state":"WI","address":"702 N Midvale Blvd Ste 132","name":""},
  {"lat":38.955912,"lon":-94.716949,"city":"Overland Park","state":"KS","address":"11201 W 95th St","name":""},
  {"lat":42.948117,"lon":-88.004489,"city":"Greendale","state":"WI","address":"5300 S 76th St Ste 4","name":""},
  {"lat":44.270062,"lon":-88.472603,"city":"Appleton","state":"WI","address":"4301 W Wisconsin Ave Ste 10","name":""},
  {"lat":38.915015,"lon":-94.644781,"city":"Leawood","state":"KS","address":"5100 W 119th St","name":""},
  {"lat":41.469634,"lon":-87.311903,"city":"Merrillville","state":"IN","address":"2210 Southlake Mall","name":""},
  {"lat":40.391539,"lon":-86.850518,"city":"LaFayette","state":"IN","address":"2415 Sagamore Pkwy S Ste D Suite D","name":""},
  {"lat":39.908589,"lon":-86.06536,"city":"Indianapolis","state":"IN","address":"6020 E 82nd St Ste 400","name":""},
  {"lat":41.52471,"lon":-87.46801,"city":"Highland","state":"IN","address":"10429 Indianapolis Blvd","name":""},
  {"lat":39.631588,"lon":-86.12102,"city":"Greenwood","state":"IN","address":"1251 Us Highway 31 N Spc 129","name":""},
  {"lat":41.116203,"lon":-85.138463,"city":"Fort","state":"IN","address":"4201 Coldwater Rd Ste 1","name":""},
  {"lat":37.982245,"lon":-87.49564,"city":"Evansville","state":"IN","address":"800 N Green River Rd Ste 99","name":""},
  {"lat":42.059276,"lon":-87.749248,"city":"Skokie","state":"IL","address":"4909 Old Orchard Ctr","name":""},
  {"lat":42.047243,"lon":-88.03601,"city":"Schaumburg","state":"IL","address":"1 Woodfield Mall","name":""},
  {"lat":42.244971,"lon":-88.975737,"city":"Rockford","state":"IL","address":"7200 Harrison Ave Unit 1","name":""},
  {"lat":41.620977,"lon":-87.84959,"city":"Orland Park","state":"IL","address":"1 Orland Square Dr","name":""},
  {"lat":41.848603,"lon":-87.954238,"city":"Oak Brook","state":"IL","address":"1 Oakbrook Ctr","name":""},
  {"lat":42.08488,"lon":-87.93363,"city":"Mt. Prospect","state":"IL","address":"1023 Center Dr","name":""},
  {"lat":41.576272,"lon":-88.165537,"city":"Joliet","state":"IL","address":"3340 Mall Loop Dr Spc 1","name":""},
  {"lat":42.386238,"lon":-87.95716,"city":"Gurnee","state":"IL","address":"6124 Grand Ave","name":""},
  {"lat":38.593554,"lon":-89.982367,"city":"Fairview Heights","state":"IL","address":"200 Saint Clair Sq","name":""},
  {"lat":41.71758,"lon":-87.6821,"city":"Evergreen Park","state":"IL","address":"9700 South Westen Avenue","name":""},
  {"lat":41.883891,"lon":-87.627564,"city":"Chicago","state":"IL","address":"111 N State St","name":""},
  {"lat":40.142778,"lon":-88.243865,"city":"Champaign","state":"IL","address":"2000 N Neil St Spc 2","name":""},
  {"lat":41.597287,"lon":-87.556725,"city":"Calumet City","state":"IL","address":"1 River Oaks Center Dr","name":""},
  {"lat":41.93688,"lon":-88.10776,"city":"Bloomingdale","state":"IL","address":"344 W Army Trail Road","name":""},
  {"lat":41.720483,"lon":-88.040771,"city":"Bolingbrook","state":"IL","address":"645 E Boughton Rd","name":""},
  {"lat":41.759193,"lon":-88.212652,"city":"Aurora","state":"IL","address":"1 Fox Valley Ctr","name":""},
  {"lat":20.887835,"lon":-156.474725,"city":"Kahului","state":"HI","address":"275 W Kaahumanu Ave Ste 1100","name":""},
  {"lat":21.335715,"lon":-158.051517,"city":"Kapolei","state":"HI","address":"91-5431 Kapolei Pkwy Ste 100 SUITE 100","name":""},
  {"lat":19.697112,"lon":-155.063435,"city":"Hilo","state":"HI","address":"111 E Puainako St Ste 800","name":""},
  {"lat":21.38507,"lon":-157.942789,"city":"Aiea","state":"HI","address":"98-205 Kaonohi St","name":""},
  {"lat":21.275517,"lon":-157.786481,"city":"Honolulu","state":"HI","address":"4211 Waialae Ave Ste 1010","name":""},
  {"lat":32.00129,"lon":-81.117238,"city":"Savannah","state":"GA","address":"7804 Abercorn St Ste 300","name":""},
  {"lat":33.573639,"lon":-84.342154,"city":"Morrow","state":"GA","address":"1500 Southlake Mall","name":""},
  {"lat":21.278114,"lon":-157.827235,"city":"Honolulu","state":"HI","address":"2314 Kalakaua Ave","name":""},
  {"lat":21.291288,"lon":-157.842965,"city":"Honolulu","state":"HI","address":"1450 Ala Moana Blvd Ste 1300","name":""},
  {"lat":33.423216,"lon":-84.191082,"city":"McDonough","state":"GA","address":"209 S Point Blvd","name":""},
  {"lat":33.699508,"lon":-84.09384,"city":"Lithonia","state":"GA","address":"8030 Mall Pkwy","name":""},
  {"lat":33.923972,"lon":-84.340998,"city":"Dunwoody","state":"GA","address":"4300 Ashford Dunwoody Rd Ne","name":""},
  {"lat":34.017369,"lon":-84.564255,"city":"Kennesaw","state":"GA","address":"400 Ernest W Barrett Pkwy Nw Ste 400","name":""},
  {"lat":33.728145,"lon":-84.744588,"city":"Douglasville","state":"GA","address":"6690 Douglas Blvd","name":""},
  {"lat":34.065149,"lon":-83.984766,"city":"Buford","state":"GA","address":"3333 Buford Dr Ste 1006b","name":""},
  {"lat":32.508346,"lon":-84.944833,"city":"Columbus","state":"GA","address":"3091 Manchester Expy","name":""},
  {"lat":33.465414,"lon":-82.080557,"city":"Augusta","state":"GA","address":"3450 Wrightsboro Rd Ste D300","name":""},
  {"lat":33.849384,"lon":-84.254541,"city":"Atlanta","state":"GA","address":"4880 Briarcliff Rd Ne","name":""},
  {"lat":34.044704,"lon":-84.303094,"city":"Alpharetta","state":"GA","address":"7231 North Point Parkway","name":""},
  {"lat":34.045646,"lon":-84.297134,"city":"Alpharetta","state":"GA","address":"5000 N Point Cir","name":""},
  {"lat":28.189397,"lon":-82.349672,"city":"Wesley Chapel","state":"FL","address":"28233 Paseo Dr","name":""},
  {"lat":26.65111,"lon":-80.209432,"city":"Wellington","state":"FL","address":"10316 Forest Hill Blvd","name":""},
  {"lat":28.5542,"lon":-81.19981,"city":"Waterford Lakes","state":"FL","address":"397 North Alafaya Trail","name":""},
  {"lat":28.068067,"lon":-82.573376,"city":"Tampa","state":"FL","address":"7801 Citrus Park Town Ctr","name":""},
  {"lat":27.793009,"lon":-82.733686,"city":"St. Petersburg","state":"FL","address":"6901 22nd Ave N","name":""},
  {"lat":27.385002,"lon":-82.450828,"city":"Sarasota","state":"FL","address":"110 University Town Center Dr","name":""},
  {"lat":26.119713,"lon":-80.254725,"city":"Plantation","state":"FL","address":"8000 W Broward Blvd Ste 800 Ste 800","name":""},
  {"lat":33.923972,"lon":-84.340998,"city":"Atlanta","state":"GA","address":"4300 Ashford Dunwoody Road","name":""},
  {"lat":33.880964,"lon":-84.470022,"city":"Atlanta","state":"GA","address":"2860 Cumberland Mall Se Ste 1300","name":""},
  {"lat":33.847848,"lon":-84.363602,"city":"Atlanta","state":"GA","address":"3393 Peachtree Rd Ne Ste 8480","name":""},
  {"lat":34.017369,"lon":-84.564255,"city":"Kennesaw","state":"GA","address":"400 Ernest W Barrett Parkway","name":""},
  {"lat":34.017369,"lon":-84.564255,"city":"Kennesaw","state":"GA","address":"400 Ernest G Barrett Parkway","name":""},
  {"lat":26.845025,"lon":-80.082564,"city":"Palm Beach Gardens","state":"FL","address":"3107 Pga Blvd","name":""},
  {"lat":26.011492,"lon":-80.302443,"city":"Pembroke Pines","state":"FL","address":"11605 Pines Blvd","name":""},
  {"lat":28.446638,"lon":-81.394995,"city":"Orlando","state":"FL","address":"8001 S Orange Blossom Trl Ste 1100 Ste 1100","name":""},
  {"lat":26.168923,"lon":-81.798113,"city":"Naples","state":"FL","address":"1800 9th St N","name":""},
  {"lat":25.64605,"lon":-80.340474,"city":"Miami","state":"FL","address":"9100 Sw 136th St","name":""},
  {"lat":25.7918,"lon":-80.136094,"city":"Miami Beach","state":"FL","address":"1675 Meridian Ave","name":""},
  {"lat":29.158825,"lon":-82.172928,"city":"Ocala","state":"FL","address":"3100 Sw College Rd Ste 500","name":""},
  {"lat":27.24425,"lon":-80.275689,"city":"Jensen Beach","state":"FL","address":"3106 Nw Federal Hwy","name":""},
  {"lat":28.354541,"lon":-80.688895,"city":"Merritt Island","state":"FL","address":"777 E Merritt Island Cswy Ste 139","name":""},
  {"lat":28.081426,"lon":-80.649618,"city":"Melbourne","state":"FL","address":"1700 W New Haven Ave Ste 101","name":""},
  {"lat":25.868177,"lon":-80.321197,"city":"Hialeah","state":"FL","address":"1777 W 49th St","name":""},
  {"lat":26.600845,"lon":-81.869709,"city":"Fort Myers","state":"FL","address":"4125 Cleveland Ave Ste 904","name":""},
  {"lat":26.137023,"lon":-80.115565,"city":"Fort Lauderdale","state":"FL","address":"2314 E Sunrise Blvd","name":""},
  {"lat":25.784874,"lon":-80.36467,"city":"Doral","state":"FL","address":"1245 Nw 107th Ave","name":""},
  {"lat":25.572644,"lon":-80.369381,"city":"Cutler Bay","state":"FL","address":"20507 S Dixie Hwy","name":""},
  {"lat":28.016118,"lon":-82.733204,"city":"Clearwater","state":"FL","address":"27001 Us Highway 19 N Ste 8280","name":""},
  {"lat":26.240806,"lon":-80.250056,"city":"Coral Springs","state":"FL","address":"9129 W Atlantic Blvd","name":""},
  {"lat":28.010876,"lon":-82.735154,"city":"Clearwater","state":"FL","address":"26256 U.S. Highway 19 North","name":""},
  {"lat":25.689532,"lon":-80.311565,"city":"Miami","state":"FL","address":"7303 N Kendall Dr","name":""},
  {"lat":28.48742,"lon":-81.433456,"city":"Orlando","state":"FL","address":"4298 Millenia Blvd","name":""},
  {"lat":28.555161,"lon":-81.340106,"city":"Orlando","state":"FL","address":"3505 E Colonial Dr","name":""},
  {"lat":27.932696,"lon":-82.326076,"city":"Brandon","state":"FL","address":"638 Brandon Town Center Mall","name":""},
  {"lat":26.36606,"lon":-80.131771,"city":"Boca Raton","state":"FL","address":"5700 Glades Rd","name":""},
  {"lat":28.66679,"lon":-81.377302,"city":"Altamonte Springs","state":"FL","address":"451 E Altamonte Dr Ste 1201","name":""},
  {"lat":38.898626,"lon":-77.028232,"city":"Washington","state":"DC","address":"1201 G St Nw","name":""},
  {"lat":25.95736,"lon":-80.141753,"city":"Aventura","state":"FL","address":"19535 Biscayne Blvd","name":""},
  {"lat":41.05322,"lon":-73.537151,"city":"Stamford","state":"CT","address":"151 Broad St Town Center Mall","name":""},
  {"lat":41.803541,"lon":-72.55029,"city":"Manchester","state":"CT","address":"183 Pavilion Dr","name":""},
  {"lat":41.140823,"lon":-73.266382,"city":"Milford","state":"CT","address":"1201 Boston Post Rd","name":""},
  {"lat":41.724727,"lon":-72.762202,"city":"Farmington","state":"CT","address":"100 Westfarms Mall","name":""},
  {"lat":41.380228,"lon":-73.480972,"city":"Danbury","state":"CT","address":"7 Backus Ave","name":""},
  {"lat":40.417018,"lon":-104.988352,"city":"Loveland","state":"CO","address":"5995 Sky Pond Dr","name":""},
  {"lat":39.717559,"lon":-104.956219,"city":"Denver","state":"CO","address":"3122 E. 1st Ave","name":""},
  {"lat":39.560752,"lon":-104.877031,"city":"Lone Tree","state":"CO","address":"8455 Park Meadows Center Dr","name":""},
  {"lat":39.93388,"lon":-105.135943,"city":"Broomfield","state":"CO","address":"11 W Flatiron Crossing Dr","name":""},
  {"lat":38.946045,"lon":-104.795067,"city":"Colorado Springs","state":"CO","address":"1750 Briargate Blvd","name":""},
  {"lat":39.707322,"lon":-104.822822,"city":"Aurora","state":"CO","address":"14200 E Alameda Ave Unit 8340","name":""},
  {"lat":39.716214,"lon":-104.951293,"city":"Denver","state":"CO","address":"15 S Steele St","name":""},
  {"lat":37.895097,"lon":-122.058314,"city":"Walnut Creek","state":"CA","address":"1320 Broadway Plz","name":""},
  {"lat":36.310571,"lon":-119.314491,"city":"Visalia","state":"CA","address":"2211 S Mooney Blvd","name":""},
  {"lat":34.474308,"lon":-117.345577,"city":"Victorville","state":"CA","address":"14580 Bear Valley Rd","name":""},
  {"lat":34.13304,"lon":-117.63336,"city":"Upland","state":"CA","address":"1293 E. 19th Street","name":""},
  {"lat":34.267288,"lon":-119.247801,"city":"Ventura","state":"CA","address":"477 S Mills Rd Rm 13","name":""},
  {"lat":34.186138,"lon":-118.890342,"city":"Thousand Oaks","state":"CA","address":"590 W Hillcrest Dr","name":""},
  {"lat":33.831725,"lon":-118.352184,"city":"Torrance","state":"CA","address":"21600 Hawthorne Blvd","name":""},
  {"lat":37.761831,"lon":-121.457474,"city":"Tracy","state":"CA","address":"3400 Naglee Rd","name":""},
  {"lat":33.523118,"lon":-117.154097,"city":"Temecula","state":"CA","address":"40780 Winchester Rd","name":""},
  {"lat":37.997948,"lon":-121.313555,"city":"Stockton","state":"CA","address":"5242 Pacific Ave","name":""},
  {"lat":34.157002,"lon":-118.435247,"city":"Sherman Oaks","state":"CA","address":"14000 Riverside Dr","name":""},
  {"lat":32.8406,"lon":-116.97994,"city":"Santee","state":"CA","address":"9918 Mission Gorge Road","name":""},
  {"lat":34.951567,"lon":-120.435064,"city":"Santa Maria","state":"CA","address":"302 Town Ctr E","name":""},
  {"lat":34.415557,"lon":-118.558918,"city":"Santa Clarita","state":"CA","address":"26450 McBean Pkwy","name":""},
  {"lat":37.324174,"lon":-121.948438,"city":"Santa Clara","state":"CA","address":"2801 Stevens Creek Blvd","name":""},
  {"lat":34.439384,"lon":-119.747712,"city":"Santa Barbara","state":"CA","address":"3805 State St","name":""},
  {"lat":38.440447,"lon":-122.717189,"city":"Santa Rosa","state":"CA","address":"800 Santa Rosa Plz","name":""},
  {"lat":38.457953,"lon":-122.727856,"city":"Santa Rosa","state":"CA","address":"555 Coddingtown Ctr","name":""},
  {"lat":33.776053,"lon":-117.869067,"city":"Santa Ana","state":"CA","address":"2850 N Main St","name":""},
  {"lat":38.004711,"lon":-122.5431,"city":"San Rafael","state":"CA","address":"1000 Northgate Mall","name":""},
  {"lat":37.537993,"lon":-122.300795,"city":"San Mateo","state":"CA","address":"115 Hillsdale Mall","name":""},
  {"lat":32.767325,"lon":-117.167414,"city":"San Diego","state":"CA","address":"7017 Friars Rd","name":""},
  {"lat":37.786799,"lon":-122.407396,"city":"San Francisco","state":"CA","address":"170 Ofarrell St","name":""},
  {"lat":34.091463,"lon":-117.294772,"city":"San Bernardino","state":"CA","address":"400 Inland Center Dr","name":""},
  {"lat":37.253498,"lon":-121.863317,"city":"San Jose","state":"CA","address":"5411 Thornwood Dr","name":""},
  {"lat":38.599765,"lon":-121.424664,"city":"Sacramento","state":"CA","address":"1701 Arden Way","name":""},
  {"lat":38.7753,"lon":-121.268399,"city":"Roseville","state":"CA","address":"1197 Galleria Blvd","name":""},
  {"lat":33.908581,"lon":-117.456507,"city":"Riverside","state":"CA","address":"3500 Tyler St","name":""},
  {"lat":36.719312,"lon":-121.658914,"city":"Salinas","state":"CA","address":"200 Northridge Shopping Ctr","name":""},
  {"lat":38.770358,"lon":-121.262892,"city":"Roseville","state":"CA","address":"1152 Galleria Blvd.","name":""},
  {"lat":33.87096,"lon":-118.354119,"city":"Redondo Beach","state":"CA","address":"1801 Hawthorne Blvd","name":""},
  {"lat":40.589339,"lon":-122.355668,"city":"Redding","state":"CA","address":"1291 Hilltop Dr","name":""},
  {"lat":34.138741,"lon":-118.132966,"city":"Pasadena","state":"CA","address":"401 S Lake Ave","name":""},
  {"lat":34.110826,"lon":-117.53016,"city":"Rancho Cucamonga","state":"CA","address":"7855 Kew Ave","name":""},
  {"lat":37.699504,"lon":-121.875015,"city":"Pleasanton","state":"CA","address":"4255 Rosewood Drive","name":""},
  {"lat":37.442542,"lon":-122.173155,"city":"Palo Alto","state":"CA","address":"300 Stanford Shopping Ctr","name":""},
  {"lat":37.69358,"lon":-121.928217,"city":"Pleasanton","state":"CA","address":"1300 Stoneridge Mall Rd","name":""},
  {"lat":34.604849,"lon":-118.149985,"city":"Palmdale","state":"CA","address":"1123 W Rancho Vista Blvd","name":""},
  {"lat":37.326276,"lon":-121.814665,"city":"San Jose","state":"CA","address":"2210 Eastridge Loop","name":""},
  {"lat":32.869054,"lon":-117.212322,"city":"San Diego","state":"CA","address":"4333 La Jolla Village Dr","name":""},
  {"lat":34.240796,"lon":-118.555754,"city":"Northridge","state":"CA","address":"9301 Tampa Ave Unit 2000","name":""},
  {"lat":33.614415,"lon":-117.875665,"city":"Newport Beach","state":"CA","address":"101 Newport Center Dr","name":""},
  {"lat":32.657893,"lon":-117.0663,"city":"National City","state":"CA","address":"3000 Plaza Bonita Rd","name":""},
  {"lat":36.584239,"lon":-121.896524,"city":"Monterey","state":"CA","address":"100 Del Monte Ctr","name":""},
  {"lat":33.727167,"lon":-116.402392,"city":"Palm Desert","state":"CA","address":"72780 Highway 111","name":""},
  {"lat":33.938988,"lon":-117.27399,"city":"Moreno Valley","state":"CA","address":"22400 Towngate Cir","name":""},
  {"lat":34.035173,"lon":-118.083746,"city":"Montebello","state":"CA","address":"1900 Montebello Town Ctr","name":""},
  {"lat":34.086954,"lon":-117.696209,"city":"Montclair","state":"CA","address":"5000 E Montclair Plaza Ln","name":""},
  {"lat":37.686557,"lon":-121.05024,"city":"Modesto","state":"CA","address":"500 Vintage Faire Mall","name":""},
  {"lat":34.05961,"lon":-118.419418,"city":"Los Angeles","state":"CA","address":"10250 Santa Monica Blvd Dept 2","name":""},
  {"lat":33.55929,"lon":-117.66776,"city":"Mission Viejo","state":"CA","address":"300 The Shops At Mission Viejo","name":""},
  {"lat":33.900081,"lon":-118.393635,"city":"Manhattan Beach","state":"CA","address":"3400 N Sepulveda Blvd","name":""},
  {"lat":32.779005,"lon":-117.011433,"city":"La Mesa","state":"CA","address":"5500 Grossmont Ctr Dr Ste 351","name":""},
  {"lat":33.850538,"lon":-118.1424,"city":"Lakewood","state":"CA","address":"98 Lakewood Center Mall","name":""},
  {"lat":34.075331,"lon":-118.377493,"city":"Los Angeles","state":"CA","address":"8500 Beverly Blvd STE 136","name":""},
  {"lat":34.145929,"lon":-118.259191,"city":"Glendale","state":"CA","address":"2100 Glendale Galleria","name":""},
  {"lat":37.650387,"lon":-122.102162,"city":"Hayward","state":"CA","address":"800 Southland Mall","name":""},
  {"lat":36.850801,"lon":-119.789595,"city":"Fresno","state":"CA","address":"7890 N Blackstone Ave","name":""},
  {"lat":36.806326,"lon":-119.779668,"city":"Fresno","state":"CA","address":"4888 N Fresno St","name":""},
  {"lat":36.809612,"lon":-119.755483,"city":"Fresno","state":"CA","address":"1732 E. Shaw Avenue","name":""},
  {"lat":38.259856,"lon":-122.055954,"city":"Fairfield","state":"CA","address":"1544 Travis Blvd","name":""},
  {"lat":33.06849,"lon":-117.06623,"city":"Escondido","state":"CA","address":"220 E Via Rancho Pkwy","name":""},
  {"lat":38.42381,"lon":-121.41406,"city":"Elk Grove","state":"CA","address":"7621 Laguna Boulevard","name":""},
  {"lat":32.761996,"lon":-115.531974,"city":"El Centro","state":"CA","address":"3551 S Dogwood Rd","name":""},
  {"lat":33.934691,"lon":-118.119528,"city":"Downey","state":"CA","address":"400 Stonewood St","name":""},
  {"lat":37.673742,"lon":-122.470927,"city":"Daly City","state":"CA","address":"1 Serramonte Ctr","name":""},
  {"lat":33.988453,"lon":-118.393974,"city":"Culver City","state":"CA","address":"6200 W Slauson Ave","name":""},
  {"lat":37.967684,"lon":-122.061526,"city":"Concord","state":"CA","address":"341 Sun Valley Mall","name":""},
  {"lat":33.69372,"lon":-117.887093,"city":"Costa Mesa","state":"CA","address":"3333 Bristol St Ste 6000","name":""},
  {"lat":36.976677,"lon":-121.968922,"city":"Capitola","state":"CA","address":"1865 41st Ave","name":""},
  {"lat":33.178835,"lon":-117.332348,"city":"Carlsbad","state":"CA","address":"2559 El Camino Real","name":""},
  {"lat":33.861494,"lon":-118.092495,"city":"Cerritos","state":"CA","address":"500 Los Cerritos Mall Rm 1","name":""},
  {"lat":34.19197,"lon":-118.60386,"city":"Canoga Park","state":"CA","address":"21900 Vanowen St","name":""},
  {"lat":34.184122,"lon":-118.313287,"city":"Burbank","state":"CA","address":"200 E Cypress Ave","name":""},
  {"lat":32.630326,"lon":-117.086118,"city":"Chula Vista","state":"CA","address":"555 Broadway St Ste 0","name":""},
  {"lat":33.91627,"lon":-117.88481,"city":"Brea","state":"CA","address":"200 Brea Mall","name":""},
  {"lat":35.338168,"lon":-119.031634,"city":"Bakersfield","state":"CA","address":"2601 Ming Ave","name":""},
  {"lat":34.134955,"lon":-118.048656,"city":"Arcadia","state":"CA","address":"400 S Baldwin Ave Ste 100","name":""},
  {"lat":33.502509,"lon":-111.929023,"city":"Scottsdale","state":"AZ","address":"7014 E Camelback Rd Ste 5000 Suite 5000","name":""},
  {"lat":33.511057,"lon":-112.029344,"city":"Phoenix","state":"AZ","address":"2410 E Camelback Rd","name":""},
  {"lat":33.642168,"lon":-112.225948,"city":"Glendale","state":"AZ","address":"7600 W Arrowhead Towne Ctr","name":""},
  {"lat":33.312428,"lon":-111.743067,"city":"Gilbert","state":"AZ","address":"2190 E Williams Field Rd","name":""},
  {"lat":33.305326,"lon":-111.896113,"city":"Chandler","state":"AZ","address":"3107 W Chandler Blvd","name":""},
  {"lat":38.421365,"lon":-82.265983,"city":"Barboursville","state":"WV","address":"300 Mall Rd","name":""},
  {"lat":45.657739,"lon":-122.586713,"city":"Vancouver","state":"WA","address":"8208 Ne Vancouver Mall Dr","name":""},
  {"lat":40.768664,"lon":-111.890606,"city":"Salt Lake City","state":"UT","address":"21 S Main St","name":""},
  {"lat":36.816449,"lon":-76.075009,"city":"Virginia Beach","state":"VA","address":"701 Lynnhaven Pkwy Ste M","name":""},
  {"lat":30.164234,"lon":-95.455334,"city":"The Woodlands","state":"TX","address":"1201 Lake Woodlands Dr Ste 200","name":""},
  {"lat":34.067753,"lon":-80.962103,"city":"Columbia","state":"SC","address":"7201 Two Notch Rd Ste Dl400","name":""},
  {"lat":34.849937,"lon":-82.333109,"city":"Greenville","state":"SC","address":"700 Haywood Rd Ste 308","name":""},
  {"lat":35.200959,"lon":-89.78749,"city":"Memphis","state":"TN","address":"2840 N Germantown Pkwy","name":""},
  {"lat":43.50949,"lon":-96.77587,"city":"Sioux Falls","state":"SD","address":"3300 W Empire Mall","name":""},
  {"lat":36.106839,"lon":-86.814239,"city":"Nashville","state":"TN","address":"3813 Hillsboro Pike","name":""},
  {"lat":35.959118,"lon":-86.812692,"city":"Franklin","state":"TN","address":"1790 Galleria Blvd","name":""},
  {"lat":41.828897,"lon":-71.415913,"city":"Providence","state":"RI","address":"7 Providence Pl","name":""},
  {"lat":41.72599,"lon":-71.476589,"city":"Warwick","state":"RI","address":"400 Bald Hill Rd Ste 400","name":""},
  {"lat":40.36067,"lon":-75.98441,"city":"Wyomissing","state":"PA","address":"2771 Paper Mill Road","name":""},
  {"lat":40.572699,"lon":-79.801066,"city":"Tarentum","state":"PA","address":"100 Pittsburgh Mills Cir","name":""},
  {"lat":40.140364,"lon":-75.123215,"city":"Willow Grove","state":"PA","address":"2500 W Moreland Rd Ste 3050","name":""},
  {"lat":40.629648,"lon":-75.47888,"city":"Whitehall","state":"PA","address":"300 Lehigh Valley Mall","name":""},
  {"lat":41.460524,"lon":-75.65263,"city":"Scranton","state":"PA","address":"100 Viewmont Mall Ste 900","name":""},
  {"lat":40.04642,"lon":-75.054726,"city":"Philadelphia","state":"PA","address":"2399 Cottman Ave","name":""},
  {"lat":40.340128,"lon":-80.054818,"city":"Pittsburgh","state":"PA","address":"301 S Hills Vlg","name":""},
  {"lat":40.427296,"lon":-79.791428,"city":"Monroeville","state":"PA","address":"400 Monroeville Mall","name":""},
  {"lat":40.23469,"lon":-75.244664,"city":"North Wales","state":"PA","address":"400 Montgomery Mall","name":""},
  {"lat":40.088873,"lon":-75.386103,"city":"King of Prussia","state":"PA","address":"680 W Dekalb Pike","name":""},
  {"lat":40.456502,"lon":-80.15878,"city":"Pittsburgh","state":"PA","address":"3000 Robinson Center Dr","name":""},
  {"lat":40.301945,"lon":-79.518838,"city":"Greensburg","state":"PA","address":"5256 Route 30 Ste 994","name":""},
  {"lat":40.18354,"lon":-74.880937,"city":"Langhorne","state":"PA","address":"2300 E Lincoln Hwy Ste 4","name":""},
  {"lat":40.222283,"lon":-76.932472,"city":"Camp Hill","state":"PA","address":"3550 Capital Mall Dr","name":""},
  {"lat":42.069095,"lon":-80.098307,"city":"Erie","state":"PA","address":"850 Millcreek Mall","name":""},
  {"lat":29.593418,"lon":-95.626245,"city":"Sugar Land","state":"TX","address":"16511 Southwest Fwy","name":""},
  {"lat":32.807544,"lon":-96.624208,"city":"Mesquite","state":"TX","address":"4000 Town East Mall","name":""},
  {"lat":29.552033,"lon":-95.393845,"city":"Pearland","state":"TX","address":"11200 Broadway St Ste 950 Suite 950","name":""},
  {"lat":29.517341,"lon":-98.497272,"city":"San Antonio","state":"TX","address":"7400 San Pedro Ave Ste 200 Suite 200","name":""},
  {"lat":32.841083,"lon":-96.994414,"city":"Irving","state":"TX","address":"3801 Irving Mall","name":""},
  {"lat":29.355672,"lon":-98.531764,"city":"San Antonio","state":"TX","address":"2310 Sw Military Dr Ste 2004","name":""},
  {"lat":29.469508,"lon":-98.620941,"city":"San Antonio","state":"TX","address":"6301 Nw Loop 410 Ste E","name":""},
  {"lat":26.185398,"lon":-98.23457,"city":"McAllen","state":"TX","address":"2100 10th St","name":""},
  {"lat":27.551132,"lon":-99.501383,"city":"Laredo","state":"TX","address":"5300 San Dario Ave","name":""},
  {"lat":29.59128,"lon":-98.6157,"city":"San Antonio","state":"TX","address":"15900 La Cantera Pkwy Bldg 16","name":""},
  {"lat":40.540622,"lon":-80.008232,"city":"Pittsburgh","state":"PA","address":"1004 Ross Park Mall Dr","name":""},
  {"lat":40.538908,"lon":-80.008911,"city":"Pittsburgh","state":"PA","address":"1014 Ross Park Mall Drive","name":""},
  {"lat":30.011357,"lon":-95.269322,"city":"Humble","state":"TX","address":"20131 Highway 59 N Ste 4000","name":""},
  {"lat":32.830764,"lon":-97.199433,"city":"Hurst","state":"TX","address":"1101 Melbourne Rd Ste 3000 Suite 3000","name":""},
  {"lat":32.952294,"lon":-96.609772,"city":"Garland","state":"TX","address":"701 Horseshoe Dr","name":""},
  {"lat":29.779128,"lon":-95.544359,"city":"Houston","state":"TX","address":"900 Memorial City Way Ste 800","name":""},
  {"lat":29.541572,"lon":-95.149652,"city":"Friendswood","state":"TX","address":"200 Baybrook Mall","name":""},
  {"lat":33.10089,"lon":-96.80896,"city":"Frisco","state":"TX","address":"2609 Preston Rd","name":""},
  {"lat":32.868825,"lon":-96.773711,"city":"Dallas","state":"TX","address":"8687 N Central Expy Ste 800 Ste 800","name":""},
  {"lat":32.679339,"lon":-97.397386,"city":"Fort Worth","state":"TX","address":"4650 S Hulen St","name":""},
  {"lat":31.774844,"lon":-106.379305,"city":"El Paso","state":"TX","address":"8401 Gateway Blvd W Ste C","name":""},
  {"lat":30.399949,"lon":-97.727016,"city":"Austin","state":"TX","address":"3311 Esperanza Crossing","name":""},
  {"lat":27.712785,"lon":-97.37371,"city":"Corpus Christi","state":"TX","address":"5488 S Padre Island Dr Ste 5000","name":""},
  {"lat":32.682087,"lon":-97.129046,"city":"Arlington","state":"TX","address":"3841 S Cooper St","name":""},
  {"lat":37.657251,"lon":-77.622574,"city":"Richmond","state":"VA","address":"11872 W Broad St","name":""},
  {"lat":32.930322,"lon":-96.81813,"city":"Dallas","state":"TX","address":"13375 Noel Rd","name":""},
  {"lat":29.737432,"lon":-95.463447,"city":"Houston","state":"TX","address":"5135a W Alabama St","name":""},
  {"lat":29.961738,"lon":-95.54232,"city":"Houston","state":"TX","address":"4000 Willowbrook Mall","name":""},
  {"lat":37.305261,"lon":-79.965513,"city":"Roanoke","state":"VA","address":"4841 Valley View Blvd Nw","name":""},
  {"lat":37.508867,"lon":-77.609319,"city":"North","state":"VA","address":"11500 Midlothian Tpke Ste 820","name":""},
  {"lat":30.327652,"lon":-97.810901,"city":"Austin","state":"TX","address":"2901 S Capital Of Texas Hwy Ste 60","name":""},
  {"lat":30.471928,"lon":-97.801863,"city":"Cedar Park","state":"TX","address":"11250 Lakeline Mall Dr","name":""},
  {"lat":38.918296,"lon":-77.223271,"city":"McLean","state":"VA","address":"8000 Tysons Corner Ctr","name":""},
  {"lat":37.11249,"lon":-76.495879,"city":"Newport News","state":"VA","address":"12300 Jefferson Ave","name":""},
  {"lat":38.773901,"lon":-77.504119,"city":"Manassas","state":"VA","address":"8270 Sudley Rd","name":""},
  {"lat":38.861862,"lon":-77.360088,"city":"Fairfax","state":"VA","address":"11901L Fair Oaks Mall","name":""},
  {"lat":39.030736,"lon":-77.421244,"city":"Dulles","state":"VA","address":"21060 Dulles Town Cir","name":""},
  {"lat":40.63785,"lon":-111.88481,"city":"Murray","state":"UT","address":"6117 S State St Ste 60 Suite 60","name":""},
  {"lat":38.29047,"lon":-77.514847,"city":"Fredericksburg","state":"VA","address":"3102 Plank Rd","name":""},
  {"lat":36.778376,"lon":-76.226019,"city":"Chesapeake","state":"VA","address":"1401 Greenbriar Pkwy Ste 1190","name":""},
  {"lat":47.459807,"lon":-122.259188,"city":"Tukwila","state":"WA","address":"500 Southcenter Mall","name":""},
  {"lat":38.864764,"lon":-77.059515,"city":"Arlington","state":"VA","address":"1000 S Hayes St","name":""},
  {"lat":46.566557,"lon":-120.480042,"city":"Union Gap","state":"WA","address":"2525 Main St","name":""},
  {"lat":47.67241,"lon":-117.204843,"city":"Spokane Valley","state":"WA","address":"14740 E Indiana Ave","name":""},
  {"lat":47.216417,"lon":-122.467857,"city":"Tacoma","state":"WA","address":"4502 S Steele St Ste 700","name":""},
  {"lat":46.232272,"lon":-119.23188,"city":"Richland","state":"WA","address":"1310 Tapteal Drive","name":""},
  {"lat":47.658049,"lon":-122.690677,"city":"Silverdale","state":"WA","address":"3102 NW Randall Way","name":""},
  {"lat":47.041874,"lon":-122.933836,"city":"Olympia","state":"WA","address":"625 Black Lake Blvd Sw Ste 301 #301","name":""},
  {"lat":47.214457,"lon":-122.460462,"city":"Tacoma","state":"WA","address":"1767 S 48th St","name":""},
  {"lat":47.046429,"lon":-122.938254,"city":"Olympia","state":"WA","address":"2905 Harrison Avenue NW","name":""},
  {"lat":47.451327,"lon":-122.26034,"city":"Tukwila","state":"WA","address":"17855 Southcenter Parkway","name":""},
  {"lat":47.826067,"lon":-122.272809,"city":"Lynnwood","state":"WA","address":"2909 Alderwood Mall Blvd.","name":""},
  {"lat":47.828381,"lon":-122.272034,"city":"Lynnwood","state":"WA","address":"18700 Alderwood Mall Pkwy","name":""},
  {"lat":47.442967,"lon":-122.259923,"city":"Tukwila","state":"WA","address":"17750 Southcenter Pkwy.","name":""},
  {"lat":38.862033,"lon":-77.356603,"city":"Fairfax","state":"VA","address":"11700l Fair Oaks Mall","name":""},
  {"lat":47.412256,"lon":-120.28953,"city":"East Wenatchee","state":"WA","address":"445 Valley Mall Pkwy","name":""},
  {"lat":46.22626,"lon":-119.226963,"city":"Kennewick","state":"WA","address":"1321 N Columbia Center Blvd Ste 400 Suite 400","name":""},
  {"lat":47.61557,"lon":-122.202522,"city":"Bellevue","state":"WA","address":"400 Bellevue Sq","name":""},
  {"lat":48.786871,"lon":-122.487849,"city":"Bellingham","state":"WA","address":"50 Bellis Fair Pkwy","name":""},
  {"lat":45.450478,"lon":-122.781244,"city":"Tigard","state":"OR","address":"9300 Sw Washington Square Rd","name":""},
  {"lat":36.062978,"lon":-95.879332,"city":"Tulsa","state":"OK","address":"8707 E 71st St","name":""},
  {"lat":46.858247,"lon":-96.8464,"city":"Fargo","state":"ND","address":"3902 13th Ave S Ste 2500","name":""},
  {"lat":41.328634,"lon":-73.809012,"city":"Yorktown Heights","state":"NY","address":"700 Lee Blvd Jefferson Valley Mall","name":""},
  {"lat":40.555356,"lon":-74.300064,"city":"Woodbridge","state":"NJ","address":"237 Woodbridge Center Dr","name":""},
  {"lat":41.021458,"lon":-80.660332,"city":"Youngstown","state":"OH","address":"7401 Market St Rm 275","name":""},
  {"lat":45.453719,"lon":-122.778437,"city":"Tigard","state":"OR","address":"9009 SW Hall Blvd.","name":""},
  {"lat":35.107768,"lon":-106.571332,"city":"Albuquerque","state":"NM","address":"6600 Menaul Blvd Ne Ste 4000","name":""},
  {"lat":35.84139,"lon":-78.682126,"city":"Raleigh","state":"NC","address":"4325 Glenwood Ave Ste 1202","name":""},
  {"lat":39.470723,"lon":-119.787943,"city":"Reno","state":"NV","address":"6011 South Virginia Street","name":""},
  {"lat":38.797595,"lon":-90.617688,"city":"St. Peters","state":"MO","address":"1 Mid Rivers Mall","name":""},
  {"lat":38.633701,"lon":-90.348307,"city":"Richmond Heights","state":"MO","address":"1550 Saint Louis Galleria","name":""},
  {"lat":45.673711,"lon":-111.079541,"city":"Bozeman","state":"MT","address":"2825 W Main St Ste L","name":""},
  {"lat":45.55755,"lon":-94.210154,"city":"St. Cloud","state":"MN","address":"4101 W Division St Ste 95","name":""},
  {"lat":45.013158,"lon":-93.172039,"city":"Roseville","state":"MN","address":"900 Rosedale Ctr Ste B","name":""},
  {"lat":45.009488,"lon":-93.158073,"city":"Roseville","state":"MN","address":"1375 Commerce Street","name":""},
  {"lat":44.003727,"lon":-92.480024,"city":"Rochester","state":"MN","address":"901 Apache Mall","name":""},
  {"lat":44.969056,"lon":-93.438235,"city":"Minnetonka","state":"MN","address":"12411 Wayzata Blvd","name":""},
  {"lat":39.475864,"lon":-119.783097,"city":"Reno","state":"NV","address":"5100 Meadowood Mall Cir","name":""},
  {"lat":35.865598,"lon":-78.573816,"city":"Raleigh","state":"NC","address":"3801 Sumner Blvd","name":""},
  {"lat":42.767657,"lon":-71.224485,"city":"Salem","state":"NH","address":"85 Rockingham Park Blvd","name":""},
  {"lat":44.881449,"lon":-93.326451,"city":"Edina","state":"MN","address":"100 Southdale Ctr","name":""},
  {"lat":44.853415,"lon":-93.24389,"city":"Bloomington","state":"MN","address":"4000 Sw Court","name":""},
  {"lat":38.66617,"lon":-90.59403,"city":"Chesterfield","state":"MO","address":"154 THF Boulevard","name":""},
  {"lat":38.602429,"lon":-90.445785,"city":"Des Peres","state":"MO","address":"2 W County Ctr","name":""},
  {"lat":36.06439,"lon":-115.24466,"city":"Las Vegas","state":"NV","address":"7020 Arroyo Crossing Pkwy","name":""},
  {"lat":36.066723,"lon":-115.040119,"city":"Henderson","state":"NV","address":"1304 W Sunset Rd","name":""},
  {"lat":42.955404,"lon":-71.432874,"city":"Manchester","state":"NH","address":"1500 S Willow St Spc S200","name":""},
  {"lat":43.097302,"lon":-70.804955,"city":"Newington","state":"NH","address":"50 Fox Run Rd Ste 25","name":""},
  {"lat":42.702277,"lon":-71.437396,"city":"Nashua","state":"NH","address":"310 Daniel Webster Hwy Ste 104 Pheasant Lane Mall","name":""},
  {"lat":39.981041,"lon":-74.178442,"city":"Toms River","state":"NJ","address":"1201 Hooper Ave Ste C","name":""},
  {"lat":36.126339,"lon":-115.200572,"city":"Las Vegas","state":"NV","address":"4450 Spring Mountain Rd","name":""},
  {"lat":40.891991,"lon":-74.259446,"city":"Wayne","state":"NJ","address":"200 Us Highway 46","name":""},
  {"lat":40.741105,"lon":-74.364962,"city":"Short Hills","state":"NJ","address":"1200 Morris Tpke Ste 6","name":""},
  {"lat":40.900736,"lon":-74.546086,"city":"Rockaway","state":"NJ","address":"303 Mount Hope Ave Ste A","name":""},
  {"lat":40.91762,"lon":-74.075908,"city":"Paramus","state":"NJ","address":"500 Garden State Plz","name":""},
  {"lat":40.892607,"lon":-74.263511,"city":"Wayne","state":"NJ","address":"1100 Willowbrook Mall","name":""},
  {"lat":40.462152,"lon":-74.46423,"city":"North Brunswick","state":"NJ","address":"929 US Highway 1","name":""},
  {"lat":40.914928,"lon":-74.047019,"city":"Paramus","state":"NJ","address":"275 Route 4 West","name":""},
  {"lat":40.956639,"lon":-74.068959,"city":"Paramus","state":"NJ","address":"100 Paramus Park Mall","name":""},
  {"lat":41.06952,"lon":-74.13925,"city":"Ramsey","state":"NJ","address":"225 Interstate Shopping Center","name":""},
  {"lat":36.173355,"lon":-115.195821,"city":"Las Vegas","state":"NV","address":"4100 Meadows Ln","name":""},
  {"lat":36.128213,"lon":-115.172998,"city":"Las Vegas","state":"NV","address":"3200 Las Vegas Blvd S Ste 200","name":""},
  {"lat":36.147636,"lon":-115.334054,"city":"Las Vegas","state":"NV","address":"2075 Festival Plaza Dr","name":""},
  {"lat":39.96839,"lon":-74.91398,"city":"Mount Laurel","state":"NJ","address":"8 Centerton Road","name":""},
  {"lat":39.943819,"lon":-74.989363,"city":"Maple Shade","state":"NJ","address":"493 Route 38 West","name":""},
  {"lat":40.726316,"lon":-74.037154,"city":"Jersey City","state":"NJ","address":"20 Mall Dr E Newport Centre Mall","name":""},
  {"lat":39.453194,"lon":-74.640695,"city":"Mays Landing","state":"NJ","address":"4401 Black Horse Pike","name":""},
  {"lat":40.550481,"lon":-74.335497,"city":"Edison","state":"NJ","address":"55 Parsonage Rd Unit 275","name":""},
  {"lat":40.288504,"lon":-74.6776,"city":"Lawrenceville","state":"NJ","address":"3320 Us Highway 1 Unit 400","name":""},
  {"lat":40.288769,"lon":-74.050423,"city":"Eatontown","state":"NJ","address":"231 Highway 35","name":""},
  {"lat":40.424719,"lon":-74.383334,"city":"East Brunswick","state":"NJ","address":"755 Route 18 Ste 100","name":""},
  {"lat":40.776592,"lon":-74.353456,"city":"Livingston","state":"NJ","address":"112 Eisenhower Pkwy Ste 24a","name":""},
  {"lat":39.92378,"lon":-75.03648,"city":"Cherry Hill","state":"NJ","address":"2130 Route 70 W","name":""},
  {"lat":39.831464,"lon":-75.098037,"city":"Deptford","state":"NJ","address":"1750 Deptford Center Rd Ste B","name":""},
  {"lat":36.085508,"lon":-79.829971,"city":"Greensboro","state":"NC","address":"700 Friendly Center Rd","name":""},
  {"lat":40.584367,"lon":-74.618418,"city":"Bridgewater","state":"NJ","address":"400 Commons Way Ste 473","name":""},
  {"lat":35.351177,"lon":-80.850353,"city":"Charlotte","state":"NC","address":"6845 Northlake Mall Dr","name":""},
  {"lat":35.90347,"lon":-78.943008,"city":"Durham","state":"NC","address":"6910 Fayetteville Rd Ste 300","name":""},
  {"lat":35.067655,"lon":-78.952762,"city":"Fayetteville","state":"NC","address":"100 Cross Creek Mall","name":""},
  {"lat":35.153977,"lon":-80.831882,"city":"Charlotte","state":"NC","address":"4400 Sharon Rd Ste 502","name":""},
  {"lat":40.928577,"lon":-73.8556,"city":"Yonkers","state":"NY","address":"800 Central Park Ave Ste 1","name":""},
  {"lat":39.941853,"lon":-75.026198,"city":"Cherry Hill","state":"NJ","address":"2000 Route 38 Ste 200","name":""},
  {"lat":40.253646,"lon":-74.300177,"city":"Freehold","state":"NJ","address":"3710 Us Highway 9 Ste 3000","name":""},
  {"lat":40.287129,"lon":-74.054693,"city":"Eatontown","state":"NJ","address":"180 State Route 35 Ste 2000","name":""},
  {"lat":41.096213,"lon":-73.953356,"city":"West Nyack","state":"NY","address":"1920 Palisades Center Dr","name":""},
  {"lat":43.027522,"lon":-77.441838,"city":"Victor","state":"NY","address":"100 Eastview Mall","name":""},
  {"lat":40.585079,"lon":-74.166664,"city":"Staten Island","state":"NY","address":"100 Richmond Hill Rd","name":""},
  {"lat":43.068584,"lon":-76.172876,"city":"Syracuse","state":"NY","address":"9509 Destiny Usa Dr Fl 2","name":""},
  {"lat":40.66175,"lon":-73.722214,"city":"Valley Stream","state":"NY","address":"1000 Green Acres Mall","name":""},
  {"lat":41.624351,"lon":-73.920492,"city":"Poughkeepsie","state":"NY","address":"2001 South Rd Ste 254","name":""},
  {"lat":41.45298,"lon":-74.371052,"city":"Middletown","state":"NY","address":"1 N Galleria Dr Ste 131","name":""},
  {"lat":40.750792,"lon":-73.989526,"city":"New York City","state":"NY","address":"151 West 34th Street","name":""},
  {"lat":40.788926,"lon":-73.703036,"city":"Manhasset","state":"NY","address":"1100 Northern Blvd","name":""},
  {"lat":40.82351,"lon":-73.410202,"city":"Huntington Station","state":"NY","address":"180 Walt Whitman Road","name":""},
  {"lat":40.86527,"lon":-73.127671,"city":"Lake Grove","state":"NY","address":"580 Smith Haven Mall","name":""},
  {"lat":40.738621,"lon":-73.6118,"city":"Garden City","state":"NY","address":"630 Old Country Rd Unit A3 Unit A3","name":""},
  {"lat":40.759806,"lon":-73.82831,"city":"Flushing","state":"NY","address":"13650 Roosevelt Ave","name":""},
  {"lat":40.735307,"lon":-73.874761,"city":"Elmhurst","state":"NY","address":"88-01 Queens Boulevard","name":""},
  {"lat":40.734519,"lon":-73.871397,"city":"Elmhurst","state":"NY","address":"9001 Queens Blvd","name":""},
  {"lat":40.745464,"lon":-73.615704,"city":"Carle Place","state":"NY","address":"155 Glen Cover Road","name":""},
  {"lat":40.745464,"lon":-73.615704,"city":"Carle Place","state":"NY","address":"155 Glen Cove Road","name":""},
  {"lat":42.910918,"lon":-78.763073,"city":"Buffalo","state":"NY","address":"4 Walden Galleria","name":""},
  {"lat":40.865002,"lon":-73.12776,"city":"Lake Grove","state":"NY","address":"2 Smith Haven Mall","name":""},
  {"lat":40.876229,"lon":-72.537141,"city":"Hampton Bays","state":"NY","address":"190 W Montauk Hwy","name":""},
  {"lat":40.61112,"lon":-73.919789,"city":"Brooklyn","state":"NY","address":"5400 Avenue U","name":""},
  {"lat":40.739762,"lon":-73.24526,"city":"Bay Shore","state":"NY","address":"1653 Sunrise Highway","name":""},
  {"lat":40.862901,"lon":-73.827862,"city":"The Bronx","state":"NY","address":"250 Baychester Ave","name":""},
  {"lat":42.709962,"lon":-73.818419,"city":"Albany","state":"NY","address":"200 Colonie Ctr","name":""},
  {"lat":40.836387,"lon":-73.861419,"city":"The Bronx","state":"NY","address":"1441 Metropolitan Ave Fl 2","name":""},
  {"lat":42.988602,"lon":-78.819033,"city":"Amherst","state":"NY","address":"1255 Niagara Falls Blvd","name":""},
  {"lat":41.500399,"lon":-81.535035,"city":"University Heights","state":"OH","address":"2201 Warrensville Center Rd","name":""},
  {"lat":41.46205,"lon":-81.95257,"city":"Westlake","state":"OH","address":"30083 Detroit Road","name":""},
  {"lat":41.416904,"lon":-81.907897,"city":"North Olmsted","state":"OH","address":"25801 Brookpark Rd","name":""},
  {"lat":41.31298,"lon":-81.819014,"city":"Strongsville","state":"OH","address":"17447 Southpark Ctr","name":""},
  {"lat":41.21454,"lon":-80.751723,"city":"Niles","state":"OH","address":"5403 Youngstown Warren Rd","name":""},
  {"lat":40.052995,"lon":-82.912606,"city":"Columbus","state":"OH","address":"4141 Brighton Rose Way","name":""},
  {"lat":40.070198,"lon":-83.13552,"city":"Dublin","state":"OH","address":"5700 Britton Parkway","name":""},
  {"lat":42.344412,"lon":-122.87853,"city":"Medford","state":"OR","address":"1800 N Riverside Ave","name":""},
  {"lat":39.14689,"lon":-84.44852,"city":"Cincinnati","state":"OH","address":"2719 Edmondson Road","name":""},
  {"lat":39.634664,"lon":-84.220247,"city":"Centerville","state":"OH","address":"2700 Miamisburg Centerville Rd Ste 640","name":""},
  {"lat":39.63405,"lon":-84.22051,"city":"Centerville","state":"OH","address":"2700 Miamisburg Centerville Rd Ste 640","name":""},
  {"lat":41.134159,"lon":-81.617821,"city":"Akron","state":"OH","address":"3265 W Market St Ste 300 Ste 300","name":""},
  {"lat":39.200874,"lon":-84.378477,"city":"Cincinnati","state":"OH","address":"7875 Montgomery Rd Stop 1","name":""},
  {"lat":40.856539,"lon":-81.427595,"city":"Canton","state":"OH","address":"4300 Belden Village Mall","name":""},
  {"lat":39.19772,"lon":-84.378572,"city":"Cincinnati","state":"OH","address":"7800 Montgomery Road Sycamore Plaza","name":""},
  {"lat":39.075081,"lon":-84.350998,"city":"Cincinnati","state":"OH","address":"7440 Beechmont Ave","name":""},
  {"lat":40.144272,"lon":-82.98395,"city":"Columbus","state":"OH","address":"1300 Polaris Pkwy","name":""},
  {"lat":42.691004,"lon":-73.85324,"city":"Albany","state":"NY","address":"120 Washington Ave Ext Ste 49","name":""},
  {"lat":40.07247,"lon":-83.132886,"city":"Dublin","state":"OH","address":"5123 Tuttle Crossing Blvd","name":""},
  {"lat":48.797243,"lon":-122.48928,"city":"Bellingham","state":"WA","address":"4295 Guide Meridian","name":""},
  {"lat":44.067011,"lon":-123.104781,"city":"Eugene","state":"OR","address":"100 Valley River Ctr","name":""},
  {"lat":45.434927,"lon":-122.573421,"city":"Clackamas","state":"OR","address":"12100 Se 82nd Ave","name":""},
  {"lat":44.083158,"lon":-121.303419,"city":"Bend","state":"OR","address":"3188 N Highway 97 Ste 107","name":""},
  {"lat":35.524737,"lon":-97.543966,"city":"Oklahoma City","state":"OK","address":"1901 Nw Expressway Ste 1078","name":""},
  {"lat":42.241697,"lon":-83.745538,"city":"Ann Arbor","state":"MI","address":"700 Briarwood Cir","name":""},
  {"lat":42.880075,"lon":-85.759119,"city":"Grandville","state":"MI","address":"3850 Rivertown Pkwy Sw","name":""},
  {"lat":42.317836,"lon":-83.224227,"city":"Dearborn","state":"MI","address":"18900 Michigan Ave Ste 1003","name":""},
  {"lat":42.491551,"lon":-83.471841,"city":"Novi","state":"MI","address":"27550 Novi Rd","name":""},
  {"lat":42.9176,"lon":-85.589387,"city":"Kentwood","state":"MI","address":"3165 28th St SE","name":""},
  {"lat":42.722929,"lon":-84.420123,"city":"Okemos","state":"MI","address":"1982 W Grand River Ave Ste 100 Ste 100","name":""},
  {"lat":42.220393,"lon":-85.592962,"city":"Portage","state":"MI","address":"6666 S Westnedge Ave","name":""},
  {"lat":39.047211,"lon":-77.068595,"city":"Wheaton","state":"MD","address":"11160 Viers Mill Road","name":""},
  {"lat":30.007294,"lon":-90.158279,"city":"Metairie","state":"LA","address":"3301 Veterans Memorial Blvd Ste 55 Ste 55","name":""},
  {"lat":43.634014,"lon":-70.335359,"city":"South Portland","state":"ME","address":"100 Maine Mall Rd","name":""},
  {"lat":42.453854,"lon":-71.024222,"city":"Saugus","state":"MA","address":"1185 Broadway","name":""},
  {"lat":38.247327,"lon":-85.610049,"city":"Louisville","state":"KY","address":"7900 Shelbyville Rd Ste B","name":""},
  {"lat":42.562926,"lon":-83.182275,"city":"Troy","state":"MI","address":"2750 W Big Beaver Rd","name":""},
  {"lat":30.39775,"lon":-91.085842,"city":"Baton Rouge","state":"LA","address":"6301 Bluebonnet Blvd","name":""},
  {"lat":37.990957,"lon":-84.527073,"city":"Lexington","state":"KY","address":"3301 Nicholasville Rd","name":""},
  {"lat":39.003128,"lon":-84.652117,"city":"Florence","state":"KY","address":"5000 Florence Mall","name":""},
  {"lat":42.542467,"lon":-70.942919,"city":"Peabody","state":"MA","address":"210 Andover St Unit Ll6","name":""},
  {"lat":42.301113,"lon":-71.381917,"city":"Natick","state":"MA","address":"1245 Worcester Rd Ste 2","name":""},
  {"lat":41.94485,"lon":-71.348922,"city":"N Attleboro","state":"MA","address":"1029 S Washington St Emerald Square","name":""},
  {"lat":41.667133,"lon":-70.294908,"city":"Hyannis","state":"MA","address":"793 Iyannough Rd Ste E Cape Cod Mall","name":""},
  {"lat":42.356197,"lon":-71.614509,"city":"Marlborough","state":"MA","address":"627 Donald Lynch Blvd","name":""},
  {"lat":42.167842,"lon":-72.641654,"city":"Holyoke","state":"MA","address":"400 Whitney Ave","name":""},
  {"lat":42.146876,"lon":-70.840638,"city":"Hanover","state":"MA","address":"1775 Washington St Ste 2","name":""},
  {"lat":42.302528,"lon":-71.393574,"city":"Framingham","state":"MA","address":"1 Worcester Road Shoppers World","name":""},
  {"lat":41.639604,"lon":-70.985698,"city":"Dartmouth","state":"MA","address":"362 State Rd","name":""},
  {"lat":42.325415,"lon":-71.064006,"city":"Dorchester","state":"MA","address":"8 B Allstate Rd Suite 1","name":""},
  {"lat":42.221577,"lon":-71.026573,"city":"Braintree","state":"MA","address":"250 Granite St Ste 8160","name":""},
  {"lat":42.202567,"lon":-71.835387,"city":"Auburn","state":"MA","address":"385 Southbridge St Ste 1700","name":""},
  {"lat":42.35483,"lon":-71.05951,"city":"Boston","state":"MA","address":"450 Washington St","name":""},
  {"lat":38.616651,"lon":-76.924716,"city":"Waldorf","state":"MD","address":"11200 Mall Cir # 6190","name":""},
  {"lat":39.403772,"lon":-76.601256,"city":"Towson","state":"MD","address":"813 Dulaney Valley Rd","name":""},
  {"lat":38.968627,"lon":-76.957503,"city":"Hyattsville","state":"MD","address":"3500 East West Hwy Ste 1100","name":""},
  {"lat":39.373845,"lon":-76.467759,"city":"Nottingham","state":"MD","address":"8200 Perry Hall Blvd Ste 2300","name":""},
  {"lat":42.481054,"lon":-71.212163,"city":"Burlington","state":"MA","address":"75 Burlington Mall Rd Ste 128","name":""},
  {"lat":39.138242,"lon":-76.603881,"city":"Glen Burnie","state":"MD","address":"7900 Ritchie Hwy Ste B1","name":""},
  {"lat":39.3826,"lon":-77.405721,"city":"Frederick","state":"MD","address":"5500 Buckeystown Pike Ste 500","name":""},
  {"lat":38.943839,"lon":-76.737678,"city":"Bowie","state":"MD","address":"15300 Emerald Way","name":""},
  {"lat":39.024058,"lon":-77.145574,"city":"Bethesda","state":"MD","address":"7125 Democracy Blvd","name":""},
  {"lat":38.989728,"lon":-76.547544,"city":"Annapolis","state":"MD","address":"1295 Annapolis Mall Floor 2","name":""},
  {"lat":39.216329,"lon":-76.860202,"city":"Columbia","state":"MD","address":"10300 Little Patuxent Pkwy Ste Hc","name":""},
  {"lat":42.200604,"lon":-83.254713,"city":"Taylor","state":"MI","address":"23000 Eureka Rd Ste A2","name":""},
  {"lat":43.476364,"lon":-83.972534,"city":"Saginaw","state":"MI","address":"4750 Fashion Square Mall","name":""}]}