{"key":"marriott","displayName":"Marriott","category":"hotels","useLocationName":false,"locations":[
  {"lat":61.215611,"lon":-149.897968,"city":"Anchorage","state":"AK","address":"820 West 7th Avenue","name":""},
  {"lat":33.436518,"lon":-86.718458,"city":"Birmingham","state":"AL","address":"3590 Grandview Parkway","name":""},
  {"lat":34.711161,"lon":-86.658612,"city":"Huntsville","state":"AL","address":"5 Tranquility Base","name":""},
  {"lat":30.676002,"lon":-88.117561,"city":"Mobile","state":"AL","address":"3101 Airport Boulevard","name":""},
  {"lat":32.68521,"lon":-85.423042,"city":"Opelika","state":"AL","address":"3700 Robert Trent Jones Trail","name":""},
  {"lat":32.45064,"lon":-86.40125,"city":"Prattville","state":"AL","address":"2500 Legends Circle","name":""},
  {"lat":34.748412,"lon":-92.271864,"city":"Little Rock","state":"AR","address":"3 Statehouse Plaza","name":""},
  {"lat":33.28271,"lon":-111.89286,"city":"Chandler","state":"AZ","address":"1600 South Price Road","name":""},
  {"lat":33.46049,"lon":-111.985973,"city":"Phoenix","state":"AZ","address":"1101 North 44th Street","name":""},
  {"lat":33.638692,"lon":-111.895704,"city":"Scottsdale","state":"AZ","address":"16770 North Perimeter Drive","name":""},
  {"lat":33.496805,"lon":-111.924425,"city":"Scottsdale","state":"AZ","address":"7325 East 3rd Avenue","name":""},
  {"lat":33.402135,"lon":-111.96807,"city":"Tempe","state":"AZ","address":"2000 W Westcourt Way","name":""},
  {"lat":32.232803,"lon":-110.958103,"city":"Tucson","state":"AZ","address":"880 East 2nd Street","name":""},
  {"lat":33.799393,"lon":-117.918601,"city":"Anaheim","state":"CA","address":"700 West Convention Way","name":""},
  {"lat":35.373144,"lon":-119.010597,"city":"Bakersfield","state":"CA","address":"801 Truxtun Avenue","name":""},
  {"lat":34.617479,"lon":-120.187752,"city":"Buellton","state":"CA","address":"555 McMurray Road","name":""},
  {"lat":34.194833,"lon":-118.348887,"city":"Burbank","state":"CA","address":"2500 North Hollywood Way","name":""},
  {"lat":37.602398,"lon":-122.370918,"city":"Burlingame","state":"CA","address":"1800 Old Bayshore Highway","name":""},
  {"lat":32.694898,"lon":-117.16598,"city":"Coronado","state":"CA","address":"2000 Second Street","name":""},
  {"lat":33.690616,"lon":-117.878866,"city":"Costa Mesa","state":"CA","address":"500 Anton Boulevard","name":""},
  {"lat":33.463883,"lon":-117.690744,"city":"Dana Point","state":"CA","address":"25135 Park Lantern","name":""},
  {"lat":37.488245,"lon":-121.946853,"city":"Fremont","state":"CA","address":"46100 Landing Parkway","name":""},
  {"lat":33.878352,"lon":-117.882201,"city":"Fullerton","state":"CA","address":"2701 Nutwood Avenue","name":""},
  {"lat":33.787246,"lon":-117.915246,"city":"Garden Grove","state":"CA","address":"12015 Harbor Boulevard","name":""},
  {"lat":33.657083,"lon":-117.748108,"city":"Irvine","state":"CA","address":"7905 Irvine Center Drive","name":""},
  {"lat":33.678408,"lon":-117.85027,"city":"Irvine","state":"CA","address":"18000 Von Karman Avenue","name":""},
  {"lat":32.872392,"lon":-117.215485,"city":"La Jolla","state":"CA","address":"4240 La Jolla Village Drive","name":""},
  {"lat":33.767589,"lon":-118.191884,"city":"Long Beach","state":"CA","address":"111 East Ocean Boulevard","name":""},
  {"lat":33.811373,"lon":-118.136714,"city":"Long Beach","state":"CA","address":"4700 Airport Plaza Drive","name":""},
  {"lat":33.945548,"lon":-118.384882,"city":"Los Angeles","state":"CA","address":"5855 West Century Boulevard","name":""},
  {"lat":34.056333,"lon":-118.395855,"city":"Los Angeles","state":"CA","address":"1150 South Beverly Drive","name":""},
  {"lat":33.982285,"lon":-118.459409,"city":"Marina del Rey","state":"CA","address":"4100 Admiralty Way","name":""},
  {"lat":36.6006,"lon":-121.894711,"city":"Monterey","state":"CA","address":"350 Calle Principal","name":""},
  {"lat":38.321729,"lon":-122.310875,"city":"Napa","state":"CA","address":"3425 Solano Avenue","name":""},
  {"lat":33.616795,"lon":-117.879543,"city":"Newport Beach","state":"CA","address":"900 Newport Center Drive","name":""},
  {"lat":33.653905,"lon":-117.868453,"city":"Newport Beach","state":"CA","address":"500 Bayview Circle","name":""},
  {"lat":37.801586,"lon":-122.272844,"city":"Oakland","state":"CA","address":"1001 Broadway","name":""},
  {"lat":37.694588,"lon":-121.934654,"city":"Pleasanton","state":"CA","address":"11950 Dublin Canyon Road","name":""},
  {"lat":38.606729,"lon":-121.267919,"city":"Rancho Cordova","state":"CA","address":"11211 Point East Drive","name":""},
  {"lat":37.5238,"lon":-122.260482,"city":"Redwood City","state":"CA","address":"223 Twin Dolphin Drive","name":""},
  {"lat":33.986393,"lon":-117.373113,"city":"Riverside","state":"CA","address":"3400 Market Street","name":""},
  {"lat":32.935865,"lon":-117.239168,"city":"San Diego","state":"CA","address":"11966 El Camino Real","name":""},
  {"lat":32.708263,"lon":-117.158617,"city":"San Diego","state":"CA","address":"660 K Street","name":""},
  {"lat":32.709185,"lon":-117.164969,"city":"San Diego","state":"CA","address":"333 West Harbor Drive","name":""},
  {"lat":32.775537,"lon":-117.140818,"city":"San Diego","state":"CA","address":"8757 Rio San Diego Drive","name":""},
  {"lat":37.805616,"lon":-122.417726,"city":"San Francisco","state":"CA","address":"1250 Columbus Avenue","name":""},
  {"lat":37.789381,"lon":-122.408382,"city":"San Francisco","state":"CA","address":"480 Sutter Street","name":""},
  {"lat":37.785004,"lon":-122.403901,"city":"San Francisco","state":"CA","address":"780 Mission Street","name":""},
  {"lat":37.330723,"lon":-121.887936,"city":"San Jose","state":"CA","address":"301 South Market Street","name":""},
  {"lat":37.764218,"lon":-121.965404,"city":"San Ramon","state":"CA","address":"2600 Bishop Drive","name":""},
  {"lat":37.390687,"lon":-121.974279,"city":"Santa Clara","state":"CA","address":"2700 Mission College Boulevard","name":""},
  {"lat":33.835903,"lon":-118.350066,"city":"Torrance","state":"CA","address":"3635 Fashion Way","name":""},
  {"lat":34.26903,"lon":-119.273505,"city":"Ventura","state":"CA","address":"2055 Harbor Blvd.","name":""},
  {"lat":36.328065,"lon":-119.292327,"city":"Visalia","state":"CA","address":"300 South Court","name":""},
  {"lat":37.912413,"lon":-122.065494,"city":"Walnut Creek","state":"CA","address":"2355 North Main Street","name":""},
  {"lat":34.179226,"lon":-118.603776,"city":"Woodland Hills","state":"CA","address":"21850 Oxnard Street","name":""},
  {"lat":39.769377,"lon":-104.797662,"city":"Aurora","state":"CO","address":"16455 E. 40th Circle","name":""},
  {"lat":40.016888,"lon":-105.260439,"city":"Boulder","state":"CO","address":"2660 Canyon Boulevard","name":""},
  {"lat":38.913749,"lon":-104.827626,"city":"Colorado Springs","state":"CO","address":"5580 Tech Center Drive","name":""},
  {"lat":39.626967,"lon":-104.901207,"city":"Denver","state":"CO","address":"4900 S. Syracuse Street","name":""},
  {"lat":40.539071,"lon":-105.072747,"city":"Fort Collins","state":"CO","address":"350 East Horsetooth Road","name":""},
  {"lat":39.740357,"lon":-105.1619,"city":"Golden","state":"CO","address":"1717 Denver West Boulevard","name":""},
  {"lat":39.542994,"lon":-104.870984,"city":"Lone Tree","state":"CO","address":"10345 Park Meadows Drive","name":""},
  {"lat":39.8835,"lon":-105.0748,"city":"Westminster","state":"CO","address":"7000 Church Ranch Boulevard","name":""},
  {"lat":41.365134,"lon":-72.026122,"city":"Groton","state":"CT","address":"625 North Road (Route 117)","name":""},
  {"lat":41.763728,"lon":-72.669859,"city":"Hartford","state":"CT","address":"200 Columbus Blvd","name":""},
  {"lat":41.051542,"lon":-73.535748,"city":"Stamford","state":"CT","address":"243 Tresser Boulevard","name":""},
  {"lat":41.235467,"lon":-73.149808,"city":"Trumbull","state":"CT","address":"180 Hawley Lane","name":""},
  {"lat":41.873436,"lon":-72.66774,"city":"Windsor","state":"CT","address":"28 Day Hill Road","name":""},
  {"lat":38.903609,"lon":-77.004736,"city":"Washington","state":"DC","address":"175 L Street NE","name":""},
  {"lat":38.90593,"lon":-77.048547,"city":"Washington","state":"DC","address":"1221 22nd Street NW","name":""},
  {"lat":38.899358,"lon":-77.0281,"city":"Washington","state":"DC","address":"775 12th Street NW","name":""},
  {"lat":38.903556,"lon":-77.024444,"city":"Washington","state":"DC","address":"901 Massachusetts Avenue NW","name":""},
  {"lat":26.361095,"lon":-80.122463,"city":"Boca Raton","state":"FL","address":"5150 Town Center Circle","name":""},
  {"lat":27.953576,"lon":-82.828851,"city":"Clearwater Beach","state":"FL","address":"1201 Gulf Boulevard","name":""},
  {"lat":26.307044,"lon":-80.283901,"city":"Coral Springs","state":"FL","address":"11775 Heron Bay Boulevard","name":""},
  {"lat":26.05436,"lon":-80.15758,"city":"Dania Beach","state":"FL","address":"166 N Compass Way","name":""},
  {"lat":26.207684,"lon":-80.142986,"city":"Fort Lauderdale","state":"FL","address":"6650 North Andrews Avenue","name":""},
  {"lat":26.106427,"lon":-80.106293,"city":"Fort Lauderdale","state":"FL","address":"3030 Holiday Drive","name":""},
  {"lat":26.489123,"lon":-82.011586,"city":"Fort Myers","state":"FL","address":"17260 Harbour Pointe Drive","name":""},
  {"lat":26.026917,"lon":-80.116118,"city":"Hollywood","state":"FL","address":"2501 North Ocean Drive","name":""},
  {"lat":30.326068,"lon":-81.661844,"city":"Jacksonville","state":"FL","address":"245 Water Street","name":""},
  {"lat":30.247313,"lon":-81.589606,"city":"Jacksonville","state":"FL","address":"4670 Salisbury Road","name":""},
  {"lat":28.783773,"lon":-81.357777,"city":"Lake Mary","state":"FL","address":"1501 International Parkway","name":""},
  {"lat":25.686069,"lon":-80.314043,"city":"Miami","state":"FL","address":"9090 S. Dadeland Boulevard","name":""},
  {"lat":25.783879,"lon":-80.263087,"city":"Miami","state":"FL","address":"1201 NW Le Jeune Road, Building A","name":""},
  {"lat":25.791016,"lon":-80.186913,"city":"Miami","state":"FL","address":"1633 North Bayshore Drive","name":""},
  {"lat":25.770402,"lon":-80.132754,"city":"Miami Beach","state":"FL","address":"161 Ocean Drive","name":""},
  {"lat":28.360086,"lon":-81.508582,"city":"Orlando","state":"FL","address":"8701 World Center Drive","name":""},
  {"lat":28.546731,"lon":-81.384272,"city":"Orlando","state":"FL","address":"400 West Livingston Street","name":""},
  {"lat":28.456136,"lon":-81.305616,"city":"Orlando","state":"FL","address":"7499 Augusta National Drive","name":""},
  {"lat":26.838149,"lon":-80.099284,"city":"Palm Beach Gardens","state":"FL","address":"4000 RCA Boulevard","name":""},
  {"lat":27.516886,"lon":-82.560898,"city":"Palmetto","state":"FL","address":"600 US Highway 41","name":""},
  {"lat":26.248703,"lon":-80.086058,"city":"Pompano Beach","state":"FL","address":"1200 North Ocean Boulevard","name":""},
  {"lat":30.202697,"lon":-81.384846,"city":"Ponte Vedra Beach","state":"FL","address":"1000 Tournament Players Club Blvd","name":""},
  {"lat":26.792329,"lon":-80.034593,"city":"Riviera Beach","state":"FL","address":"3800 North Ocean Drive, Singer Island","name":""},
  {"lat":27.886045,"lon":-82.669883,"city":"St. Petersburg","state":"FL","address":"12600 Roosevelt Boulevard, North","name":""},
  {"lat":27.210682,"lon":-80.181961,"city":"Stuart","state":"FL","address":"555 NE Ocean Boulevard","name":""},
  {"lat":27.953375,"lon":-82.523888,"city":"Tampa","state":"FL","address":"1001 N Westshore Boulevard","name":""},
  {"lat":27.9813,"lon":-82.53469,"city":"Tampa","state":"FL","address":"Tampa International Airport, 4200 George J. Bean Parkway","name":""},
  {"lat":27.941092,"lon":-82.454321,"city":"Tampa","state":"FL","address":"505 Water Street","name":""},
  {"lat":26.707522,"lon":-80.063396,"city":"West Palm Beach","state":"FL","address":"1001 Okeechobee Boulevard","name":""},
  {"lat":34.089615,"lon":-84.258622,"city":"Alpharetta","state":"GA","address":"5750 Windward Parkway","name":""},
  {"lat":33.786627,"lon":-84.386088,"city":"Atlanta","state":"GA","address":"35 14th Street NE","name":""},
  {"lat":33.917832,"lon":-84.344424,"city":"Atlanta","state":"GA","address":"246 Perimeter Center Parkway NE","name":""},
  {"lat":33.77021,"lon":-84.38847,"city":"Atlanta","state":"GA","address":"590 West Peachtree Street NW","name":""},
  {"lat":33.761559,"lon":-84.385959,"city":"Atlanta","state":"GA","address":"265 Peachtree Center Avenue","name":""},
  {"lat":33.897232,"lon":-84.466538,"city":"Atlanta","state":"GA","address":"200 Interstate North Parkway SE","name":""},
  {"lat":33.644243,"lon":-84.455616,"city":"Atlanta","state":"GA","address":"2020 Convention Center Concourse","name":""},
  {"lat":33.6263,"lon":-84.460332,"city":"Atlanta","state":"GA","address":"4711 Best Road","name":""},
  {"lat":33.845203,"lon":-84.307757,"city":"Atlanta","state":"GA","address":"2000 Century Boulevard NE","name":""},
  {"lat":33.478719,"lon":-81.968643,"city":"Augusta","state":"GA","address":"2 Tenth Street","name":""},
  {"lat":32.462513,"lon":-84.994416,"city":"Columbus","state":"GA","address":"800 Front Avenue","name":""},
  {"lat":32.841899,"lon":-83.618181,"city":"Macon","state":"GA","address":"240 Coliseum Drive","name":""},
  {"lat":33.955616,"lon":-84.231314,"city":"Peachtree Corners","state":"GA","address":"475 Technology Parkway","name":""},
  {"lat":32.07841,"lon":-81.082371,"city":"Savannah","state":"GA","address":"100 General McIntosh Boulevard","name":""},
  {"lat":33.798902,"lon":-84.12995,"city":"Stone Mountain","state":"GA","address":"4021 Lakeview Drive","name":""},
  {"lat":33.81391,"lon":-84.142861,"city":"Stone Mountain","state":"GA","address":"1058 Robert E Lee Drive","name":""},
  {"lat":21.27349,"lon":-157.82251,"city":"Honolulu","state":"HI","address":"2552 Kalakaua Avenue","name":""},
  {"lat":19.91725,"lon":-155.884639,"city":"Waikoloa Beach","state":"HI","address":"69-275 Waikoloa Beach Drive","name":""},
  {"lat":20.687903,"lon":-156.442603,"city":"Wailea","state":"HI","address":"3700 Wailea Alanui Drive","name":""},
  {"lat":41.587359,"lon":-93.626683,"city":"Des Moines","state":"IA","address":"700 Grand Avenue","name":""},
  {"lat":41.589186,"lon":-93.80911,"city":"West Des Moines","state":"IA","address":"1250 Jordan Creek Parkway","name":""},
  {"lat":41.755224,"lon":-87.911071,"city":"Burr Ridge","state":"IL","address":"1200 Burr Ridge Parkway","name":""},
  {"lat":41.986812,"lon":-87.839812,"city":"Chicago","state":"IL","address":"8535 West Higgins Road","name":""},
  {"lat":41.892006,"lon":-87.62545,"city":"Chicago","state":"IL","address":"540 North Michigan Avenue, (Driveway Entrance on 541 North Rush Street)","name":""},
  {"lat":41.853156,"lon":-87.620462,"city":"Chicago","state":"IL","address":"2121 South Prairie Avenue","name":""},
  {"lat":41.774315,"lon":-87.742147,"city":"Chicago","state":"IL","address":"6520 South Cicero Avenue","name":""},
  {"lat":42.162571,"lon":-87.877697,"city":"Deerfield","state":"IL","address":"2 Parkway North","name":""},
  {"lat":42.069614,"lon":-88.194565,"city":"Hoffman Estates","state":"IL","address":"4800 Hoffman Boulevard","name":""},
  {"lat":42.194716,"lon":-87.928534,"city":"Lincolnshire","state":"IL","address":"Ten Marriott Drive","name":""},
  {"lat":41.802639,"lon":-88.119931,"city":"Naperville","state":"IL","address":"1801 North Naper Boulevard","name":""},
  {"lat":40.510214,"lon":-88.988816,"city":"Normal","state":"IL","address":"201 Broadway Avenue","name":""},
  {"lat":41.846374,"lon":-87.952204,"city":"Oak Brook","state":"IL","address":"1401 West 22nd Street","name":""},
  {"lat":40.693798,"lon":-89.592415,"city":"Peoria","state":"IL","address":"501 Main Street","name":""},
  {"lat":41.989145,"lon":-87.860166,"city":"Rosemont","state":"IL","address":"6155 North River Road","name":""},
  {"lat":42.030233,"lon":-88.031979,"city":"Schaumburg","state":"IL","address":"50 N Martingale Road","name":""},
  {"lat":39.917966,"lon":-86.105092,"city":"Indianapolis","state":"IN","address":"3645 River Crossing Parkway","name":""},
  {"lat":39.796391,"lon":-86.041689,"city":"Indianapolis","state":"IN","address":"7202 East 21st Street","name":""},
  {"lat":39.766515,"lon":-86.165249,"city":"Indianapolis","state":"IN","address":"350 West Maryland Street","name":""},
  {"lat":38.930359,"lon":-94.66906,"city":"Overland Park","state":"KS","address":"10800 Metcalf Avenue","name":""},
  {"lat":37.681863,"lon":-97.230086,"city":"Wichita","state":"KS","address":"9100 Corporate Hills Drive","name":""},
  {"lat":39.089572,"lon":-84.511829,"city":"Covington","state":"KY","address":"10 West RiverCenter Boulevard","name":""},
  {"lat":39.075519,"lon":-84.655185,"city":"Hebron","state":"KY","address":"2395 Progress Drive","name":""},
  {"lat":38.046233,"lon":-84.49817,"city":"Lexington","state":"KY","address":"121 West Vine Street","name":""},
  {"lat":38.093143,"lon":-84.487063,"city":"Lexington","state":"KY","address":"1800 Newtown Pike","name":""},
  {"lat":38.217884,"lon":-85.57563,"city":"Louisville","state":"KY","address":"1903 Embassy Square Boulevard","name":""},
  {"lat":38.25369,"lon":-85.755081,"city":"Louisville","state":"KY","address":"280 West Jefferson","name":""},
  {"lat":30.423541,"lon":-91.133718,"city":"Baton Rouge","state":"LA","address":"5500 Hilton Avenue","name":""},
  {"lat":30.018054,"lon":-90.155178,"city":"Metairie","state":"LA","address":"3838 N. Causeway Boulevard","name":""},
  {"lat":29.943883,"lon":-90.064759,"city":"New Orleans","state":"LA","address":"859 Convention Center Boulevard","name":""},
  {"lat":29.952439,"lon":-90.067737,"city":"New Orleans","state":"LA","address":"555 Canal Street","name":""},
  {"lat":42.347193,"lon":-71.079168,"city":"Boston","state":"MA","address":"110 Huntington Avenue","name":""},
  {"lat":42.359757,"lon":-71.050988,"city":"Boston","state":"MA","address":"296 State Street","name":""},
  {"lat":42.490513,"lon":-71.196698,"city":"Burlington","state":"MA","address":"One Burlington Mall Road","name":""},
  {"lat":42.363459,"lon":-71.086307,"city":"Cambridge","state":"MA","address":"50 Broadway","name":""},
  {"lat":42.346314,"lon":-71.258007,"city":"Newton","state":"MA","address":"2345 Commonwealth Avenue","name":""},
  {"lat":42.523862,"lon":-70.956855,"city":"Peabody","state":"MA","address":"8A Centennial Drive","name":""},
  {"lat":42.229419,"lon":-71.015609,"city":"Quincy","state":"MA","address":"1000 Marriott Drive","name":""},
  {"lat":42.101963,"lon":-72.591952,"city":"Springfield","state":"MA","address":"2 Boland Way","name":""},
  {"lat":39.286898,"lon":-76.621239,"city":"Baltimore","state":"MD","address":"110 South Eutaw Street","name":""},
  {"lat":39.283071,"lon":-76.602423,"city":"Baltimore","state":"MD","address":"700 Aliceanna Street","name":""},
  {"lat":39.01587,"lon":-77.103365,"city":"Bethesda","state":"MD","address":"5151 Pooks Hill Road","name":""},
  {"lat":38.987613,"lon":-77.095332,"city":"Bethesda","state":"MD","address":"7707 Woodmont Avenue","name":""},
  {"lat":39.115491,"lon":-77.194907,"city":"Gaithersburg","state":"MD","address":"9751 Washingtonian Boulevard","name":""},
  {"lat":38.987649,"lon":-76.954328,"city":"Hyattsville","state":"MD","address":"3501 University Blvd East","name":""},
  {"lat":39.197687,"lon":-76.683709,"city":"Linthicum Heights","state":"MD","address":"1743 West Nursery Road","name":""},
  {"lat":39.405316,"lon":-76.780203,"city":"Owings Mills","state":"MD","address":"10101 Grand Central Avenue","name":""},
  {"lat":39.047216,"lon":-77.115019,"city":"Rockville","state":"MD","address":"5701 Marinelli Road","name":""},
  {"lat":42.648223,"lon":-83.243981,"city":"Auburn Hills","state":"MI","address":"2300 Featherstone Road","name":""},
  {"lat":42.328537,"lon":-83.040751,"city":"Detroit","state":"MI","address":"Renaissance Center, 400 Renaissance Drive","name":""},
  {"lat":42.736135,"lon":-84.480759,"city":"East Lansing","state":"MI","address":"300 M.A.C. Avenue","name":""},
  {"lat":42.412681,"lon":-83.417655,"city":"Livonia","state":"MI","address":"17100 Laurel Park Drive North","name":""},
  {"lat":42.606484,"lon":-83.251011,"city":"Pontiac","state":"MI","address":"3600 Centerpoint Parkway","name":""},
  {"lat":42.2431,"lon":-83.3397,"city":"Romulus","state":"MI","address":"30559 Flynn Drive","name":""},
  {"lat":42.485102,"lon":-83.276125,"city":"Southfield","state":"MI","address":"27033 Northwestern Highway","name":""},
  {"lat":42.563009,"lon":-83.151596,"city":"Troy","state":"MI","address":"200 W. Big Beaver Rd.","name":""},
  {"lat":42.224952,"lon":-83.612925,"city":"Ypsilanti","state":"MI","address":"1275 S Huron Street","name":""},
  {"lat":45.081612,"lon":-93.394638,"city":"Brooklyn Park","state":"MN","address":"7025 Northland Drive North","name":""},
  {"lat":44.97752,"lon":-93.273425,"city":"Minneapolis","state":"MN","address":"30 South 7th Street","name":""},
  {"lat":44.898884,"lon":-93.407003,"city":"Minnetonka","state":"MN","address":"5801 Opus Parkway","name":""},
  {"lat":44.022389,"lon":-92.464376,"city":"Rochester","state":"MN","address":"101 First Avenue SW","name":""},
  {"lat":44.974572,"lon":-93.408858,"city":"St. Louis Park","state":"MN","address":"9960 Wayzata Boulevard","name":""},
  {"lat":39.046952,"lon":-94.586625,"city":"Kansas City","state":"MO","address":"4445 Main Street","name":""},
  {"lat":39.100057,"lon":-94.585573,"city":"Kansas City","state":"MO","address":"200 West 12th Street","name":""},
  {"lat":39.311697,"lon":-94.71478,"city":"Kansas City","state":"MO","address":"775 Brasilia Avenue","name":""},
  {"lat":38.64166,"lon":-90.496638,"city":"St. Louis","state":"MO","address":"660 Maryville Centre Drive","name":""},
  {"lat":38.630485,"lon":-90.191768,"city":"St. Louis","state":"MO","address":"800 Washington Avenue","name":""},
  {"lat":38.738421,"lon":-90.368525,"city":"St. Louis","state":"MO","address":"10700 Pear Tree Lane","name":""},
  {"lat":35.157458,"lon":-80.830598,"city":"Charlotte","state":"NC","address":"2200 Rexford Road","name":""},
  {"lat":35.309077,"lon":-80.743448,"city":"Charlotte","state":"NC","address":"9041 Robert D Snyder Road","name":""},
  {"lat":35.228016,"lon":-80.844047,"city":"Charlotte","state":"NC","address":"100 West Trade Street","name":""},
  {"lat":35.893735,"lon":-78.846948,"city":"Durham","state":"NC","address":"4700 Guardian Drive","name":""},
  {"lat":35.996962,"lon":-78.901635,"city":"Durham","state":"NC","address":"201 Foster Street","name":""},
  {"lat":36.076255,"lon":-79.791193,"city":"Greensboro","state":"NC","address":"304 North Greene Street","name":""},
  {"lat":36.10895,"lon":-79.940608,"city":"Greensboro","state":"NC","address":"One Marriott Drive","name":""},
  {"lat":35.842231,"lon":-78.678651,"city":"Raleigh","state":"NC","address":"4500 Marriott Drive","name":""},
  {"lat":35.773075,"lon":-78.640324,"city":"Raleigh","state":"NC","address":"500 Fayetteville Street","name":""},
  {"lat":36.098929,"lon":-80.247075,"city":"Winston-Salem","state":"NC","address":"425 North Cherry Street","name":""},
  {"lat":40.81097,"lon":-96.70264,"city":"Lincoln","state":"NE","address":"333 South 13th Street","name":""},
  {"lat":41.260383,"lon":-95.929128,"city":"Omaha","state":"NE","address":"222 North 10th Street","name":""},
  {"lat":41.260737,"lon":-96.072358,"city":"Omaha","state":"NE","address":"10220 Regency Circle","name":""},
  {"lat":42.485589,"lon":-96.409178,"city":"South Sioux City","state":"NE","address":"385 East 4th Street","name":""},
  {"lat":40.584481,"lon":-74.613149,"city":"Bridgewater","state":"NJ","address":"700 Commons Way","name":""},
  {"lat":40.691846,"lon":-74.180175,"city":"Newark","state":"NJ","address":"Newark Liberty International Airport, 1 Hotel Road","name":""},
  {"lat":41.044157,"lon":-74.063263,"city":"Park Ridge","state":"NJ","address":"300 Brae Boulevard","name":""},
  {"lat":40.355577,"lon":-74.599372,"city":"Princeton","state":"NJ","address":"100 College Road East","name":""},
  {"lat":40.904417,"lon":-74.101388,"city":"Saddle Brook","state":"NJ","address":"138 New Pehle Avenue","name":""},
  {"lat":40.872542,"lon":-74.006916,"city":"Teaneck","state":"NJ","address":"100 Frank W Burr Boulevard","name":""},
  {"lat":40.836639,"lon":-74.449294,"city":"Whippany","state":"NJ","address":"1401 Rt 10 E","name":""},
  {"lat":35.167353,"lon":-106.588524,"city":"Albuquerque","state":"NM","address":"5151 San Francisco Road NE","name":""},
  {"lat":35.099331,"lon":-106.568887,"city":"Albuquerque","state":"NM","address":"2101 Louisiana Boulevard NE","name":""},
  {"lat":36.132298,"lon":-115.1577,"city":"Las Vegas","state":"NV","address":"325 Convention Center Drive","name":""},
  {"lat":42.721062,"lon":-73.800292,"city":"Albany","state":"NY","address":"189 Wolf Road","name":""},
  {"lat":42.987862,"lon":-78.791218,"city":"Amherst","state":"NY","address":"1340 Millersport Highway","name":""},
  {"lat":40.693024,"lon":-73.9887,"city":"Brooklyn","state":"NY","address":"333 Adams Street","name":""},
  {"lat":42.876968,"lon":-78.877005,"city":"Buffalo","state":"NY","address":"95 Main Street","name":""},
  {"lat":40.768931,"lon":-73.868373,"city":"East Elmhurst","state":"NY","address":"102-05 Ditmars Boulevard","name":""},
  {"lat":42.4392,"lon":-76.4957,"city":"Ithaca","state":"NY","address":"120 South Aurora Street","name":""},
  {"lat":40.667572,"lon":-73.796833,"city":"Jamaica","state":"NY","address":"135-25 142nd Street","name":""},
  {"lat":40.783865,"lon":-73.422266,"city":"Melville","state":"NY","address":"1350 Walt Whitman Road","name":""},
  {"lat":40.709734,"lon":-74.014737,"city":"New York City","state":"NY","address":"85 West Street at Albany Street","name":""},
  {"lat":40.758855,"lon":-73.985869,"city":"New York City","state":"NY","address":"1535 Broadway","name":""},
  {"lat":43.207842,"lon":-77.67776,"city":"Rochester","state":"NY","address":"1890 Ridge Road West","name":""},
  {"lat":43.045194,"lon":-76.151048,"city":"Syracuse","state":"NY","address":"100 East Onondaga Street","name":""},
  {"lat":41.060638,"lon":-73.832501,"city":"Tarrytown","state":"NY","address":"670 White Plains Road","name":""},
  {"lat":40.723662,"lon":-73.586924,"city":"Uniondale","state":"NY","address":"101 James Doolittle Boulevard","name":""},
  {"lat":41.501659,"lon":-81.69377,"city":"Cleveland","state":"OH","address":"1360 West Mall Drive","name":""},
  {"lat":40.023053,"lon":-83.025092,"city":"Columbus","state":"OH","address":"3100 Olentangy River Road","name":""},
  {"lat":39.997984,"lon":-82.930197,"city":"Columbus","state":"OH","address":"1375 N Cassady Avenue","name":""},
  {"lat":39.96137,"lon":-83.00181,"city":"Columbus","state":"OH","address":"50 South Front Street","name":""},
  {"lat":39.736637,"lon":-84.191657,"city":"Dayton","state":"OH","address":"1414 South Patterson Boulevard","name":""},
  {"lat":40.079056,"lon":-83.131582,"city":"Dublin","state":"OH","address":"5605 Blazer Pkwy","name":""},
  {"lat":39.297285,"lon":-84.314162,"city":"Mason","state":"OH","address":"9664 S Mason Montgomery Road","name":""},
  {"lat":41.449074,"lon":-81.49437,"city":"Warrensville Heights","state":"OH","address":"26300 Harvard Road","name":""},
  {"lat":39.325081,"lon":-84.426459,"city":"West Chester","state":"OH","address":"6189 Muhlhauser Road","name":""},
  {"lat":36.060674,"lon":-95.96452,"city":"Tulsa","state":"OK","address":"1902 East 71st Street","name":""},
  {"lat":45.520019,"lon":-122.678998,"city":"Portland","state":"OR","address":"520 SW Broadway","name":""},
  {"lat":45.512501,"lon":-122.675553,"city":"Portland","state":"OR","address":"1401 SW Naito Parkway","name":""},
  {"lat":40.458994,"lon":-80.192548,"city":"Coraopolis","state":"PA","address":"777 Aten Road","name":""},
  {"lat":40.684242,"lon":-80.088637,"city":"Cranberry Township","state":"PA","address":"100 Cranberry Woods Drive","name":""},
  {"lat":40.038009,"lon":-76.305501,"city":"Lancaster","state":"PA","address":"25 South Queen Street","name":""},
  {"lat":39.952873,"lon":-75.160139,"city":"Philadelphia","state":"PA","address":"1201 Market Street, (guest entrance at 1200 Filbert Street).","name":""},
  {"lat":39.877928,"lon":-75.244977,"city":"Philadelphia","state":"PA","address":"One Arrivals Road, Terminal B","name":""},
  {"lat":39.94641,"lon":-75.143368,"city":"Philadelphia","state":"PA","address":"One Dock Street","name":""},
  {"lat":40.439757,"lon":-79.991228,"city":"Pittsburgh","state":"PA","address":"112 Washington Place","name":""},
  {"lat":40.068113,"lon":-75.310451,"city":"West Conshohocken","state":"PA","address":"111 Crawford Avenue","name":""},
  {"lat":41.490691,"lon":-71.317168,"city":"Newport","state":"RI","address":"25 America's Cup Avenue","name":""},
  {"lat":41.834905,"lon":-71.411574,"city":"Providence","state":"RI","address":"1 Orms Street","name":""},
  {"lat":32.787695,"lon":-79.95868,"city":"Charleston","state":"SC","address":"170 Lockwood Boulevard","name":""},
  {"lat":34.004635,"lon":-81.034954,"city":"Columbia","state":"SC","address":"1200 Hampton Street","name":""},
  {"lat":34.865039,"lon":-82.259479,"city":"Greenville","state":"SC","address":"One Parkway East","name":""},
  {"lat":33.74835,"lon":-78.807925,"city":"Myrtle Beach","state":"SC","address":"8400 Costa Verde Drive","name":""},
  {"lat":32.872094,"lon":-80.009941,"city":"North Charleston","state":"SC","address":"4770 Goer Drive","name":""},
  {"lat":34.953512,"lon":-81.933442,"city":"Spartanburg","state":"SC","address":"299 North Church Street","name":""},
  {"lat":35.043726,"lon":-85.312544,"city":"Chattanooga","state":"TN","address":"Two Carter Plaza","name":""},
  {"lat":35.946618,"lon":-86.80838,"city":"Franklin","state":"TN","address":"700 Cool Springs Blvd.","name":""},
  {"lat":36.508946,"lon":-82.568114,"city":"Kingsport","state":"TN","address":"1901 Meadowview Parkway","name":""},
  {"lat":35.96288,"lon":-83.922676,"city":"Knoxville","state":"TN","address":"525 Henley Street","name":""},
  {"lat":35.102573,"lon":-89.868782,"city":"Memphis","state":"TN","address":"5795 Poplar Avenue","name":""},
  {"lat":36.153676,"lon":-86.690119,"city":"Nashville","state":"TN","address":"2200 Elm Hill Pike","name":""},
  {"lat":36.14543,"lon":-86.809673,"city":"Nashville","state":"TN","address":"2555 West End Avenue","name":""},
  {"lat":33.092236,"lon":-96.683042,"city":"Allen","state":"TX","address":"777 Watters Creek Boulevard","name":""},
  {"lat":30.262967,"lon":-97.741883,"city":"Austin","state":"TX","address":"304 East Cesar Chavez Street","name":""},
  {"lat":30.210661,"lon":-97.753489,"city":"Austin","state":"TX","address":"4415 South IH-35","name":""},
  {"lat":32.951725,"lon":-96.823307,"city":"Dallas","state":"TX","address":"14901 Dallas Parkway","name":""},
  {"lat":32.804649,"lon":-96.836995,"city":"Dallas","state":"TX","address":"2493 North Stemmons Freeway","name":""},
  {"lat":32.786342,"lon":-96.795525,"city":"Dallas","state":"TX","address":"650 North Pearl Street","name":""},
  {"lat":32.799303,"lon":-96.807214,"city":"Dallas","state":"TX","address":"3033 Fairmount Street","name":""},
  {"lat":31.790327,"lon":-106.39551,"city":"El Paso","state":"TX","address":"1600 Airway Blvd","name":""},
  {"lat":32.823526,"lon":-97.055909,"city":"Fort Worth","state":"TX","address":"4151 Centreport Drive","name":""},
  {"lat":33.019091,"lon":-97.288516,"city":"Fort Worth","state":"TX","address":"3300 Championship Parkway","name":""},
  {"lat":29.784497,"lon":-95.662947,"city":"Houston","state":"TX","address":"16011 Katy Freeway","name":""},
  {"lat":29.734412,"lon":-95.548862,"city":"Houston","state":"TX","address":"2900 Briarpark Dr.","name":""},
  {"lat":29.709832,"lon":-95.401041,"city":"Houston","state":"TX","address":"6580 Fannin Street, (Driveway Entrance on 1730 Dryden Road)","name":""},
  {"lat":29.754444,"lon":-95.358122,"city":"Houston","state":"TX","address":"1777 Walker Street","name":""},
  {"lat":29.941502,"lon":-95.40272,"city":"Houston","state":"TX","address":"255 N Sam Houston Pkwy East","name":""},
  {"lat":29.657071,"lon":-95.254856,"city":"Houston","state":"TX","address":"9100 Gulf Freeway","name":""},
  {"lat":29.749668,"lon":-95.456443,"city":"Houston","state":"TX","address":"1750 West Loop South","name":""},
  {"lat":29.986463,"lon":-95.341484,"city":"Houston","state":"TX","address":"18700 John F. Kennedy Blvd.","name":""},
  {"lat":32.922128,"lon":-97.018926,"city":"Irving","state":"TX","address":"8440 Freeport Parkway","name":""},
  {"lat":32.870996,"lon":-96.94205,"city":"Irving","state":"TX","address":"223 West Las Colinas Boulevard","name":""},
  {"lat":31.849456,"lon":-102.367906,"city":"Odessa","state":"TX","address":"305 East 5th Street","name":""},
  {"lat":33.075782,"lon":-96.824024,"city":"Plano","state":"TX","address":"7121 Bishop Road","name":""},
  {"lat":30.484418,"lon":-97.686861,"city":"Round Rock","state":"TX","address":"2600 La Frontera Boulevard","name":""},
  {"lat":29.521389,"lon":-98.48863,"city":"San Antonio","state":"TX","address":"77 NE Interstate 410 Loop","name":""},
  {"lat":29.4226,"lon":-98.4845,"city":"San Antonio","state":"TX","address":"889 East Market Street","name":""},
  {"lat":29.505722,"lon":-98.54698,"city":"San Antonio","state":"TX","address":"3233 NW Loop 410","name":""},
  {"lat":29.423102,"lon":-98.483684,"city":"San Antonio","state":"TX","address":"101 Bowie Street","name":""},
  {"lat":30.09821,"lon":-95.44099,"city":"Spring","state":"TX","address":"1200 Lake Plaza Drive","name":""},
  {"lat":29.596238,"lon":-95.621952,"city":"Sugar Land","state":"TX","address":"16090 City Walk","name":""},
  {"lat":30.161274,"lon":-95.458862,"city":"The Woodlands","state":"TX","address":"1601 Lake Robbins Drive","name":""},
  {"lat":32.979702,"lon":-97.168552,"city":"Westlake","state":"TX","address":"1301 Solana Boulevard, Building 3","name":""},
  {"lat":40.235091,"lon":-111.660506,"city":"Provo","state":"UT","address":"101 West 100 North","name":""},
  {"lat":40.758696,"lon":-111.829301,"city":"Salt Lake City","state":"UT","address":"480 Wakara Way","name":""},
  {"lat":40.767678,"lon":-111.893955,"city":"Salt Lake City","state":"UT","address":"75 South West Temple","name":""},
  {"lat":40.764546,"lon":-111.888204,"city":"Salt Lake City","state":"UT","address":"220 South State Street","name":""},
  {"lat":38.858631,"lon":-77.053041,"city":"Arlington","state":"VA","address":"1700 Richmond Highway","name":""},
  {"lat":38.874395,"lon":-77.45615,"city":"Chantilly","state":"VA","address":"14750 Conference Center Drive","name":""},
  {"lat":38.959098,"lon":-77.448125,"city":"Dulles","state":"VA","address":"45020 Aviation Drive","name":""},
  {"lat":38.863595,"lon":-77.353545,"city":"Fairfax","state":"VA","address":"11787 Route 50","name":""},
  {"lat":38.861839,"lon":-77.216379,"city":"Falls Church","state":"VA","address":"3111 Fairview Park Drive","name":""},
  {"lat":37.651767,"lon":-77.587456,"city":"Glen Allen","state":"VA","address":"4240 Dominion Boulevard","name":""},
  {"lat":38.957873,"lon":-77.402508,"city":"Herndon","state":"VA","address":"13101 Worldgate Drive","name":""},
  {"lat":38.821991,"lon":-78.055412,"city":"Hume","state":"VA","address":"5305 Marriott Lane","name":""},
  {"lat":37.086918,"lon":-76.472104,"city":"Newport News","state":"VA","address":"740 Town Center Drive","name":""},
  {"lat":36.846019,"lon":-76.291143,"city":"Norfolk","state":"VA","address":"235 East Main Street","name":""},
  {"lat":37.543023,"lon":-77.437434,"city":"Richmond","state":"VA","address":"500 East Broad Street","name":""},
  {"lat":38.913435,"lon":-77.222645,"city":"Tysons Corner","state":"VA","address":"8028 Leesburg Pike","name":""},
  {"lat":36.870035,"lon":-75.981532,"city":"Virginia Beach","state":"VA","address":"4201 Atlantic Avenue","name":""},
  {"lat":47.612745,"lon":-122.193409,"city":"Bellevue","state":"WA","address":"200 110th Avenue NE","name":""},
  {"lat":47.671,"lon":-122.121716,"city":"Redmond","state":"WA","address":"7401 164th Avenue NE","name":""},
  {"lat":47.610871,"lon":-122.3473,"city":"Seattle","state":"WA","address":"2100 Alaskan Way","name":""},
  {"lat":47.445298,"lon":-122.29201,"city":"Seattle","state":"WA","address":"3201 South 176th Street","name":""},
  {"lat":47.24832,"lon":-122.43931,"city":"Tacoma","state":"WA","address":"1538 Commerce Street","name":""},
  {"lat":43.047238,"lon":-89.374548,"city":"Madison","state":"WI","address":"706 John Nolen Drive","name":""},
  {"lat":43.087166,"lon":-89.524546,"city":"Middleton","state":"WI","address":"1313 John Q Hammons Drive","name":""},
  {"lat":43.037603,"lon":-87.906441,"city":"Milwaukee","state":"WI","address":"625 N Milwaukee Street","name":""},
  {"lat":44.014446,"lon":-88.538034,"city":"Oshkosh","state":"WI","address":"1 North Main Street","name":""},
  {"lat":43.051789,"lon":-88.207365,"city":"Waukesha","state":"WI","address":"W231N1600 Corporate Ct","name":""},
  {"lat":38.355625,"lon":-81.637925,"city":"Charleston","state":"WV","address":"200 Lee Street East","name":""},
  {"lat":39.624403,"lon":-79.963449,"city":"Morgantown","state":"WV","address":"Two Waterfront Place","name":""}]}