{"key":"mary_browns","displayName":"Mary Brown's","category":"restaurant","useLocationName":false,"locations":[{"lat":43.695871,"lon":-79.54493,"city":"Etobicoke","state":"ON","address":"245 Dixon Road Unit 103, Etobicoke, ON","name":""},{"lat":45.04441,"lon":-79.31753,"city":"Bracebridge","state":"ON","address":"216 Manitoba Street, Bracebridge, ON P1L 2E1","name":""},{"lat":49.9993,"lon":-110.65228,"city":"Medicine Hat","state":"AB","address":"1751 Strachan Rd SE, Medicine Hat, AB T1B 4R2","name":""},{"lat":54.12325,"lon":-108.45067,"city":"Meadow","state":"SK","address":"720 9th Street, Meadow Lake, SK S0M 2M0","name":""},{"lat":45.425583,"lon":-76.364815,"city":"Arnprior","state":"ON","address":"245 Daniel St S, Arnprior, ON K7S 3K5","name":""},{"lat":50.927199,"lon":-114.029205,"city":"Calgary","state":"AB","address":"1133 137 Ave SE, Unit #2, Calgary, AB T2J 6Y5","name":""},{"lat":42.982632,"lon":-79.251259,"city":"Welland","state":"ON","address":"425 King Street, Welland, ON L3B 3K4","name":""},{"lat":49.220847,"lon":-122.977038,"city":"Burnaby","state":"BC","address":"5902 Kingsway, Burnaby, BC V5J 1H2","name":""},{"lat":42.784966,"lon":-80.980522,"city":"Aylmer","state":"ON","address":"25 Progress Dr, Unit 10, Aylmer ON, N5H 0B4","name":""},{"lat":43.6477,"lon":-79.39553,"city":"On M5v 1x3","state":"ON","address":"141 Spadina Avenue. Toronto, ON M5V 1X3","name":""},{"lat":52.247844,"lon":-113.812686,"city":"On T4r 1s2","state":"AB","address":"4925 30 Street. Red Deer, ON T4R 1S2","name":""},{"lat":42.180009,"lon":-82.827819,"city":"Essex","state":"ON","address":"245 Talbot Road North. Essex, Ontario N8M 2W4","name":""},{"lat":51.09543,"lon":-114.140157,"city":"Calgary","state":"AB","address":"4820 Northland Drive NW, Unit 105 Calgary, AB T2L 2L3","name":""},{"lat":42.309511,"lon":-82.965427,"city":"On N8t 1c1","state":"ON","address":"5050 Tecumseh Road East Unit 6 Windsor, ON N8T 1C1","name":""},{"lat":44.646194,"lon":-63.594228,"city":"Halifax NS B3L 1A3","state":"NS","address":"6140 Quinpool Road, Halifax NS B3L 1A3","name":""},{"lat":49.422178,"lon":-82.47482,"city":"On P5n 1l6","state":"ON","address":"350 Government Road West Unit 4 Kapuskasing, ON P5N 1L6","name":""},{"lat":45.132253,"lon":-76.121554,"city":"On K7c 0c4","state":"ON","address":"10432 Highway 7 Unit 45 Carleton Place, ON K7C 0C4","name":""},{"lat":43.962971,"lon":-78.903202,"city":"Oshawa","state":"ON","address":"2575 Thoroughbred St, Oshawa, ON L1L 0E7","name":""},{"lat":44.600023,"lon":-75.706413,"city":"On K6v 3g7","state":"ON","address":"3027 Parkedale Ave Brockville, ON K6V 3G7","name":""},{"lat":46.53538,"lon":-84.322309,"city":"Sault Ste. Marie","state":"ON","address":"248 Northern Ave E Unit 1, Sault Ste. Marie, ON P6B 4H6","name":""},{"lat":44.258822,"lon":-76.962628,"city":"Napanee Ontario K7R 1P8","state":"ON","address":"450 Centre Street North, Napanee Ontario K7R 1P8","name":""},{"lat":43.008415,"lon":-81.337433,"city":"London","state":"ON","address":"1960 Hyde Park Road, Unit 2, London, ON N6H 5L9","name":""},{"lat":53.510873,"lon":-113.30287,"city":"Sherwood Park","state":"AB","address":"#410, 115 Tisbury Street, Sherwood Park, AB T8B 0E6","name":""},{"lat":43.370756,"lon":-80.944916,"city":"Stratford","state":"ON","address":"1067 Ontario Street, Stratford, ON N5A 6W6","name":""},{"lat":49.698851,"lon":-124.987331,"city":"Bc V9n 3r6","state":"BC","address":"789 Ryan Rd. Courtenay, BC V9N 3R6","name":""},{"lat":46.142791,"lon":-60.167438,"city":"Sydney","state":"NS","address":"224 Welton Street, Sydney, NS B1P 5S1","name":""},{"lat":52.171208,"lon":-106.55729,"city":"Saskatoon","state":"SK","address":"175-1236 Baltzan Boulevard, Saskatoon, SK S7W 1E8","name":""},{"lat":46.569409,"lon":-81.183871,"city":"Greater Sudbury","state":"ON","address":"4764 Regional Road 15, Unit #3, Greater Sudbury, ON P0M 1L0","name":""},{"lat":44.130228,"lon":-77.580459,"city":"Quinte West","state":"ON","address":"33 Monogram Place, Quinte West, ON K8V 5P8","name":""},{"lat":48.441217,"lon":-123.468847,"city":"Victoria","state":"BC","address":"120-1901 Sooke Road, Victoria, BC 1901 Sooke Road, 120, V9B1V8, Victoria, BC","name":""},{"lat":49.262556,"lon":-123.071067,"city":"Vancouver","state":"BC","address":"1653 E Broadway, Vancouver, BC V5N 1V9","name":""},{"lat":51.09705,"lon":-113.95599,"city":"Calgary","state":"AB","address":"5475 Falsbridge Drive NE, Calgary, AB T3J 3E8","name":""},{"lat":42.31227,"lon":-82.86804,"city":"Tecumseh","state":"ON","address":"13430 Tecumseh Rd E, Tecumseh, ON N8N 2L9","name":""},{"lat":44.100649,"lon":-78.940035,"city":"Port Perry","state":"ON","address":"1866 Scugog St, Port Perry, ON L9L 1J3","name":""},{"lat":45.430025,"lon":-75.682112,"city":"On K1n 5z1","state":"ON","address":"400 Rideau St. Ottawa, ON K1N 5Z1","name":""},{"lat":44.368418,"lon":-79.664713,"city":"Barrie","state":"ON","address":"367 Yonge Street, Barrie, ON L4N 4C9","name":""},{"lat":43.790545,"lon":-79.760208,"city":"Brampton","state":"ON","address":"5981 Mayfield Road, Brampton, ON L6R 0A8","name":""},{"lat":52.953615,"lon":-113.390246,"city":"Wetaskiwin","state":"AB","address":"3610 56 Street, Wetaskiwin, AB T9A 3T5","name":""},{"lat":42.25987,"lon":-82.966832,"city":"Windsor","state":"ON","address":"4140 Walker Rd - Building 400 Unit #3, Windsor, ON N8W 3T5","name":""},{"lat":45.989161,"lon":-66.651831,"city":"Fredericton","state":"NB","address":"1050 F Douglas Avenue, Fredericton, NB E3A 9N2","name":""},{"lat":44.58306,"lon":-80.907915,"city":"Owen Sound","state":"ON","address":"1660 20th Avenue East, Owen Sound, ON N0H 1V0","name":""},{"lat":43.608921,"lon":-79.696601,"city":"Mississauga","state":"ON","address":"5955 Latimer Dr #11, Mississauga, ON L5V 0B7","name":""},{"lat":42.33355,"lon":-82.93668,"city":"Windsor","state":"ON","address":"8480 Wyandotte St E, Windsor ON N8S 1T6","name":""},{"lat":43.42537,"lon":-80.5112,"city":"Kitchener ON N2A2Y4","state":"ON","address":"1601 River Road East #30B, Kitchener ON N2A2Y4","name":""},{"lat":45.391007,"lon":-75.755784,"city":"Ottawa K2A 0E8","state":"ON","address":"386 Richmond Road, Ottawa K2A 0E8","name":""},{"lat":51.166129,"lon":-114.127158,"city":"Calgary","state":"AB","address":"Unit 136, 11988 Symons Valley Road NW, Calgary, AB, T3P 0A3","name":""},{"lat":43.507479,"lon":-79.836186,"city":"Milton","state":"ON","address":"9050 Louie St Laurent Ave unit E2 Milton ON L9E1X7","name":""},{"lat":49.13854,"lon":-122.84525,"city":"Surrey","state":"BC","address":"330-7488 King George Boulevard, Surrey, BC V3W 0H9","name":""},{"lat":46.613056,"lon":-81.006299,"city":"Val Caron","state":"ON","address":"3140 Old Highway 69","name":""},{"lat":49.15069,"lon":-122.65708,"city":"Bc Y2y 2a9","state":"BC","address":"B100 8045 204 Street Langey, BC Y2Y 2A9","name":""},{"lat":43.686052,"lon":-79.403589,"city":"Toronto","state":"ON","address":"2151 St Clair Ave W, Toronto, ON M6N 1K5","name":""},{"lat":53.57987,"lon":-116.44411,"city":"Edson","state":"AB","address":"5510 4 Ave, Edson, AB T7E 1L6","name":""},{"lat":44.09159,"lon":-79.13169,"city":"Uxbridge","state":"ON","address":"2 Douglas Rd, Uxbridge, ON L9P 1S9","name":""},{"lat":43.642037,"lon":-79.431329,"city":"On M6k1l4","state":"ON","address":"1320 Queen Street West. Toronto, ON M6K1L4","name":""},{"lat":50.93415,"lon":-113.963054,"city":"Calgary","state":"AB","address":"4916 130 Ave SE, Unit 234, Calgary, AB T2Z 0B2","name":""},{"lat":43.970731,"lon":-78.19644,"city":"Cobourg","state":"ON","address":"1025 Elgin St W, Cobourg, ON K9A 5W4","name":""},{"lat":48.381103,"lon":-89.311831,"city":"On P7e 5s2","state":"ON","address":"1-1105 Arthur St. W Thunder Bay, ON P7E 5S2","name":""},{"lat":45.370092,"lon":-63.303605,"city":"Ns B2n5n6","state":"NS","address":"221 Robie Street. Truro, NS B2N5N6","name":""},{"lat":43.148952,"lon":-79.214807,"city":"On L2p1n6","state":"ON","address":"163 Hartzel Road. St. Catharine's, ON L2P1N6","name":""},{"lat":49.051488,"lon":-122.330416,"city":"Bc V2t1w9","state":"BC","address":"32260 South Fraser Way. Abbotsford, BC V2T1W9","name":""},{"lat":43.20988,"lon":-79.888719,"city":"On L9b1k2","state":"ON","address":"1379 Upper James Street Unit #1. Hamilton, ON L9B1K2","name":""},{"lat":45.375123,"lon":-75.665332,"city":"On K1v7z4","state":"ON","address":"1701 Bank Street. Ottawa, ON K1V7Z4","name":""},{"lat":51.146598,"lon":-113.966591,"city":"Calgary","state":"AB","address":"10474 Cityscape Drive NE, Calgary AB, T3N 1B4","name":""},{"lat":43.527278,"lon":-79.866193,"city":"On L9t 0j4","state":"ON","address":"870 Main Street East. Milton, ON L9T 0J4","name":""},{"lat":45.281091,"lon":-75.910116,"city":"On K2s 1e6","state":"ON","address":"28 Iber Road Ottawa, ON K2S 1E6","name":""},{"lat":43.249772,"lon":-79.809053,"city":"On L8h2v9","state":"ON","address":"1262 Barton St E. Hamilton, ON L8H2V9","name":""},{"lat":51.056477,"lon":-114.086343,"city":"Ab T2n 1w1","state":"AB","address":"425 10 ST NW CALGARY, AB T2N 1W1","name":""},{"lat":44.751403,"lon":-63.642643,"city":"Ns B4a 0c2","state":"NS","address":"105 Damascus Road Bedford, NS B4A 0C2","name":""},{"lat":43.217776,"lon":-79.861512,"city":"Hamilton ON L9A 4X5","state":"ON","address":"999 Upper Wentworth Street, Hamilton ON L9A 4X5","name":""},{"lat":49.105412,"lon":-121.964177,"city":"Bc V2r 2m3","state":"BC","address":"106 - 45655 Tamihi Way. Chilliwack, BC V2R 2M3","name":""},{"lat":49.219922,"lon":-122.671977,"city":"Bc V3y 2w1","state":"BC","address":"941 - 19800 Lougheed Hwy. Pitt Meadows, BC V3Y 2W1","name":""},{"lat":43.92925,"lon":-80.100433,"city":"On L9w 3j6","state":"ON","address":"92 First St. Orangeville, ON L9W 3J6","name":""},{"lat":50.986205,"lon":-114.070426,"city":"Calgary","state":"AB","address":"7516 Macleod Trail Calgary T2H 0L9","name":""},{"lat":48.448677,"lon":-123.42665,"city":"Bc V9a 7m8","state":"BC","address":"100 Aldersmith Pl - Unit C5. Victoria, BC V9A 7M8","name":""},{"lat":43.664569,"lon":-79.414637,"city":"On M6g 1k7","state":"ON","address":"636 Bloor Street West Toronto, ON M6G 1K7","name":""},{"lat":43.84274,"lon":-79.027292,"city":"On L1s3v4","state":"ON","address":"250 Bayly St. W Unit 1A. Ajax, ON L1S3V4","name":""},{"lat":47.573124,"lon":-52.735316,"city":"University Center","state":"NL","address":"1 Artic Ave, University Center, UC3012C, St. John\u2019s, NL. A1C 5S7","name":""},{"lat":42.779217,"lon":-81.174539,"city":"St. Thomas ON N5P 3R6","state":"ON","address":"1025 Talbot St, St Thomas ON N5P 3R6","name":""},{"lat":43.60962,"lon":-79.586533,"city":"On L4y 2a6","state":"ON","address":"3100 Dixie Rd Unit C1 Mississauga, ON L4Y 2A6","name":""},{"lat":53.452418,"lon":-113.48393,"city":"Ab T6n 1k7","state":"AB","address":"2121 98 St NW Edmonton, AB T6N 1K7","name":""},{"lat":44.08486,"lon":-80.185263,"city":"On L9v 3x9","state":"ON","address":"804 Ojibway Road Unit 5 Shelburne, ON L9V 3X9","name":""},{"lat":49.217543,"lon":-122.592292,"city":"Mapleridge","state":"BC","address":"470-22709 Lougheed Hwy, Mapleridge BC, V2X 2V5","name":""},{"lat":45.469315,"lon":-75.491203,"city":"On K1e 3p6","state":"QC","address":"Fallingbrook Centre 1675 Tenth Line Rd Rockland, ON K1E 3P6","name":""},{"lat":43.91068,"lon":-78.7872,"city":"On L1e 2r6","state":"ON","address":"1635 Durham Regional Highway 2 Courtice, ON L1E 2R6","name":""},{"lat":45.834201,"lon":-66.490576,"city":"Nb E2v 4r3","state":"NB","address":"9 Gateway Drive Oromocto, NB E2V 4R3","name":""},{"lat":49.23269,"lon":-124.045514,"city":"Bc V9t 2l9","state":"BC","address":"6461 Metral Drive Unit 104. Nanaimo, BC V9T 2L9","name":""},{"lat":45.280788,"lon":-75.864883,"city":"On K2m 0n2","state":"ON","address":"782 Eagleson Rd. Unit D1 Ottawa, ON K2M 0N2","name":""},{"lat":43.50453,"lon":-80.536323,"city":"N2v0c7","state":"ON","address":"622 King St North. Unit 1. Waterloo, N2V0C7","name":""},{"lat":49.256423,"lon":-122.747378,"city":"V3b 8a4","state":"BC","address":"2325 Ottawa Street Unit 130 British Columbia, V3B 8A4","name":""},{"lat":43.707562,"lon":-79.360659,"city":"Toronto","state":"ON","address":"11 Industrial St, Unit 1 Toronto, ON M4G 1Z2","name":""},{"lat":49.041374,"lon":-123.086041,"city":"Tsawwassen","state":"BC","address":"4949 Canoe Pass Way #348, Tsawwassen, BC V4M 4G9","name":""},{"lat":49.191896,"lon":-122.788611,"city":"Surrey","state":"BC","address":"Guildford Village Unit E104, 15637 104 Avenue, Surrey, BC V4N 2H4","name":""},{"lat":46.221224,"lon":-63.088395,"city":"Stratford","state":"PE","address":"9 Kinlock Road, Stratford, PEI C1B 1L8","name":""},{"lat":43.791868,"lon":-79.661452,"city":"Vaughan","state":"ON","address":"241 Trade Valley Drive building 2, Unit 1 Vaughan L4H 3N5","name":""},{"lat":49.225146,"lon":-123.102062,"city":"Vancouver","state":"BC","address":"6549 Main St, Vancouver, BC V5X 3H1","name":""},{"lat":45.460609,"lon":-75.52471,"city":"On K1c 7e2","state":"QC","address":"1615 Orleans Blvd. Suite 117. Orleans, ON K1C 7E2","name":""},{"lat":44.034147,"lon":-79.449065,"city":"Newmarket ON L3X 2G2","state":"ON","address":"675 Stonehaven Ave Units A-3 & A4, Newmarket ON L3X 2G2","name":""},{"lat":49.280172,"lon":-122.828347,"city":"Bc V3h 0e6","state":"BC","address":"Suter Brook Village 138 Brew Street. Port Moody, BC V3H 0E6","name":""},{"lat":42.939523,"lon":-81.225378,"city":"On N6e 1w4","state":"ON","address":"995 Wellington Road. London, ON N6E 1W4","name":""},{"lat":43.49275,"lon":-79.675805,"city":"On L6h0n1","state":"ON","address":"1923 Ironoak Way. Oakwoods Centre Units 1 & 2 Oakville, ON L6H0N1","name":""},{"lat":43.785337,"lon":-79.477748,"city":"On M3j 3n2","state":"ON","address":"RioCan Marketplace 2215 Steeles Ave. W Unit C001 Toronto, ON M3J 3N2","name":""},{"lat":43.69627,"lon":-80.36603,"city":"On N1m 3n7","state":"ON","address":"878 Tower Street South Fergus, ON N1M 3N7","name":""},{"lat":43.88305,"lon":-78.91202,"city":"On L1n 2k9","state":"ON","address":"80 Thickson Road South Whitby, ON L1N 2K9","name":""},{"lat":52.10178,"lon":-106.62031,"city":"Saskatoon Saskatchewan","state":"SK","address":"2325 Preston Ave S. Market Mall Unit 70, Saskatoon Saskatchewan, S7J2G2","name":""},{"lat":44.61225,"lon":-63.61852,"city":"Halifax","state":"NS","address":"16 Dentith Road, HALIFAX, NS, B3R 2H9","name":""},{"lat":43.37279,"lon":-79.76194,"city":"Burlington","state":"ON","address":"4490 Fairview St., Unit D108 Burlington, ON L7L 5P9","name":""},{"lat":51.21159,"lon":-102.44664,"city":"Saskatchewan S3N 3G7","state":"SK","address":"York Station 19D 275 Broadway Street E Unit 4. Yorkton, Saskatchewan S3N 3G7","name":""},{"lat":43.73261,"lon":-79.53297,"city":"On M9m 0b7","state":"ON","address":"1-39 Abraham Welsh Road. Toronto, ON M9M 0B7","name":""},{"lat":43.446741,"lon":-80.570795,"city":"On N2t 2k8","state":"ON","address":"646 Erb Street Unit 100 Waterloo, ON N2T 2K8","name":""},{"lat":43.411566,"lon":-79.813151,"city":"On L7m 0v7","state":"ON","address":"3-3241 Appleby Line Burlington, ON L7M 0V7","name":""},{"lat":43.836536,"lon":-79.505348,"city":"Concord","state":"ON","address":"11 Jacob Keffer Parkway, Concord, ON. L4K 5N8","name":""},{"lat":47.591635,"lon":-59.184749,"city":"Port Aux Basques","state":"NL","address":"8 Grand Bay Road West., Port Aux Basques, NL A0M 1C0","name":""},{"lat":43.852026,"lon":-79.358964,"city":"Markham","state":"ON","address":"8600 Woodbine Avenue., Unit C-3, Markham, ON L3R 4X8","name":""},{"lat":45.33501,"lon":-75.69089,"city":"Ottawa","state":"ON","address":"222 Hunt Club Rd., Unit 1, Ottawa, ON K1V 1C1","name":""},{"lat":49.938251,"lon":-97.093269,"city":"Winnipeg","state":"MB","address":"2-1114 Henderson Highway, Winnipeg, MB R2G 1L1","name":""},{"lat":43.56169,"lon":-80.24967,"city":"Ontario N1E 6R2","state":"ON","address":"380 Eramosa Road #22 Guelph, Ontario N1E 6R2","name":""},{"lat":49.13117,"lon":-123.92325,"city":"Truro","state":"NS","address":"50 Tenth Street","name":""},{"lat":45.609347,"lon":-61.714539,"city":"Ns B0h1a0","state":"NS","address":"86 Bayside Rd. Afton Station, NS B0H1A0","name":""},{"lat":43.75954,"lon":-79.30974,"city":"On M1r 4c4","state":"ON","address":"114 Ellesmere Rd Scarborough, ON M1R 4C4","name":""},{"lat":44.246487,"lon":-76.566645,"city":"Kingston","state":"ON","address":"656 Gardiners Rd., Unit #20A, Kingston, ON, K7M 3X9","name":""},{"lat":49.972901,"lon":-98.30537,"city":"Mb R1n 0n2","state":"MB","address":"1101 Saskatchewan Ave. W. Portage la Prairie, MB R1N 0N2","name":""},{"lat":49.031958,"lon":-122.801958,"city":"Surrey","state":"BC","address":"1767 152nd St. Unit 4, Surrey BC","name":""},{"lat":49.825799,"lon":-97.11528,"city":"Winnipeg","state":"MB","address":"St. Mary's Square, 1504 St. Mary's Road, Unit #2 Winnipeg, MB R2M 3V7","name":""},{"lat":43.113,"lon":-80.736805,"city":"Woodstock","state":"ON","address":"547 Norwich Ave., Unit 1, Woodstock, ON N4S 7V8","name":""},{"lat":50.963172,"lon":-114.009584,"city":"Calgary","state":"AB","address":"163 Quarry Park Blvd SE # 103, Calgary, AB T2C 5E1","name":""},{"lat":43.649462,"lon":-79.894938,"city":"Georgetown","state":"ON","address":"306 Guelph St., Georgetown, ON L7G 4B1","name":""},{"lat":49.090725,"lon":-122.607094,"city":"Langley","state":"BC","address":"Murrayville Square, 22259 48th Ave #205, Langley, BC V3A 8T1","name":""},{"lat":43.678001,"lon":-79.348579,"city":"Toronto","state":"ON","address":"519 Danforth Ave., Toronto, ON M4K 1P5","name":""},{"lat":49.904398,"lon":-97.155262,"city":"Winnipeg","state":"MB","address":"653 William Ave., Unit #3, Winnipeg, MB R3A 0K1","name":""},{"lat":43.892528,"lon":-79.442849,"city":"Richmond Hill","state":"ON","address":"10870 Yonge, Unit C3, Richmond Hill, ON L4C 3E4","name":""},{"lat":50.99846,"lon":-113.95732,"city":"Calgary","state":"AB","address":"5333 61st Ave. SE, Unit 101, Calgary, AB T2C 4N1","name":""},{"lat":43.870737,"lon":-79.084392,"city":"Pickering","state":"ON","address":"Seaton Centre, 2460 Brock Road, Unit C2/C3, Pickering, ON. L1X 0J1","name":""},{"lat":43.046806,"lon":-81.259056,"city":"London","state":"ON","address":"1840 Adelaide St. N, London, ON N5X 4B7","name":""},{"lat":49.877914,"lon":-97.144368,"city":"Winnipeg","state":"MB","address":"437 Stradbrook Ave., Unit #1 Winnipeg, MB R3L 0J7","name":""},{"lat":49.547623,"lon":-96.690903,"city":"Steinbach","state":"MB","address":"196 Provincial Trunk Hwy 12 North, Unit A, Steinbach, Manitoba R5G 1T6","name":""},{"lat":49.134048,"lon":-122.890517,"city":"Delta","state":"BC","address":"7213 120th St, Delta BC, V4C 6P5","name":""},{"lat":42.269568,"lon":-83.011691,"city":"Windsor","state":"ON","address":"3120 Dougall Ave, Windsor, ON N9E 1S7","name":""},{"lat":43.198263,"lon":-80.016696,"city":"Ancaster","state":"ON","address":"1090 Wilson St W, Ancaster, ON L9K 3K9","name":""},{"lat":44.673296,"lon":-63.490763,"city":"Cole Harbour","state":"NS","address":"4 Forest Hills Parkway, Cole Harbour, NS B2W 5G7","name":""},{"lat":43.7679,"lon":-79.271454,"city":"Toronto","state":"ON","address":"1100 Ellesmere Road, Toronto, ON M1P 2X3","name":""},{"lat":43.845397,"lon":-79.555382,"city":"Maple","state":"ON","address":"3600 Major MacKenzie Dr W, Maple, ON L4H 3T6","name":""},{"lat":45.270105,"lon":-75.7425,"city":"Nepean","state":"ON","address":"Chapman Mills Marketplace 80 Marketplace Ave, Nepean, ON K2J 5G3","name":""},{"lat":49.185281,"lon":-97.932269,"city":"Winkler","state":"MB","address":"155 Cargill Road, Unit 3, Winkler MB, R6W 1K2","name":""},{"lat":43.634684,"lon":-79.788033,"city":"Brampton","state":"ON","address":"8245 Financial Drive, Unit 2, Brampton, ON L6Y 0C1","name":""},{"lat":45.030917,"lon":-74.767118,"city":"Cornwall","state":"ON","address":"1718 Vincent Massey Dr, Cornwall, ON K6H 5R6","name":""},{"lat":44.593263,"lon":-79.424269,"city":"Orillia","state":"ON","address":"324 Memorial Avenue, Orillia, ON L3V 5X9","name":""},{"lat":56.75328,"lon":-111.429282,"city":"Fort McMurray","state":"AB","address":"Unit E1, 135 Eagle Ridge Blvd. FT McMurray, AB T9K 2","name":""},{"lat":49.10561,"lon":-122.800928,"city":"Surrey","state":"BC","address":"5680 152nd St, Unit #101, Surrey, BC V3S 3K2","name":""},{"lat":44.074939,"lon":-79.48523,"city":"East Gwillimbury","state":"ON","address":"18307 Yonge Street, Unit 2, East Gwillimbury, Ontario, L9N 0A2","name":""},{"lat":49.875046,"lon":-97.26074,"city":"Winnipeg MB R3J 0P1","state":"MB","address":"2543 Portage Ave, Winnipeg MB R3J 0P1","name":""},{"lat":45.354353,"lon":-75.806383,"city":"Cineplex (Coliseum) Ottawa","state":"ON","address":"Unit 6B, Cineplex (Coliseum) Ottawa, 3098 Carling Avenue, NEPEAN, ON K2B 7K2","name":""},{"lat":43.879911,"lon":-79.02656,"city":"Ajax","state":"ON","address":"5 Rossland Rd. East, Unit 101, Ajax ON L1Z 0T4","name":""},{"lat":43.499468,"lon":-80.189939,"city":"Guelph","state":"ON","address":"28 Clair Road W., Guelph, Ontario, N1L 1G7","name":""},{"lat":43.541004,"lon":-80.28191,"city":"On N1h 7p7","state":"ON","address":"170 Silvercreek Parkway North GUELPH, ON N1H 7P7","name":""},{"lat":44.970336,"lon":-64.939461,"city":"Ns B0p 1n0","state":"NS","address":"1128 Bridge Street Greenwood, NS B0P 1N0","name":""},{"lat":49.125451,"lon":-122.705469,"city":"B.C. V3s 7y3","state":"BC","address":"#103 \u2013 18655 Fraser Highway Surrey, B.C. V3S 7Y3","name":""},{"lat":45.311794,"lon":-75.914741,"city":"Kanata","state":"ON","address":"B-7, 400 Earl Grey Drive, Kanata, Ontario, K2T 1B9","name":""},{"lat":49.855324,"lon":-97.160792,"city":"Winnipeg","state":"MB","address":"1000 Taylor Ave., Winnipeg, MB R3M 3Z4","name":""},{"lat":56.552982,"lon":-115.304667,"city":"Alberta 245 Highway 88 T0G 1X0","state":"AB","address":"Red Earth Creek, Alberta 245 Highway 88 T0G 1X0","name":""},{"lat":43.175034,"lon":-80.232295,"city":"Brantford","state":"ON","address":"175 Lynden Rd, Brantford, Ontario, N3R 8A7","name":""},{"lat":43.33608,"lon":-79.812826,"city":"Ontario L7R 2J6","state":"ON","address":"901 Brant St #3 Burlington, Ontario L7R 2J6","name":""},{"lat":49.948608,"lon":-97.151998,"city":"Winnipeg","state":"MB","address":"2136 McPhillips Street, Unit 105 & 106 Winnipeg, MB","name":""},{"lat":49.69503,"lon":-112.898188,"city":"West Lethbridge","state":"AB","address":"1-413 Highlands Blvd., West Lethbridge, AB T1J 5E8","name":""},{"lat":43.736616,"lon":-79.248615,"city":"Toronto","state":"ON","address":"2694 Eglinton Ave E, Toronto, ON","name":""},{"lat":50.288196,"lon":-119.259514,"city":"Bc V1t 9t2","state":"BC","address":"2200-58 Ave Vernon, BC V1T 9T2","name":""},{"lat":49.646891,"lon":-54.760438,"city":"Nl A0g 4m0","state":"NL","address":"28 Toulinquet Road TWILLINGATE, NL A0G 4M0","name":""},{"lat":52.30471,"lon":-114.069358,"city":"Sylvan Lake","state":"AB","address":"3420 47 Ave, Sylvan Lake, AB T4S 0B6","name":""},{"lat":49.838621,"lon":-99.961773,"city":"Brandon MB. R7A 5B6","state":"MB","address":"751 18th Street, Brandon MB. R7A 5B6","name":""},{"lat":49.833893,"lon":-97.047022,"city":"Winnipeg MB. R3X 0N3","state":"MB","address":"55 Sage Creek Blvd, Winnipeg MB. R3X 0N3","name":""},{"lat":54.271178,"lon":-110.722324,"city":"Alberta T9N 2P1","state":"AB","address":"Unit 103 5401 43rd ST Bonnyville, Alberta T9N 2P1","name":""},{"lat":47.726354,"lon":-53.239065,"city":"Carbonear","state":"NL","address":"86 Powell Drive, Carbonear, NL","name":""},{"lat":44.278103,"lon":-78.364206,"city":"Peterborough","state":"ON","address":"1550 Lansdowne St., Peterborough, ON K9J 2A2","name":""},{"lat":49.036505,"lon":-122.290733,"city":"BC V2S 0H9 Canada","state":"BC","address":"120-1878 McCallum Road Abbotsford, BC V2S 0H9 Canada","name":""},{"lat":49.787391,"lon":-97.156256,"city":"Manitoba Canada R3T 2J1","state":"MB","address":"2870 Pembina Hwy. Unit 30 Winnipeg, Manitoba Canada R3T 2J1","name":""},{"lat":53.424891,"lon":-113.596871,"city":"Edmonton","state":"AB","address":"16228 Ellerslie Rd. S.W., Edmonton, AB T6W 3S8, Canada","name":""},{"lat":49.668492,"lon":-112.795688,"city":"Lethbridge","state":"AB","address":"2-2414 Fairway Plaza Road S, Lethbridge, AB. T1K 6Z3","name":""},{"lat":53.454119,"lon":-113.37582,"city":"Edmonton","state":"AB","address":"2338 - 23 Avenue NW, Edmonton, AB T6T 0R1, Canada","name":""},{"lat":53.525578,"lon":-113.675143,"city":"Edmonton","state":"AB","address":"Market at Lewis Estates, 1280 Webber Greens Drive NW, Edmonton, AB T5T 7C5, Canada","name":""},{"lat":53.630364,"lon":-113.539446,"city":"Edmonton","state":"AB","address":"Newcastle Shopping Centre, 16725 127 St. N.W., Edmonton, AB T6V 0T1, Canada","name":""},{"lat":55.170801,"lon":-118.827912,"city":"Grande Prairie","state":"AB","address":"Gateway Power Centre, 11020-100 Ave., Unit 104, Grande Prairie, AB T8V 7L5, Canada","name":""},{"lat":53.540713,"lon":-113.423734,"city":"Edmonton","state":"AB","address":"Terrace Plaza, 5822 Terrace Road NW, Edmonton, AB T6A 3Y8, Canada","name":""},{"lat":53.454506,"lon":-113.563845,"city":"Edmonton","state":"AB","address":"Terwillegar Heights SC, 2347 Rabbit Hill Road NW, Edmonton, AB T6R 3L6, Canada","name":""},{"lat":51.047362,"lon":-113.829027,"city":"Chestermere","state":"AB","address":"Unit 408, 100 Marina Drive, Chestermere, AB T1X 0R9, Canada","name":""},{"lat":53.546839,"lon":-113.516834,"city":"Edmonton","state":"AB","address":"Unit 11358 - 104th Avenue NW, Edmonton, AB T5K 2W9, Canada","name":""},{"lat":51.054639,"lon":-113.980932,"city":"Calgary","state":"AB","address":"106 - 428 36th St. NE, Calgary, AB T2A 5W8, Canada","name":""},{"lat":53.615359,"lon":-113.516035,"city":"Edmonton","state":"AB","address":"15303 Castle Downs Rd. Unit 30, Edmonton, AB T5X 6C3, Canada","name":""},{"lat":52.294411,"lon":-113.816635,"city":"Red Deer","state":"AB","address":"6858 50th Avenue, Unit 2, Red Deer, AB T4N 4E3, Canada","name":""},{"lat":53.626747,"lon":-113.412937,"city":"Edmonton","state":"AB","address":"16514 - 50 Street NW (Hollick Kenyon), Edmonton, AB T5Y 0L2, Canada","name":""},{"lat":55.16945,"lon":-118.7684,"city":"Grande Prairie","state":"AB","address":"9910-92 Street, Unit 103, Grande Prairie, AB T8X 0E7, Canada","name":""},{"lat":51.185807,"lon":-114.467435,"city":"Cochrane","state":"AB","address":"#32, 80 Bow Street, Cochrane, AB T4C 0T4, Canada","name":""},{"lat":53.681221,"lon":-113.240614,"city":"Fort Saskatchewan","state":"AB","address":"112 Town Crest Road, Fort Saskatchewan, AB T8L 0G7, Canada","name":""},{"lat":53.542121,"lon":-113.611816,"city":"Edmonton","state":"AB","address":"358 Mayfield Common NW, Edmonton, AB T5P 4B3, Canada","name":""},{"lat":55.279618,"lon":-114.772227,"city":"Slave","state":"AB","address":"100 - 102 6th Ave. SW, Slave Lake, AB T0G 2A3, Canada","name":""},{"lat":53.542125,"lon":-113.898441,"city":"Spruce Grove","state":"AB","address":"100 King St., Unit 27, Spruce Grove, AB T7X 0J6, Canada","name":""},{"lat":53.566042,"lon":-113.272133,"city":"Sherwood Park","state":"AB","address":"570, 8005 Emerald Drive, Sherwood Park, AB T8H 0P1, Canada","name":""},{"lat":53.253114,"lon":-110.006369,"city":"Lloydminster","state":"SK","address":"101 - 5001 - 18th St., Lloydminster, AB T9V 2G7, Canada","name":""},{"lat":51.269375,"lon":-113.992312,"city":"# 119","state":"AB","address":"1800 Market St. S.E., # 119, Airdrie, AB T4A 0K9, Canada","name":""},{"lat":53.599889,"lon":-113.485179,"city":"Northwood Mall","state":"AB","address":"13707 - 93 Street, Northwood Mall, Edmonton, AB T5E 5V6, Canada","name":""},{"lat":53.597429,"lon":-113.387851,"city":"Edmonton","state":"AB","address":"Belmont Centre, 13520 Victoria Trail, Edmonton, AB T5A 5C9, Canada","name":""},{"lat":53.423825,"lon":-113.47656,"city":"Edmonton","state":"AB","address":"1042 - 91 Street S.W., Edmonton, AB T6X 0P2, Canada","name":""},{"lat":53.651357,"lon":-113.628771,"city":"St. Albert","state":"AB","address":"Liberton Square, 504 St. Albert Road, Unit 10, St. Albert, AB T8N 5Z1, Canada","name":""},{"lat":51.011032,"lon":-114.04651,"city":"Calgary","state":"AB","address":"202, 723 - 46th Avenue S.E., Calgary, AB T2G 2A4, Canada","name":""},{"lat":51.161754,"lon":-114.068603,"city":"Calgary","state":"AB","address":"#223, 130 Country Village Road N.E., Coventry Hills Centre, Calgary, AB T3K 6B8, Canada","name":""},{"lat":56.734704,"lon":-111.424019,"city":"Fort McMurray","state":"AB","address":"3 - 213 Timberline Drive, Fort McMurray, AB T9K 1S1, Canada","name":""},{"lat":53.476672,"lon":-113.418191,"city":"Edmonton","state":"AB","address":"Millcreek Plaza, 4004 - 50th Street, Edmonton, AB T6L 5N3, Canada","name":""},{"lat":56.680266,"lon":-111.350125,"city":"Fort McMurray","state":"AB","address":"330 Parent Way, Fort McMurray, AB T9H 5E6, Canada","name":""},{"lat":49.902864,"lon":-97.068451,"city":"Winnipeg","state":"MB","address":"Kildonan Crossing SC, 1615 Regent Ave. W. Unit O695, Winnipeg, MB R2C 5C6, Canada","name":""},{"lat":50.496079,"lon":-104.661255,"city":"Regina","state":"SK","address":"#4 - 5602 Rochdale Blvd., Regina, SK S4X 4P1, Canada","name":""},{"lat":53.281051,"lon":-109.979174,"city":"Lloydminster","state":"SK","address":"Unit 1, 4304 40th Avenue, Lloydminster, SK S9V 2B5, Canada","name":""},{"lat":46.449065,"lon":-80.994278,"city":"Greater Sudbury","state":"ON","address":"2040 Algonquin Road, Sudbury, ON P3E 4Z6, Canada","name":""},{"lat":43.413911,"lon":-80.479129,"city":"Kitchener","state":"ON","address":"Forest Glen Shopping Centre, 700 Strasburg Road, Kitchener, ON N2E 2M2, Canada","name":""},{"lat":43.580499,"lon":-79.735279,"city":"Mississauga","state":"ON","address":"6039 Erin Mills Parkway, Unit 8, Mississauga, ON L5N 0G5, Canada","name":""},{"lat":45.899333,"lon":-77.280409,"city":"Petawawa","state":"ON","address":"Victoria Centre, 1011 Victoria Street, Unit F, Petawawa, ON K8H 2E2, Canada","name":""},{"lat":44.4263,"lon":-81.396696,"city":"Port Elgin","state":"ON","address":"205 Goderich Street, Port Elgin, ON N0H 2C1, Canada","name":""},{"lat":44.151215,"lon":-79.878612,"city":"Alliston","state":"ON","address":"19 King Street South, Alliston, ON L9R 1H6, Canada","name":""},{"lat":44.323853,"lon":-79.887302,"city":"Angus","state":"ON","address":"162-164 Mill Street, Unit 4, Angus, ON L0M 1B0, Canada","name":""},{"lat":43.73802,"lon":-79.70149,"city":"Brampton","state":"ON","address":"Unit D5, 25 Gateway Blvd., Brampton, ON L6T 0H8, Canada","name":""},{"lat":42.959935,"lon":-82.370633,"city":"Sarnia","state":"ON","address":"1149 Confederation Street, Sarnia, ON N7S 3Y5, Canada","name":""},{"lat":43.699023,"lon":-79.82265,"city":"Brampton","state":"ON","address":"10671 Chinguacousy Road, Unit B16, Brampton, ON L7A 0N5, Canada","name":""},{"lat":44.225818,"lon":-79.464829,"city":"Keswick","state":"ON","address":"270 The Queensway South, Keswick, ON L4P 2B3, Canada","name":""},{"lat":44.386921,"lon":-79.704072,"city":"Barrie","state":"ON","address":"165 Wellington St. W. Units 21 and 22, Barrie, ON L4N 1L7, Canada","name":""},{"lat":44.158948,"lon":-77.398739,"city":"Belleville","state":"ON","address":"Loyalist Market, 150 Sidney Street, Belleville, ON K8P 5E2, Canada","name":""},{"lat":44.114358,"lon":-79.565019,"city":"Bradford West Gwillimbury","state":"ON","address":"450 Holland St. W. Unit 1, Bradford, ON L3Z 0G1, Canada","name":""},{"lat":43.188129,"lon":-79.230456,"city":"St. Catharines","state":"ON","address":"364 Scott Street, Unit A-1, St. Catharines, ON L2M 3W4, Canada","name":""},{"lat":44.286684,"lon":-76.43136,"city":"Kingston","state":"ON","address":"841 Highway 15, Kingston, ON K7L 5H6, Canada","name":""},{"lat":43.898082,"lon":-78.692087,"city":"Bowmanville","state":"ON","address":"380 Baseline Road W., Bowmanville, ON L1C 3K3, Canada","name":""},{"lat":44.337764,"lon":-79.710144,"city":"Barrie","state":"ON","address":"563 Essa Rd., Unit C2, Barrie, ON L4N 6A9, Canada","name":""},{"lat":43.232448,"lon":-79.761947,"city":"Hamilton","state":"ON","address":"118 Centennial Parkway North, Hamilton, ON L8E 1H9, Canada","name":""},{"lat":43.636948,"lon":-79.620821,"city":"Mississauga","state":"ON","address":"5067 Dixie Road, Mississauga, ON L4W 5S6, Canada","name":""},{"lat":43.523115,"lon":-79.899635,"city":"Milton","state":"ON","address":"20 Market Drive, Milton, ON L9T 3H5, Canada","name":""},{"lat":43.707154,"lon":-79.787635,"city":"Brampton","state":"ON","address":"10045 Hurontario St. Unit 8, Brampton, ON L6Z 0E6, Canada","name":""},{"lat":43.005743,"lon":-81.174621,"city":"London","state":"ON","address":"Eastwood Centre, 1920 Dundas St. E. Unit 116, London, ON N5V 3P1, Canada","name":""},{"lat":43.529009,"lon":-79.673955,"city":"Mississauga","state":"ON","address":"Erin Woods Centre, 2400 Dundas St. W, Unit 1, Mississauga, ON L5K 2R8, Canada","name":""},{"lat":43.40318,"lon":-80.327388,"city":"Cambridge","state":"ON","address":"580 Hespeler Road, Unit 3B, Cambridge, ON N1R 6J8, Canada","name":""},{"lat":43.694609,"lon":-79.749226,"city":"Brampton","state":"ON","address":"1 Kennedy Road S. Unit 11, Brampton, ON L6W 3C9, Canada","name":""},{"lat":43.952078,"lon":-78.960592,"city":"Brooklin","state":"ON","address":"5969 Baldwin Street, Unit 18, Brooklin, ON L1M 2J7, Canada","name":""},{"lat":44.353757,"lon":-78.735377,"city":"Lindsay","state":"ON","address":"17 Russell Street West, Lindsay, ON K9V 2W5, Canada","name":""},{"lat":43.894817,"lon":-78.878219,"city":"Oshawa","state":"ON","address":"400 King Street West, Oshawa, ON L1J 2J9, Canada","name":""},{"lat":43.821752,"lon":-79.112624,"city":"Pickering","state":"ON","address":"780 Kingston Road, Unit A-2, Pickering, ON L1V 1A9, Canada","name":""},{"lat":43.718455,"lon":-79.455269,"city":"Toronto","state":"ON","address":"3199 Dufferin Street, Toronto, ON M6A 2T2, Canada","name":""},{"lat":43.917373,"lon":-78.946808,"city":"Whitby","state":"ON","address":"3975 Garden Street, Unit 10, Whitby, ON L1R 3A4, Canada","name":""},{"lat":44.25914,"lon":-76.583128,"city":"Kingston","state":"ON","address":"2815 Princess Street, Unit 7, R.R. #3, Kingston, ON K7P 2X2, Canada","name":""},{"lat":43.93379,"lon":-78.86818,"city":"Oshawa","state":"ON","address":"1295 Ritson Road N, Unit K50, Oshawa, ON L1G 3V2, Canada","name":""},{"lat":43.869878,"lon":-78.84982,"city":"Oshawa","state":"ON","address":"199 Wentworth Street West, Oshawa, ON L1J 6P4, Canada","name":""},{"lat":62.454028,"lon":-114.415783,"city":"Yellowknife","state":"NT","address":"350 Borden Drive, Yellowknife, NT X1A 3W5, Canada","name":""},{"lat":50.124071,"lon":-120.761552,"city":"Merritt","state":"BC","address":"3663 De Wolf Way, Merritt, BC V1K 1C4, Canada","name":""},{"lat":50.699856,"lon":-120.39362,"city":"Kamloops","state":"BC","address":"1800 Tranquille Rd. Unit #40, Kamloops, BC V2B 3L9, Canada","name":""},{"lat":49.167188,"lon":-121.959026,"city":"Chilliwack","state":"BC","address":"45905 Yale Road, Unit 12, Chilliwack, BC V2P 2M6, Canada","name":""},{"lat":49.882633,"lon":-119.445431,"city":"Kelowna","state":"BC","address":"#14, 2070 Harvey Ave., Kelowna, BC V1Y 8P8, Canada","name":""},{"lat":45.255293,"lon":-66.094442,"city":"St. John","state":"NB","address":"944 Fairville Blvd, Saint John, NB E2M 5T5, Canada","name":""},{"lat":45.309335,"lon":-66.015579,"city":"St. John","state":"NB","address":"33 Hubert Street, Saint John, NB E2J 0J2, Canada","name":""},{"lat":46.123009,"lon":-64.851506,"city":"Moncton","state":"NB","address":"5 - 1909 Mountain Road, Moncton, NB E1G 1A8, Canada","name":""},{"lat":45.940969,"lon":-66.657423,"city":"Fredericton","state":"NB","address":"1111 Regent Street, Unit 17, Fredericton, NB E3B 3B4, Canada","name":""},{"lat":45.069986,"lon":-64.44185,"city":"New Minas","state":"NS","address":"9319 Commercial Street, New Minas, NS B4N 3G2, Canada","name":""},{"lat":43.842047,"lon":-66.101045,"city":"Yarmouth","state":"NS","address":"86 Starrs Road, Unit #8, Yarmouth, NS B5A 2T5, Canada","name":""},{"lat":44.70422,"lon":-63.859184,"city":"Upper Tantallon","state":"NS","address":"3650 Hammonds Plains Road, Upper Tantallon, NS B3Z 4R3, Canada","name":""},{"lat":44.659144,"lon":-63.632221,"city":"Halifax","state":"NS","address":"19 Alma Crescent, Halifax, NS B3N 2C4, Canada","name":""},{"lat":44.679816,"lon":-63.538626,"city":"Dartmouth","state":"NS","address":"Tacoma Plaza, 50 Tacoma Drive, Dartmouth, NS B2W 3E5, Canada","name":""},{"lat":44.774611,"lon":-63.693052,"city":"Lower Sackville","state":"NS","address":"799 Sackville Drive, Lower Sackville, NS B4E 1R6, Canada","name":""},{"lat":47.578582,"lon":-53.281711,"city":"Bay Roberts","state":"NL","address":"177 Conception Bay Highway, Bay Roberts, NL A0A 1G0, Canada","name":""},{"lat":49.216985,"lon":-55.054694,"city":"Lewisporte","state":"NL","address":"490 Main Street, Lewisporte, NL A0G 3A0, Canada","name":""},{"lat":47.612482,"lon":-52.723145,"city":"St. John'S","state":"NL","address":"571 Torbay Road, St. John's, NL A1A 5G9, Canada","name":""},{"lat":47.561899,"lon":-52.745477,"city":"St. John'S","state":"NL","address":"336 Freshwater Road, St. John's, NL A1B 1C2, Canada","name":""},{"lat":48.641594,"lon":-53.102917,"city":"Bonavista","state":"NL","address":"230 Confederation Drive, Bonavista, NL A0C 1B0, Canada","name":""},{"lat":49.012712,"lon":-57.60227,"city":"Pasadena","state":"NL","address":"63 - 69 Main Street, Pasadena, NL A0L 1K0, Canada","name":""},{"lat":49.931945,"lon":-56.203247,"city":"Hwy 410","state":"NL","address":"94, Hwy 410, Baie Verte, NL A0K 1B0, Canada","name":""},{"lat":47.657279,"lon":-52.73412,"city":"Torbay","state":"NL","address":"1395 Torbay Road, Torbay, NL A1K 1B3, Canada","name":""},{"lat":49.173153,"lon":-57.4338,"city":"Deer Lake","state":"NL","address":"60 Trans-Canada Hwy, Deer Lake, NL A8A 2E5","name":""},{"lat":47.238987,"lon":-53.964575,"city":"Placentia","state":"NL","address":"Placentia Mall - 61 Blockhouse Road, Placentia, NL A0B 2Y0, Canada","name":""},{"lat":49.492124,"lon":-56.073436,"city":"Springdale","state":"NL","address":"P.O. Box 507, 194 Main Street, Dalfen's Mall, Springdale, NL A0J 1T0, Canada","name":""},{"lat":48.546625,"lon":-58.592095,"city":"Stephenville","state":"NL","address":"68 West Street, Stephenville, NL A2N 2Z4, Canada","name":""},{"lat":49.152585,"lon":-55.347272,"city":"Botwood","state":"NL","address":"Commonwealth Drive (P.O. Box 422), Botwood, NL A0H 1E0, Canada","name":""},{"lat":48.945828,"lon":-55.654146,"city":"Grand Falls-Windsor","state":"NL","address":"32 Cromer Avenue, Grand Falls-Windsor, NL A2A 2J4, Canada","name":""},{"lat":48.949109,"lon":-54.616188,"city":"Gander","state":"NL","address":"110 Trans Canada Highway, Gander, NL A1V 1P8, Canada","name":""},{"lat":47.473012,"lon":-55.828561,"city":"Harbour Breton","state":"NL","address":"30 Canada Drive, Harbour Breton, NL A0H 1P0, Canada","name":""},{"lat":48.812076,"lon":-54.319093,"city":"Eastport Junction","state":"NL","address":"Trans Canada Highway, Eastport Junction, Glovertown, NL A0G 2L0, Canada","name":""},{"lat":47.388038,"lon":-53.123672,"city":"Holyrood","state":"NL","address":"382 Conception Bay Highway, Holyrood, NL A0A 2R0, Canada","name":""},{"lat":52.944547,"lon":-66.905631,"city":"Labrador City","state":"NL","address":"210 Drake Avenue, Labrador City, NL, A2V 1K5, Canada","name":""},{"lat":47.545247,"lon":-52.74243,"city":"St. John'S","state":"NL","address":"250 Blackmarsh Road, St. John's, NL A1E 1T2, Canada","name":""},{"lat":47.525647,"lon":-52.769316,"city":"St. John'S","state":"NL","address":"632 Topsail Road, St. John's, NL A1E 2C9, Canada","name":""},{"lat":47.448196,"lon":-53.552171,"city":"Whitbourne","state":"NL","address":"639 Trans Canada Highway, Whitbourne, NL A0B 3K0, Canada","name":""},{"lat":47.534283,"lon":-52.842018,"city":"Paradise","state":"NL","address":"4 Elizabeth Dr, Paradise, NL A1L 1V2","name":""},{"lat":47.460592,"lon":-52.772037,"city":"Goulds","state":"NL","address":"420 Main Road, Goulds, NL A1S 1A2, Canada","name":""},{"lat":47.496614,"lon":-53.021204,"city":"Kelligrews","state":"NL","address":"831 Conception Bay Highway, Kelligrews","name":""},{"lat":47.519109,"lon":-52.807203,"city":"Mount Pearl","state":"NL","address":"25 Commonwealth Avenue, Mount Pearl, NL A1N 1W4, Canada","name":""},{"lat":47.519188,"lon":-52.953673,"city":"Conception Bay South","state":"NL","address":"81 C.B.S. Highway, Unit 1, Conception Bay South, NL A1W 3A3, Canada","name":""},{"lat":51.371127,"lon":-55.600827,"city":"St. Anthony","state":"NL","address":"Viking Mall - 1 Goose Cove Road, St. Anthony, NL A0K 4S0, Canada","name":""},{"lat":48.162984,"lon":-53.971163,"city":"Clarenville","state":"NL","address":"78 Manitoba Drive, Clarenville, NL A5A 1K6, Canada","name":""},{"lat":53.298011,"lon":-60.331857,"city":"Happy Valley","state":"NL","address":"1 Churchill Street, Happy Valley, Goose Bay, NL A0P 1C0, Canada","name":""},{"lat":47.074164,"lon":-55.825752,"city":"Fortune","state":"NL","address":"25 Bayview Street, Fortune, NL A0E 1P0, Canada","name":""},{"lat":47.16141,"lon":-55.164681,"city":"Marystown","state":"NL","address":"144 McGettigan Blvd, Marystown, NL A0E 2M0.","name":""},{"lat":47.585942,"lon":-52.708389,"city":"St. John'S","state":"NL","address":"61 Torbay Road, St. John's, NL A1A 5K8, Canada","name":""},{"lat":47.561271,"lon":-52.754119,"city":"St. John's","state":"NL","address":"Avalon Mall, 48 Kenmount Road, St. John's, NL A1B 1W3, Canada","name":""},{"lat":48.958791,"lon":-57.924056,"city":"Corner Brook","state":"NL","address":"24 Murphy Square, Corner Brook, NL A2H 1R4, Canada","name":""},{"lat":48.95231,"lon":-57.950603,"city":"Corner Brook","state":"NL","address":"2 Main Street, Corner Brook, NL. A2H 2M5, Canada","name":""}]}