{"key":"meijer","displayName":"Meijer","category":"grocery","useLocationName":false,"locations":[
  {"lat":41.26019,"lon":-85.84119,"city":"Warsaw","state":"IN","address":"1200 US-30","name":""},
  {"lat":41.26019,"lon":-85.84119,"city":"Warsaw","state":"IN","address":"1200 US-30","name":""},
  {"lat":41.26019,"lon":-85.84119,"city":"Warsaw","state":"IN","address":"1200 US-30","name":""},
  {"lat":41.55287,"lon":-87.18097,"city":"Portage","state":"IN","address":"6050 US-Hwy 6","name":""},
  {"lat":41.55287,"lon":-87.18097,"city":"Portage","state":"IN","address":"6050 US-Hwy 6","name":""},
  {"lat":41.55287,"lon":-87.18097,"city":"Portage","state":"IN","address":"6050 US-Hwy 6","name":""},
  {"lat":41.60475,"lon":-87.79083,"city":"Orland Park","state":"IL","address":"15701 71st Court","name":""},
  {"lat":41.60475,"lon":-87.79083,"city":"Orland Park","state":"IL","address":"15701 71st Court","name":""},
  {"lat":42.64351,"lon":-83.20604,"city":"Rochester Hills","state":"MI","address":"3610 Marketplace Circle","name":""},
  {"lat":42.64351,"lon":-83.20604,"city":"Rochester Hills","state":"MI","address":"3610 Marketplace Circle","name":""},
  {"lat":42.64351,"lon":-83.20604,"city":"Rochester Hills","state":"MI","address":"3610 Marketplace Circle","name":""},
  {"lat":42.96833,"lon":-83.82678,"city":"Swartz Creek","state":"MI","address":"4141 Morrish Rd.","name":""},
  {"lat":42.96833,"lon":-83.82678,"city":"Swartz Creek","state":"MI","address":"4141 Morrish Rd.","name":""},
  {"lat":42.96833,"lon":-83.82678,"city":"Swartz Creek","state":"MI","address":"4141 Morrish Rd.","name":""},
  {"lat":41.72475,"lon":-87.68544,"city":"Evergreen Park","state":"IL","address":"9200 S. Western Ave.","name":""},
  {"lat":41.72475,"lon":-87.68544,"city":"Evergreen Park","state":"IL","address":"9200 S. Western Ave.","name":""},
  {"lat":41.72475,"lon":-87.68544,"city":"Evergreen Park","state":"IL","address":"9200 S. Western Ave.","name":""},
  {"lat":37.7381,"lon":-84.33372,"city":"Richmond","state":"KY","address":"2013 Lantern Ridge Dr.","name":""},
  {"lat":37.7381,"lon":-84.33372,"city":"Richmond","state":"KY","address":"2013 Lantern Ridge Dr.","name":""},
  {"lat":37.7381,"lon":-84.33372,"city":"Richmond","state":"KY","address":"2013 Lantern Ridge Dr.","name":""},
  {"lat":45.34684,"lon":-84.96434,"city":"Petoskey","state":"MI","address":"1201 Lears Rd.","name":""},
  {"lat":45.34684,"lon":-84.96434,"city":"Petoskey","state":"MI","address":"1201 Lears Rd.","name":""},
  {"lat":45.34684,"lon":-84.96434,"city":"Petoskey","state":"MI","address":"1201 Lears Rd.","name":""},
  {"lat":39.7128,"lon":-86.38364,"city":"Plainfield","state":"IN","address":"400 Dan Jones Rd","name":""},
  {"lat":39.7128,"lon":-86.38364,"city":"Plainfield","state":"IN","address":"400 Dan Jones Rd","name":""},
  {"lat":39.7128,"lon":-86.38364,"city":"Plainfield","state":"IN","address":"400 Dan Jones Rd","name":""},
  {"lat":42.8429,"lon":-85.86519,"city":"Hudsonville","state":"MI","address":"4075 32nd Ave","name":""},
  {"lat":42.8429,"lon":-85.86519,"city":"Hudsonville","state":"MI","address":"4075 32nd Ave","name":""},
  {"lat":42.8429,"lon":-85.86519,"city":"Hudsonville","state":"MI","address":"4075 32nd Ave","name":""},
  {"lat":42.77397,"lon":-84.41763,"city":"East Lansing","state":"MI","address":"7157 E. Saginaw St.","name":""},
  {"lat":42.77397,"lon":-84.41763,"city":"East Lansing","state":"MI","address":"7157 E. Saginaw St.","name":""},
  {"lat":42.77397,"lon":-84.41763,"city":"East Lansing","state":"MI","address":"7157 E. Saginaw St.","name":""},
  {"lat":45.02453,"lon":-84.72334,"city":"Gaylord","state":"MI","address":"250 Meijer Drive","name":""},
  {"lat":45.02453,"lon":-84.72334,"city":"Gaylord","state":"MI","address":"250 Meijer Drive","name":""},
  {"lat":45.02453,"lon":-84.72334,"city":"Gaylord","state":"MI","address":"250 Meijer Drive","name":""},
  {"lat":42.02595,"lon":-86.51608,"city":"Stevensville","state":"MI","address":"5019 Red Arrow Highway","name":""},
  {"lat":42.02595,"lon":-86.51608,"city":"Stevensville","state":"MI","address":"5019 Red Arrow Highway","name":""},
  {"lat":42.02595,"lon":-86.51608,"city":"Stevensville","state":"MI","address":"5019 Red Arrow Highway","name":""},
  {"lat":40.29026,"lon":-83.03174,"city":"Delaware","state":"OH","address":"1380 Sunbury Rd.","name":""},
  {"lat":40.29026,"lon":-83.03174,"city":"Delaware","state":"OH","address":"1380 Sunbury Rd.","name":""},
  {"lat":40.29026,"lon":-83.03174,"city":"Delaware","state":"OH","address":"1380 Sunbury Rd.","name":""},
  {"lat":43.21717,"lon":-85.57917,"city":"Cedar Springs","state":"MI","address":"3700 17 Mile Rd. NE","name":""},
  {"lat":43.21717,"lon":-85.57917,"city":"Cedar Springs","state":"MI","address":"3700 17 Mile Rd. NE","name":""},
  {"lat":43.21717,"lon":-85.57917,"city":"Cedar Springs","state":"MI","address":"3700 17 Mile Rd. NE","name":""},
  {"lat":40.08612,"lon":-88.18728,"city":"Urbana","state":"IL","address":"2500 S. Philo Road","name":""},
  {"lat":40.08612,"lon":-88.18728,"city":"Urbana","state":"IL","address":"2500 S. Philo Road","name":""},
  {"lat":40.08612,"lon":-88.18728,"city":"Urbana","state":"IL","address":"2500 S. Philo Road","name":""},
  {"lat":40.04425,"lon":-86.0649,"city":"Noblesville","state":"IN","address":"5956 Promenade Shops Blvd.","name":""},
  {"lat":40.04425,"lon":-86.0649,"city":"Noblesville","state":"IN","address":"5956 Promenade Shops Blvd.","name":""},
  {"lat":42.687139,"lon":-82.973476,"city":"Macomb","state":"MI","address":"15375 24 Mile Road","name":""},
  {"lat":42.687139,"lon":-82.973476,"city":"Macomb","state":"MI","address":"15375 24 Mile Road","name":""},
  {"lat":42.687139,"lon":-82.973476,"city":"Macomb","state":"MI","address":"15375 24 Mile Road","name":""},
  {"lat":42.7656,"lon":-83.2388,"city":"Lake Orion","state":"MI","address":"1107 S Lapeer Road","name":""},
  {"lat":42.7656,"lon":-83.2388,"city":"Lake Orion","state":"MI","address":"1107 S Lapeer Road","name":""},
  {"lat":42.733351,"lon":-84.544393,"city":"Lansing","state":"MI","address":"600 E Michigan Ave, Suite 100","name":""},
  {"lat":42.733351,"lon":-84.544393,"city":"Lansing","state":"MI","address":"600 E Michigan Ave, Suite 100","name":""},
  {"lat":42.73368,"lon":-83.380516,"city":"Clarkston","state":"MI","address":"5820 Waldon Road","name":""},
  {"lat":42.73368,"lon":-83.380516,"city":"Clarkston","state":"MI","address":"5820 Waldon Road","name":""},
  {"lat":41.540009,"lon":-81.49432,"city":"Richmond Heights","state":"OH","address":"5155 Wilson Mills Road","name":""},
  {"lat":41.540009,"lon":-81.49432,"city":"Richmond Heights","state":"OH","address":"5155 Wilson Mills Road","name":""},
  {"lat":41.15823,"lon":-81.86497,"city":"Medina","state":"OH","address":"1105 N Court Street","name":""},
  {"lat":41.15823,"lon":-81.86497,"city":"Medina","state":"OH","address":"1105 N Court Street","name":""},
  {"lat":41.101155,"lon":-80.769165,"city":"Austintown","state":"OH","address":"5800 Mahoning Avenue","name":""},
  {"lat":41.101155,"lon":-80.769165,"city":"Austintown","state":"OH","address":"5800 Mahoning Avenue","name":""},
  {"lat":41.101155,"lon":-80.769165,"city":"Austintown","state":"OH","address":"5800 Mahoning Avenue","name":""},
  {"lat":41.950523,"lon":-84.662411,"city":"Hillsdale","state":"MI","address":"3600 West Carleton Road","name":""},
  {"lat":41.950523,"lon":-84.662411,"city":"Hillsdale","state":"MI","address":"3600 West Carleton Road","name":""},
  {"lat":40.893408,"lon":-81.40928,"city":"North Canton","state":"OH","address":"1505 N Main Street","name":""},
  {"lat":40.893408,"lon":-81.40928,"city":"North Canton","state":"OH","address":"1505 N Main Street","name":""},
  {"lat":40.899448,"lon":-81.154492,"city":"Alliance","state":"OH","address":"2500 West State Street","name":""},
  {"lat":40.899448,"lon":-81.154492,"city":"Alliance","state":"OH","address":"2500 West State Street","name":""},
  {"lat":40.859925,"lon":-81.95165,"city":"Wooster","state":"OH","address":"4845 Burbank Road","name":""},
  {"lat":40.859925,"lon":-81.95165,"city":"Wooster","state":"OH","address":"4845 Burbank Road","name":""},
  {"lat":41.213924,"lon":-80.742102,"city":"Warren","state":"OH","address":"2100 Niles Cortland Road SE","name":""},
  {"lat":41.213924,"lon":-80.742102,"city":"Warren","state":"OH","address":"2100 Niles Cortland Road SE","name":""},
  {"lat":41.719192,"lon":-85.971693,"city":"Elkhart","state":"IN","address":"2500 Cassopolis Street","name":""},
  {"lat":41.719192,"lon":-85.971693,"city":"Elkhart","state":"IN","address":"2500 Cassopolis Street","name":""},
  {"lat":42.842348,"lon":-85.530136,"city":"Caledonia","state":"MI","address":"6700 Broadmoor Ave. SE","name":""},
  {"lat":42.842348,"lon":-85.530136,"city":"Caledonia","state":"MI","address":"6700 Broadmoor Ave. SE","name":""},
  {"lat":44.274078,"lon":-84.274362,"city":"West Branch","state":"MI","address":"3691 M-55","name":""},
  {"lat":44.274078,"lon":-84.274362,"city":"West Branch","state":"MI","address":"3691 M-55","name":""},
  {"lat":40.846435,"lon":-81.442206,"city":"Canton","state":"OH","address":"4934 Fulton Drive NW","name":""},
  {"lat":40.846435,"lon":-81.442206,"city":"Canton","state":"OH","address":"4934 Fulton Drive NW","name":""},
  {"lat":42.66849,"lon":-84.54089,"city":"Lansing","state":"MI","address":"6200 S Pennsylvania Ave","name":""},
  {"lat":42.66849,"lon":-84.54089,"city":"Lansing","state":"MI","address":"6200 S Pennsylvania Ave","name":""},
  {"lat":42.66849,"lon":-84.54089,"city":"Lansing","state":"MI","address":"6200 S Pennsylvania Ave","name":""},
  {"lat":41.236212,"lon":-81.821679,"city":"Brunswick","state":"OH","address":"3800 Center Road","name":""},
  {"lat":41.236212,"lon":-81.821679,"city":"Brunswick","state":"OH","address":"3800 Center Road","name":""},
  {"lat":41.35671,"lon":-81.682283,"city":"Seven Hills","state":"OH","address":"7701 Broadview Road","name":""},
  {"lat":41.35671,"lon":-81.682283,"city":"Seven Hills","state":"OH","address":"7701 Broadview Road","name":""},
  {"lat":41.026778,"lon":-80.707372,"city":"Boardman","state":"OH","address":"1400 Boardman-Canfield Road","name":""},
  {"lat":41.026778,"lon":-80.707372,"city":"Boardman","state":"OH","address":"1400 Boardman-Canfield Road","name":""},
  {"lat":40.041006,"lon":-86.162546,"city":"Westfield","state":"IN","address":"225 W Spring Mill Pointe Drive","name":""},
  {"lat":40.041006,"lon":-86.162546,"city":"Westfield","state":"IN","address":"225 W Spring Mill Pointe Drive","name":""},
  {"lat":41.420377,"lon":-82.209586,"city":"Lorain","state":"OH","address":"5350 Leavitt Rd","name":""},
  {"lat":41.420377,"lon":-82.209586,"city":"Lorain","state":"OH","address":"5350 Leavitt Rd","name":""},
  {"lat":41.100928,"lon":-81.384076,"city":"Kent","state":"OH","address":"219 Tallmadge Rd","name":""},
  {"lat":41.100928,"lon":-81.384076,"city":"Kent","state":"OH","address":"219 Tallmadge Rd","name":""},
  {"lat":42.29455,"lon":-85.23586,"city":"Battle Creek","state":"MI","address":"2191 Columbia Avenue West","name":""},
  {"lat":42.29455,"lon":-85.23586,"city":"Battle Creek","state":"MI","address":"2191 Columbia Avenue West","name":""},
  {"lat":42.29455,"lon":-85.23586,"city":"Battle Creek","state":"MI","address":"2191 Columbia Avenue West","name":""},
  {"lat":43.824411,"lon":-83.001781,"city":"Bad Axe","state":"MI","address":"100 Pigeon Rd","name":""},
  {"lat":43.824411,"lon":-83.001781,"city":"Bad Axe","state":"MI","address":"100 Pigeon Rd","name":""},
  {"lat":41.176045,"lon":-85.089672,"city":"Fort Wayne","state":"IN","address":"4242 East Dupont Road","name":""},
  {"lat":41.176045,"lon":-85.089672,"city":"Fort Wayne","state":"IN","address":"4242 East Dupont Road","name":""},
  {"lat":41.983905,"lon":-88.709653,"city":"Sycamore","state":"IL","address":"541 Puri Pkwy","name":""},
  {"lat":41.983905,"lon":-88.709653,"city":"Sycamore","state":"IL","address":"541 Puri Pkwy","name":""},
  {"lat":42.91086,"lon":-85.62921,"city":"Grand Rapids","state":"MI","address":"1540 28th Street SE","name":""},
  {"lat":42.91086,"lon":-85.62921,"city":"Grand Rapids","state":"MI","address":"1540 28th Street SE","name":""},
  {"lat":42.91086,"lon":-85.62921,"city":"Grand Rapids","state":"MI","address":"1540 28th Street SE","name":""},
  {"lat":43.03388,"lon":-85.62809,"city":"Grand Rapids","state":"MI","address":"3757 Plainfield Ave. NE","name":""},
  {"lat":43.03388,"lon":-85.62809,"city":"Grand Rapids","state":"MI","address":"3757 Plainfield Ave. NE","name":""},
  {"lat":43.03388,"lon":-85.62809,"city":"Grand Rapids","state":"MI","address":"3757 Plainfield Ave. NE","name":""},
  {"lat":43.47002,"lon":-85.98219,"city":"Fremont","state":"MI","address":"4665 South Green Ave","name":""},
  {"lat":43.47002,"lon":-85.98219,"city":"Fremont","state":"MI","address":"4665 South Green Ave","name":""},
  {"lat":41.674429,"lon":-81.313363,"city":"Mentor","state":"OH","address":"9200 Mentor Ave","name":""},
  {"lat":41.674429,"lon":-81.313363,"city":"Mentor","state":"OH","address":"9200 Mentor Ave","name":""},
  {"lat":41.46141,"lon":-81.9921,"city":"Avon","state":"OH","address":"1810 Nagel Road","name":""},
  {"lat":41.46141,"lon":-81.9921,"city":"Avon","state":"OH","address":"1810 Nagel Road","name":""},
  {"lat":41.15928,"lon":-81.40501,"city":"Stow","state":"OH","address":"4303 Kent Road","name":""},
  {"lat":41.15928,"lon":-81.40501,"city":"Stow","state":"OH","address":"4303 Kent Road","name":""},
  {"lat":42.48024,"lon":-82.98904,"city":"Warren","state":"MI","address":"25225 Schoenherr Rd.","name":""},
  {"lat":42.48024,"lon":-82.98904,"city":"Warren","state":"MI","address":"25225 Schoenherr Rd.","name":""},
  {"lat":43.752303,"lon":-87.753616,"city":"Sheboygan","state":"WI","address":"924 North Taylor Drive","name":""},
  {"lat":43.752303,"lon":-87.753616,"city":"Sheboygan","state":"WI","address":"924 North Taylor Drive","name":""},
  {"lat":44.077078,"lon":-87.708923,"city":"Manitowoc","state":"WI","address":"1818 S Rapids Road","name":""},
  {"lat":44.077078,"lon":-87.708923,"city":"Manitowoc","state":"WI","address":"1818 S Rapids Road","name":""},
  {"lat":42.94601,"lon":-85.07762,"city":"Ionia","state":"MI","address":"2770 S State Rd","name":""},
  {"lat":42.94601,"lon":-85.07762,"city":"Ionia","state":"MI","address":"2770 S State Rd","name":""},
  {"lat":42.94601,"lon":-85.07762,"city":"Ionia","state":"MI","address":"2770 S State Rd","name":""},
  {"lat":46.55293,"lon":-87.47132,"city":"Marquette","state":"MI","address":"3630 US-41 West","name":""},
  {"lat":46.55293,"lon":-87.47132,"city":"Marquette","state":"MI","address":"3630 US-41 West","name":""},
  {"lat":41.15906,"lon":-87.84713,"city":"Bradley","state":"IL","address":"990 N. Bradley Blvd.","name":""},
  {"lat":41.15906,"lon":-87.84713,"city":"Bradley","state":"IL","address":"990 N. Bradley Blvd.","name":""},
  {"lat":44.299718,"lon":-88.420657,"city":"Appleton","state":"WI","address":"3801 N. Richmond Street","name":""},
  {"lat":44.299718,"lon":-88.420657,"city":"Appleton","state":"WI","address":"3801 N. Richmond Street","name":""},
  {"lat":43.39397,"lon":-88.1845,"city":"West Bend","state":"WI","address":"2180 S. Main Street","name":""},
  {"lat":43.39397,"lon":-88.1845,"city":"West Bend","state":"WI","address":"2180 S. Main Street","name":""},
  {"lat":41.47272,"lon":-87.01855,"city":"Valparaiso","state":"IN","address":"405 Porters Vale Boulevard","name":""},
  {"lat":41.47272,"lon":-87.01855,"city":"Valparaiso","state":"IN","address":"405 Porters Vale Boulevard","name":""},
  {"lat":39.88541,"lon":-85.93526,"city":"McCordsville","state":"IN","address":"6939 W. Broadway","name":""},
  {"lat":39.88541,"lon":-85.93526,"city":"McCordsville","state":"IN","address":"6939 W. Broadway","name":""},
  {"lat":39.88541,"lon":-85.93526,"city":"McCordsville","state":"IN","address":"6939 W. Broadway","name":""},
  {"lat":39.50555,"lon":-86.07333,"city":"Franklin","state":"IN","address":"2390 N. Morton St.","name":""},
  {"lat":39.50555,"lon":-86.07333,"city":"Franklin","state":"IN","address":"2390 N. Morton St.","name":""},
  {"lat":39.50555,"lon":-86.07333,"city":"Franklin","state":"IN","address":"2390 N. Morton St.","name":""},
  {"lat":44.53478,"lon":-88.07721,"city":"Howard","state":"WI","address":"2015 Shawano Ave","name":""},
  {"lat":44.53478,"lon":-88.07721,"city":"Howard","state":"WI","address":"2015 Shawano Ave","name":""},
  {"lat":45.752071,"lon":-87.090031,"city":"Escanaba","state":"MI","address":"505 N. 26th Street","name":""},
  {"lat":45.752071,"lon":-87.090031,"city":"Escanaba","state":"MI","address":"505 N. 26th Street","name":""},
  {"lat":45.752071,"lon":-87.090031,"city":"Escanaba","state":"MI","address":"505 N. 26th Street","name":""},
  {"lat":46.46565,"lon":-84.38769,"city":"Sault Sainte Marie","state":"MI","address":"1138 W. 3 Mile Road","name":""},
  {"lat":46.46565,"lon":-84.38769,"city":"Sault Sainte Marie","state":"MI","address":"1138 W. 3 Mile Road","name":""},
  {"lat":46.46565,"lon":-84.38769,"city":"Sault Sainte Marie","state":"MI","address":"1138 W. 3 Mile Road","name":""},
  {"lat":42.96129,"lon":-87.98633,"city":"Greenfield","state":"WI","address":"5800 W. Layton Ave.","name":""},
  {"lat":42.96129,"lon":-87.98633,"city":"Greenfield","state":"WI","address":"5800 W. Layton Ave.","name":""},
  {"lat":42.96129,"lon":-87.98633,"city":"Greenfield","state":"WI","address":"5800 W. Layton Ave.","name":""},
  {"lat":41.78661,"lon":-85.42448,"city":"Sturgis","state":"MI","address":"408 W South St","name":""},
  {"lat":41.78661,"lon":-85.42448,"city":"Sturgis","state":"MI","address":"408 W South St","name":""},
  {"lat":41.78661,"lon":-85.42448,"city":"Sturgis","state":"MI","address":"408 W South St","name":""},
  {"lat":39.85345,"lon":-86.12428,"city":"Indianapolis","state":"IN","address":"5550 N Keystone Ave","name":""},
  {"lat":39.85345,"lon":-86.12428,"city":"Indianapolis","state":"IN","address":"5550 N Keystone Ave","name":""},
  {"lat":42.38161,"lon":-88.06601,"city":"Round Lake Beach","state":"IL","address":"750 E Rollins Rd","name":""},
  {"lat":42.38161,"lon":-88.06601,"city":"Round Lake Beach","state":"IL","address":"750 E Rollins Rd","name":""},
  {"lat":42.38161,"lon":-88.06601,"city":"Round Lake Beach","state":"IL","address":"750 E Rollins Rd","name":""},
  {"lat":37.7558,"lon":-87.07569,"city":"Owensboro","state":"KY","address":"2951 Heartland Crossing Blvd","name":""},
  {"lat":37.7558,"lon":-87.07569,"city":"Owensboro","state":"KY","address":"2951 Heartland Crossing Blvd","name":""},
  {"lat":37.7558,"lon":-87.07569,"city":"Owensboro","state":"KY","address":"2951 Heartland Crossing Blvd","name":""},
  {"lat":38.00032,"lon":-87.49569,"city":"Evansville","state":"IN","address":"2622 Menards Dr","name":""},
  {"lat":38.00032,"lon":-87.49569,"city":"Evansville","state":"IN","address":"2622 Menards Dr","name":""},
  {"lat":38.00032,"lon":-87.49569,"city":"Evansville","state":"IN","address":"2622 Menards Dr","name":""},
  {"lat":42.41208,"lon":-83.25276,"city":"Detroit","state":"MI","address":"21431 Grand River Ave","name":""},
  {"lat":42.41208,"lon":-83.25276,"city":"Detroit","state":"MI","address":"21431 Grand River Ave","name":""},
  {"lat":42.41208,"lon":-83.25276,"city":"Detroit","state":"MI","address":"21431 Grand River Ave","name":""},
  {"lat":39.44267,"lon":-87.32991,"city":"Terre Haute","state":"IN","address":"5600 E. New Margaret Dr","name":""},
  {"lat":39.44267,"lon":-87.32991,"city":"Terre Haute","state":"IN","address":"5600 E. New Margaret Dr","name":""},
  {"lat":39.44267,"lon":-87.32991,"city":"Terre Haute","state":"IN","address":"5600 E. New Margaret Dr","name":""},
  {"lat":42.56389,"lon":-87.88517,"city":"Kenosha","state":"WI","address":"7701 Green Bay Rd","name":""},
  {"lat":42.56389,"lon":-87.88517,"city":"Kenosha","state":"WI","address":"7701 Green Bay Rd","name":""},
  {"lat":42.56389,"lon":-87.88517,"city":"Kenosha","state":"WI","address":"7701 Green Bay Rd","name":""},
  {"lat":42.89852,"lon":-87.91479,"city":"Oak Creek","state":"WI","address":"171 W. Town Square Way","name":""},
  {"lat":42.89852,"lon":-87.91479,"city":"Oak Creek","state":"WI","address":"171 W. Town Square Way","name":""},
  {"lat":42.89852,"lon":-87.91479,"city":"Oak Creek","state":"WI","address":"171 W. Town Square Way","name":""},
  {"lat":45.05882,"lon":-83.47492,"city":"Alpena","state":"MI","address":"1251 M-32 W","name":""},
  {"lat":45.05882,"lon":-83.47492,"city":"Alpena","state":"MI","address":"1251 M-32 W","name":""},
  {"lat":45.05882,"lon":-83.47492,"city":"Alpena","state":"MI","address":"1251 M-32 W","name":""},
  {"lat":42.36832,"lon":-89.01142,"city":"Machesney Park","state":"IL","address":"1770 W. Lane Rd","name":""},
  {"lat":42.36832,"lon":-89.01142,"city":"Machesney Park","state":"IL","address":"1770 W. Lane Rd","name":""},
  {"lat":42.36832,"lon":-89.01142,"city":"Machesney Park","state":"IL","address":"1770 W. Lane Rd","name":""},
  {"lat":41.53056,"lon":-87.71057,"city":"Flossmoor","state":"IL","address":"3800 Vollmer Rd","name":""},
  {"lat":41.53056,"lon":-87.71057,"city":"Flossmoor","state":"IL","address":"3800 Vollmer Rd","name":""},
  {"lat":41.53056,"lon":-87.71057,"city":"Flossmoor","state":"IL","address":"3800 Vollmer Rd","name":""},
  {"lat":44.2669,"lon":-86.29521,"city":"Manistee","state":"MI","address":"15 Caberfae Hwy","name":""},
  {"lat":44.2669,"lon":-86.29521,"city":"Manistee","state":"MI","address":"15 Caberfae Hwy","name":""},
  {"lat":44.2669,"lon":-86.29521,"city":"Manistee","state":"MI","address":"15 Caberfae Hwy","name":""},
  {"lat":42.11073,"lon":-83.28936,"city":"Flat Rock","state":"MI","address":"26100 Vreeland Rd","name":""},
  {"lat":42.11073,"lon":-83.28936,"city":"Flat Rock","state":"MI","address":"26100 Vreeland Rd","name":""},
  {"lat":42.11073,"lon":-83.28936,"city":"Flat Rock","state":"MI","address":"26100 Vreeland Rd","name":""},
  {"lat":43.07337,"lon":-88.05079,"city":"Wauwatosa","state":"WI","address":"11111 W. Burleigh","name":""},
  {"lat":43.07337,"lon":-88.05079,"city":"Wauwatosa","state":"WI","address":"11111 W. Burleigh","name":""},
  {"lat":42.98615,"lon":-88.21944,"city":"Waukesha","state":"WI","address":"801 E Sunset Dr","name":""},
  {"lat":42.98615,"lon":-88.21944,"city":"Waukesha","state":"WI","address":"801 E Sunset Dr","name":""},
  {"lat":42.98615,"lon":-88.21944,"city":"Waukesha","state":"WI","address":"801 E Sunset Dr","name":""},
  {"lat":43.11028,"lon":-88.24267,"city":"Pewaukee","state":"WI","address":"N51 W 24953 Lisbon Rd","name":""},
  {"lat":43.11028,"lon":-88.24267,"city":"Pewaukee","state":"WI","address":"N51 W 24953 Lisbon Rd","name":""},
  {"lat":43.11028,"lon":-88.24267,"city":"Pewaukee","state":"WI","address":"N51 W 24953 Lisbon Rd","name":""},
  {"lat":43.31421,"lon":-87.92189,"city":"Grafton","state":"WI","address":"1600 N. Port Washington Road","name":""},
  {"lat":43.31421,"lon":-87.92189,"city":"Grafton","state":"WI","address":"1600 N. Port Washington Road","name":""},
  {"lat":41.49952,"lon":-87.89024,"city":"Mokena","state":"IL","address":"11305 Lincoln Hwy","name":""},
  {"lat":41.49952,"lon":-87.89024,"city":"Mokena","state":"IL","address":"11305 Lincoln Hwy","name":""},
  {"lat":41.49952,"lon":-87.89024,"city":"Mokena","state":"IL","address":"11305 Lincoln Hwy","name":""},
  {"lat":36.9565,"lon":-86.43768,"city":"Bowling Green","state":"KY","address":"1676 Westpark Dr.","name":""},
  {"lat":36.9565,"lon":-86.43768,"city":"Bowling Green","state":"KY","address":"1676 Westpark Dr.","name":""},
  {"lat":42.40655,"lon":-86.25639,"city":"South Haven","state":"MI","address":"1223 Phoenix St.","name":""},
  {"lat":42.40655,"lon":-86.25639,"city":"South Haven","state":"MI","address":"1223 Phoenix St.","name":""},
  {"lat":42.40655,"lon":-86.25639,"city":"South Haven","state":"MI","address":"1223 Phoenix St.","name":""},
  {"lat":43.39834,"lon":-84.66239,"city":"Alma","state":"MI","address":"2805 West Cheesman Road","name":""},
  {"lat":43.39834,"lon":-84.66239,"city":"Alma","state":"MI","address":"2805 West Cheesman Road","name":""},
  {"lat":43.39834,"lon":-84.66239,"city":"Alma","state":"MI","address":"2805 West Cheesman Road","name":""},
  {"lat":40.18768,"lon":-87.62621,"city":"Danville","state":"IL","address":"3649 N. Vermilion St.","name":""},
  {"lat":40.18768,"lon":-87.62621,"city":"Danville","state":"IL","address":"3649 N. Vermilion St.","name":""},
  {"lat":40.18768,"lon":-87.62621,"city":"Danville","state":"IL","address":"3649 N. Vermilion St.","name":""},
  {"lat":42.44436,"lon":-83.11917,"city":"Detroit","state":"MI","address":"1301 W. Eight Mile Rd.","name":""},
  {"lat":42.44436,"lon":-83.11917,"city":"Detroit","state":"MI","address":"1301 W. Eight Mile Rd.","name":""},
  {"lat":42.44436,"lon":-83.11917,"city":"Detroit","state":"MI","address":"1301 W. Eight Mile Rd.","name":""},
  {"lat":39.84929,"lon":-82.77719,"city":"Canal Winchester","state":"OH","address":"8300 Meijer Drive","name":""},
  {"lat":39.84929,"lon":-82.77719,"city":"Canal Winchester","state":"OH","address":"8300 Meijer Drive","name":""},
  {"lat":39.84929,"lon":-82.77719,"city":"Canal Winchester","state":"OH","address":"8300 Meijer Drive","name":""},
  {"lat":42.63875,"lon":-83.74424,"city":"Hartland","state":"MI","address":"2160 Hartland Rd.","name":""},
  {"lat":42.63875,"lon":-83.74424,"city":"Hartland","state":"MI","address":"2160 Hartland Rd.","name":""},
  {"lat":43.01483,"lon":-83.55243,"city":"Davison","state":"MI","address":"8089 Lapeer Road","name":""},
  {"lat":43.01483,"lon":-83.55243,"city":"Davison","state":"MI","address":"8089 Lapeer Road","name":""},
  {"lat":43.01483,"lon":-83.55243,"city":"Davison","state":"MI","address":"8089 Lapeer Road","name":""},
  {"lat":42.59661,"lon":-82.90371,"city":"Clinton","state":"MI","address":"40445 S Groesbeck Hwy.","name":""},
  {"lat":42.59661,"lon":-82.90371,"city":"Clinton","state":"MI","address":"40445 S Groesbeck Hwy.","name":""},
  {"lat":42.59661,"lon":-82.90371,"city":"Clinton","state":"MI","address":"40445 S Groesbeck Hwy.","name":""},
  {"lat":42.72267,"lon":-82.74117,"city":"New Haven","state":"MI","address":"36865 26 Mile Rd.","name":""},
  {"lat":42.72267,"lon":-82.74117,"city":"New Haven","state":"MI","address":"36865 26 Mile Rd.","name":""},
  {"lat":42.72267,"lon":-82.74117,"city":"New Haven","state":"MI","address":"36865 26 Mile Rd.","name":""},
  {"lat":39.86892,"lon":-84.10329,"city":"Huber Heights","state":"OH","address":"7150 Executive Blvd.","name":""},
  {"lat":39.86892,"lon":-84.10329,"city":"Huber Heights","state":"OH","address":"7150 Executive Blvd.","name":""},
  {"lat":39.86892,"lon":-84.10329,"city":"Huber Heights","state":"OH","address":"7150 Executive Blvd.","name":""},
  {"lat":39.25101,"lon":-84.60372,"city":"Cincinnati","state":"OH","address":"3711 Stonecreek Blvd","name":""},
  {"lat":39.25101,"lon":-84.60372,"city":"Cincinnati","state":"OH","address":"3711 Stonecreek Blvd","name":""},
  {"lat":41.69953,"lon":-88.3105,"city":"Oswego","state":"IL","address":"2700 Route 34","name":""},
  {"lat":41.69953,"lon":-88.3105,"city":"Oswego","state":"IL","address":"2700 Route 34","name":""},
  {"lat":41.69953,"lon":-88.3105,"city":"Oswego","state":"IL","address":"2700 Route 34","name":""},
  {"lat":42.50993,"lon":-83.04945,"city":"Warren","state":"MI","address":"29505 Mound Rd.","name":""},
  {"lat":42.50993,"lon":-83.04945,"city":"Warren","state":"MI","address":"29505 Mound Rd.","name":""},
  {"lat":42.50993,"lon":-83.04945,"city":"Warren","state":"MI","address":"29505 Mound Rd.","name":""},
  {"lat":44.77069,"lon":-85.47693,"city":"Williamsburg","state":"MI","address":"4900 M 72 E","name":""},
  {"lat":44.77069,"lon":-85.47693,"city":"Williamsburg","state":"MI","address":"4900 M 72 E","name":""},
  {"lat":40.22829,"lon":-83.337,"city":"Marysville","state":"OH","address":"930 Colemans Crossing Blvd","name":""},
  {"lat":40.22829,"lon":-83.337,"city":"Marysville","state":"OH","address":"930 Colemans Crossing Blvd","name":""},
  {"lat":39.83666,"lon":-83.0807,"city":"Grove City","state":"OH","address":"2811 London-Groveport Road","name":""},
  {"lat":39.83666,"lon":-83.0807,"city":"Grove City","state":"OH","address":"2811 London-Groveport Road","name":""},
  {"lat":39.83666,"lon":-83.0807,"city":"Grove City","state":"OH","address":"2811 London-Groveport Road","name":""},
  {"lat":42.27891,"lon":-83.20402,"city":"Allen Park","state":"MI","address":"3565 Fairlane Blvd.","name":""},
  {"lat":42.27891,"lon":-83.20402,"city":"Allen Park","state":"MI","address":"3565 Fairlane Blvd.","name":""},
  {"lat":43.15671,"lon":-86.20184,"city":"Muskegon","state":"MI","address":"5300 S Harvey St","name":""},
  {"lat":43.15671,"lon":-86.20184,"city":"Muskegon","state":"MI","address":"5300 S Harvey St","name":""},
  {"lat":43.15671,"lon":-86.20184,"city":"Muskegon","state":"MI","address":"5300 S Harvey St","name":""},
  {"lat":42.5003,"lon":-83.28232,"city":"Southfield","state":"MI","address":"28800 Telegraph Rd","name":""},
  {"lat":42.5003,"lon":-83.28232,"city":"Southfield","state":"MI","address":"28800 Telegraph Rd","name":""},
  {"lat":40.03536,"lon":-85.99134,"city":"Noblesville","state":"IN","address":"17000 Mercantile Blvd.","name":""},
  {"lat":40.03536,"lon":-85.99134,"city":"Noblesville","state":"IN","address":"17000 Mercantile Blvd.","name":""},
  {"lat":40.03536,"lon":-85.99134,"city":"Noblesville","state":"IN","address":"17000 Mercantile Blvd.","name":""},
  {"lat":42.90889,"lon":-82.49725,"city":"Marysville","state":"MI","address":"205 S Range Rd","name":""},
  {"lat":42.90889,"lon":-82.49725,"city":"Marysville","state":"MI","address":"205 S Range Rd","name":""},
  {"lat":42.90889,"lon":-82.49725,"city":"Marysville","state":"MI","address":"205 S Range Rd","name":""},
  {"lat":42.04793,"lon":-87.99621,"city":"Rolling Meadows","state":"IL","address":"1301 Meijer Drive","name":""},
  {"lat":42.04793,"lon":-87.99621,"city":"Rolling Meadows","state":"IL","address":"1301 Meijer Drive","name":""},
  {"lat":42.04793,"lon":-87.99621,"city":"Rolling Meadows","state":"IL","address":"1301 Meijer Drive","name":""},
  {"lat":42.65184,"lon":-83.53177,"city":"White Lake","state":"MI","address":"6001 Highland Rd","name":""},
  {"lat":42.65184,"lon":-83.53177,"city":"White Lake","state":"MI","address":"6001 Highland Rd","name":""},
  {"lat":42.65184,"lon":-83.53177,"city":"White Lake","state":"MI","address":"6001 Highland Rd","name":""},
  {"lat":43.12001,"lon":-85.6023,"city":"Rockford","state":"MI","address":"2799 10 Mile Rd NE","name":""},
  {"lat":43.12001,"lon":-85.6023,"city":"Rockford","state":"MI","address":"2799 10 Mile Rd NE","name":""},
  {"lat":43.12001,"lon":-85.6023,"city":"Rockford","state":"MI","address":"2799 10 Mile Rd NE","name":""},
  {"lat":39.19468,"lon":-84.6577,"city":"Cincinnati","state":"OH","address":"6550 Harrison Ave","name":""},
  {"lat":39.19468,"lon":-84.6577,"city":"Cincinnati","state":"OH","address":"6550 Harrison Ave","name":""},
  {"lat":39.16164,"lon":-84.42774,"city":"Cincinnati","state":"OH","address":"3195 Geier Drive","name":""},
  {"lat":39.16164,"lon":-84.42774,"city":"Cincinnati","state":"OH","address":"3195 Geier Drive","name":""},
  {"lat":42.52309,"lon":-83.09735,"city":"Madison Heights","state":"MI","address":"1005 E. Thirteen Mile Rd","name":""},
  {"lat":42.52309,"lon":-83.09735,"city":"Madison Heights","state":"MI","address":"1005 E. Thirteen Mile Rd","name":""},
  {"lat":42.52309,"lon":-83.09735,"city":"Madison Heights","state":"MI","address":"1005 E. Thirteen Mile Rd","name":""},
  {"lat":42.87972,"lon":-85.74854,"city":"Grandville","state":"MI","address":"3434 Century Center Dr SW","name":""},
  {"lat":42.87972,"lon":-85.74854,"city":"Grandville","state":"MI","address":"3434 Century Center Dr SW","name":""},
  {"lat":38.34931,"lon":-85.793,"city":"New Albany","state":"IN","address":"4222 Charlestown Rd","name":""},
  {"lat":38.34931,"lon":-85.793,"city":"New Albany","state":"IN","address":"4222 Charlestown Rd","name":""},
  {"lat":38.34931,"lon":-85.793,"city":"New Albany","state":"IN","address":"4222 Charlestown Rd","name":""},
  {"lat":41.63132,"lon":-87.92776,"city":"Homer Glen","state":"IL","address":"14169 S. Bell Rd","name":""},
  {"lat":41.63132,"lon":-87.92776,"city":"Homer Glen","state":"IL","address":"14169 S. Bell Rd","name":""},
  {"lat":41.63132,"lon":-87.92776,"city":"Homer Glen","state":"IL","address":"14169 S. Bell Rd","name":""},
  {"lat":42.35994,"lon":-88.27085,"city":"McHenry","state":"IL","address":"2253 N Richmond Rd","name":""},
  {"lat":42.35994,"lon":-88.27085,"city":"McHenry","state":"IL","address":"2253 N Richmond Rd","name":""},
  {"lat":42.35994,"lon":-88.27085,"city":"McHenry","state":"IL","address":"2253 N Richmond Rd","name":""},
  {"lat":42.82893,"lon":-86.09048,"city":"Holland","state":"MI","address":"3320 West Shore Drive","name":""},
  {"lat":42.82893,"lon":-86.09048,"city":"Holland","state":"MI","address":"3320 West Shore Drive","name":""},
  {"lat":42.82893,"lon":-86.09048,"city":"Holland","state":"MI","address":"3320 West Shore Drive","name":""},
  {"lat":42.96997,"lon":-85.77912,"city":"Grand Rapids","state":"MI","address":"315 Wilson Ave","name":""},
  {"lat":42.96997,"lon":-85.77912,"city":"Grand Rapids","state":"MI","address":"315 Wilson Ave","name":""},
  {"lat":42.96997,"lon":-85.77912,"city":"Grand Rapids","state":"MI","address":"315 Wilson Ave","name":""},
  {"lat":41.72135,"lon":-88.03577,"city":"Bolingbrook","state":"IL","address":"755 E Boughton Rd","name":""},
  {"lat":41.72135,"lon":-88.03577,"city":"Bolingbrook","state":"IL","address":"755 E Boughton Rd","name":""},
  {"lat":41.72135,"lon":-88.03577,"city":"Bolingbrook","state":"IL","address":"755 E Boughton Rd","name":""},
  {"lat":41.635,"lon":-88.19971,"city":"Plainfield","state":"IL","address":"13521 South Route 59","name":""},
  {"lat":41.635,"lon":-88.19971,"city":"Plainfield","state":"IL","address":"13521 South Route 59","name":""},
  {"lat":41.635,"lon":-88.19971,"city":"Plainfield","state":"IL","address":"13521 South Route 59","name":""},
  {"lat":43.25295,"lon":-83.76533,"city":"Birch Run","state":"MI","address":"9515 Birch Run Rd","name":""},
  {"lat":43.25295,"lon":-83.76533,"city":"Birch Run","state":"MI","address":"9515 Birch Run Rd","name":""},
  {"lat":43.25295,"lon":-83.76533,"city":"Birch Run","state":"MI","address":"9515 Birch Run Rd","name":""},
  {"lat":39.98831,"lon":-82.78815,"city":"Reynoldsburg","state":"OH","address":"8000 E Broad St","name":""},
  {"lat":39.98831,"lon":-82.78815,"city":"Reynoldsburg","state":"OH","address":"8000 E Broad St","name":""},
  {"lat":39.98831,"lon":-82.78815,"city":"Reynoldsburg","state":"OH","address":"8000 E Broad St","name":""},
  {"lat":41.54709,"lon":-83.58875,"city":"Rossford","state":"OH","address":"10055 Olde US 20","name":""},
  {"lat":41.54709,"lon":-83.58875,"city":"Rossford","state":"OH","address":"10055 Olde US 20","name":""},
  {"lat":41.54709,"lon":-83.58875,"city":"Rossford","state":"OH","address":"10055 Olde US 20","name":""},
  {"lat":42.73814,"lon":-84.74153,"city":"Grand Ledge","state":"MI","address":"730 E Saginaw Hwy","name":""},
  {"lat":42.73814,"lon":-84.74153,"city":"Grand Ledge","state":"MI","address":"730 E Saginaw Hwy","name":""},
  {"lat":42.73814,"lon":-84.74153,"city":"Grand Ledge","state":"MI","address":"730 E Saginaw Hwy","name":""},
  {"lat":42.82917,"lon":-84.53699,"city":"DeWitt","state":"MI","address":"12821 Crossover Drive","name":""},
  {"lat":42.82917,"lon":-84.53699,"city":"DeWitt","state":"MI","address":"12821 Crossover Drive","name":""},
  {"lat":42.82917,"lon":-84.53699,"city":"DeWitt","state":"MI","address":"12821 Crossover Drive","name":""},
  {"lat":42.23204,"lon":-83.19627,"city":"Lincoln Park","state":"MI","address":"3710 Dix Highway","name":""},
  {"lat":42.23204,"lon":-83.19627,"city":"Lincoln Park","state":"MI","address":"3710 Dix Highway","name":""},
  {"lat":40.51259,"lon":-88.94639,"city":"Normal","state":"IL","address":"1900 E College Avenue","name":""},
  {"lat":40.51259,"lon":-88.94639,"city":"Normal","state":"IL","address":"1900 E College Avenue","name":""},
  {"lat":40.51259,"lon":-88.94639,"city":"Normal","state":"IL","address":"1900 E College Avenue","name":""},
  {"lat":42.17037,"lon":-88.3385,"city":"Algonquin","state":"IL","address":"400 S. Randall Road","name":""},
  {"lat":42.17037,"lon":-88.3385,"city":"Algonquin","state":"IL","address":"400 S. Randall Road","name":""},
  {"lat":42.17037,"lon":-88.3385,"city":"Algonquin","state":"IL","address":"400 S. Randall Road","name":""},
  {"lat":42.93333,"lon":-85.37452,"city":"Lowell","state":"MI","address":"11901 Fulton St","name":""},
  {"lat":42.93333,"lon":-85.37452,"city":"Lowell","state":"MI","address":"11901 Fulton St","name":""},
  {"lat":42.93333,"lon":-85.37452,"city":"Lowell","state":"MI","address":"11901 Fulton St","name":""},
  {"lat":39.63775,"lon":-86.33566,"city":"Camby","state":"IN","address":"10509 Heartland Blvd","name":""},
  {"lat":39.63775,"lon":-86.33566,"city":"Camby","state":"IN","address":"10509 Heartland Blvd","name":""},
  {"lat":39.63775,"lon":-86.33566,"city":"Camby","state":"IN","address":"10509 Heartland Blvd","name":""},
  {"lat":43.17452,"lon":-85.27715,"city":"Greenville","state":"MI","address":"606 S Greenville West Drive","name":""},
  {"lat":43.17452,"lon":-85.27715,"city":"Greenville","state":"MI","address":"606 S Greenville West Drive","name":""},
  {"lat":43.17452,"lon":-85.27715,"city":"Greenville","state":"MI","address":"606 S Greenville West Drive","name":""},
  {"lat":43.69092,"lon":-85.51693,"city":"Big Rapids","state":"MI","address":"15400 Waldron Way","name":""},
  {"lat":43.69092,"lon":-85.51693,"city":"Big Rapids","state":"MI","address":"15400 Waldron Way","name":""},
  {"lat":43.69092,"lon":-85.51693,"city":"Big Rapids","state":"MI","address":"15400 Waldron Way","name":""},
  {"lat":42.84628,"lon":-85.61958,"city":"Caledonia","state":"MI","address":"1801 Marketplace Dr","name":""},
  {"lat":42.84628,"lon":-85.61958,"city":"Caledonia","state":"MI","address":"1801 Marketplace Dr","name":""},
  {"lat":41.95529,"lon":-88.12283,"city":"Bloomingdale","state":"IL","address":"130 S Gary Ave","name":""},
  {"lat":41.95529,"lon":-88.12283,"city":"Bloomingdale","state":"IL","address":"130 S Gary Ave","name":""},
  {"lat":41.95529,"lon":-88.12283,"city":"Bloomingdale","state":"IL","address":"130 S Gary Ave","name":""},
  {"lat":42.84023,"lon":-83.27064,"city":"Oxford","state":"MI","address":"900 N Lapeer Rd","name":""},
  {"lat":42.84023,"lon":-83.27064,"city":"Oxford","state":"MI","address":"900 N Lapeer Rd","name":""},
  {"lat":42.84023,"lon":-83.27064,"city":"Oxford","state":"MI","address":"900 N Lapeer Rd","name":""},
  {"lat":42.18884,"lon":-85.60385,"city":"Portage","state":"MI","address":"8850 Shaver Rd","name":""},
  {"lat":42.18884,"lon":-85.60385,"city":"Portage","state":"MI","address":"8850 Shaver Rd","name":""},
  {"lat":42.18884,"lon":-85.60385,"city":"Portage","state":"MI","address":"8850 Shaver Rd","name":""},
  {"lat":42.26346,"lon":-85.17274,"city":"Battle Creek","state":"MI","address":"6405 B Drive North","name":""},
  {"lat":42.26346,"lon":-85.17274,"city":"Battle Creek","state":"MI","address":"6405 B Drive North","name":""},
  {"lat":42.26346,"lon":-85.17274,"city":"Battle Creek","state":"MI","address":"6405 B Drive North","name":""},
  {"lat":42.55542,"lon":-84.81423,"city":"Charlotte","state":"MI","address":"1167 E Clinton Trail","name":""},
  {"lat":42.55542,"lon":-84.81423,"city":"Charlotte","state":"MI","address":"1167 E Clinton Trail","name":""},
  {"lat":42.55542,"lon":-84.81423,"city":"Charlotte","state":"MI","address":"1167 E Clinton Trail","name":""},
  {"lat":43.95872,"lon":-86.37721,"city":"Ludington","state":"MI","address":"3900 W US 10","name":""},
  {"lat":43.95872,"lon":-86.37721,"city":"Ludington","state":"MI","address":"3900 W US 10","name":""},
  {"lat":43.95872,"lon":-86.37721,"city":"Ludington","state":"MI","address":"3900 W US 10","name":""},
  {"lat":42.29278,"lon":-88.97607,"city":"Rockford","state":"IL","address":"2013 McFarland Rd","name":""},
  {"lat":42.29278,"lon":-88.97607,"city":"Rockford","state":"IL","address":"2013 McFarland Rd","name":""},
  {"lat":42.29278,"lon":-88.97607,"city":"Rockford","state":"IL","address":"2013 McFarland Rd","name":""},
  {"lat":42.45234,"lon":-85.66019,"city":"Plainwell","state":"MI","address":"1195 M-89","name":""},
  {"lat":42.45234,"lon":-85.66019,"city":"Plainwell","state":"MI","address":"1195 M-89","name":""},
  {"lat":42.45234,"lon":-85.66019,"city":"Plainwell","state":"MI","address":"1195 M-89","name":""},
  {"lat":41.66932,"lon":-84.9965,"city":"Angola","state":"IN","address":"2990 N Wayne St","name":""},
  {"lat":41.66932,"lon":-84.9965,"city":"Angola","state":"IN","address":"2990 N Wayne St","name":""},
  {"lat":41.66932,"lon":-84.9965,"city":"Angola","state":"IN","address":"2990 N Wayne St","name":""},
  {"lat":41.31017,"lon":-84.35736,"city":"Defiance","state":"OH","address":"137 Elliot Rd","name":""},
  {"lat":41.31017,"lon":-84.35736,"city":"Defiance","state":"OH","address":"137 Elliot Rd","name":""},
  {"lat":41.31017,"lon":-84.35736,"city":"Defiance","state":"OH","address":"137 Elliot Rd","name":""},
  {"lat":42.37756,"lon":-83.33077,"city":"Livonia","state":"MI","address":"13000 Middlebelt Rd","name":""},
  {"lat":42.37756,"lon":-83.33077,"city":"Livonia","state":"MI","address":"13000 Middlebelt Rd","name":""},
  {"lat":43.58276,"lon":-83.83933,"city":"Bay City","state":"MI","address":"595 N Pine Rd","name":""},
  {"lat":43.58276,"lon":-83.83933,"city":"Bay City","state":"MI","address":"595 N Pine Rd","name":""},
  {"lat":43.58276,"lon":-83.83933,"city":"Bay City","state":"MI","address":"595 N Pine Rd","name":""},
  {"lat":40.47001,"lon":-86.95677,"city":"West Lafayette","state":"IN","address":"2636 US 52","name":""},
  {"lat":40.47001,"lon":-86.95677,"city":"West Lafayette","state":"IN","address":"2636 US 52","name":""},
  {"lat":40.47001,"lon":-86.95677,"city":"West Lafayette","state":"IN","address":"2636 US 52","name":""},
  {"lat":42.70579,"lon":-83.28707,"city":"Auburn Hills","state":"MI","address":"800 Brown Rd","name":""},
  {"lat":42.70579,"lon":-83.28707,"city":"Auburn Hills","state":"MI","address":"800 Brown Rd","name":""},
  {"lat":42.70579,"lon":-83.28707,"city":"Auburn Hills","state":"MI","address":"800 Brown Rd","name":""},
  {"lat":37.99632,"lon":-84.53117,"city":"Lexington","state":"KY","address":"351 Meijer Way","name":""},
  {"lat":37.99632,"lon":-84.53117,"city":"Lexington","state":"KY","address":"351 Meijer Way","name":""},
  {"lat":37.99632,"lon":-84.53117,"city":"Lexington","state":"KY","address":"351 Meijer Way","name":""},
  {"lat":42.01198,"lon":-88.33384,"city":"Elgin","state":"IL","address":"815 S. Randall Road","name":""},
  {"lat":42.01198,"lon":-88.33384,"city":"Elgin","state":"IL","address":"815 S. Randall Road","name":""},
  {"lat":42.01198,"lon":-88.33384,"city":"Elgin","state":"IL","address":"815 S. Randall Road","name":""},
  {"lat":41.90089,"lon":-88.34369,"city":"St. Charles","state":"IL","address":"855 S Randall Rd","name":""},
  {"lat":41.90089,"lon":-88.34369,"city":"St. Charles","state":"IL","address":"855 S Randall Rd","name":""},
  {"lat":41.90089,"lon":-88.34369,"city":"St. Charles","state":"IL","address":"855 S Randall Rd","name":""},
  {"lat":40.15069,"lon":-82.92539,"city":"Westerville","state":"OH","address":"100 Polaris Pkwy","name":""},
  {"lat":40.15069,"lon":-82.92539,"city":"Westerville","state":"OH","address":"100 Polaris Pkwy","name":""},
  {"lat":40.15069,"lon":-82.92539,"city":"Westerville","state":"OH","address":"100 Polaris Pkwy","name":""},
  {"lat":43.03936,"lon":-86.21678,"city":"Grand Haven","state":"MI","address":"15000 US 31","name":""},
  {"lat":43.03936,"lon":-86.21678,"city":"Grand Haven","state":"MI","address":"15000 US 31","name":""},
  {"lat":43.03936,"lon":-86.21678,"city":"Grand Haven","state":"MI","address":"15000 US 31","name":""},
  {"lat":41.93763,"lon":-84.95941,"city":"Coldwater","state":"MI","address":"620 E Chicago Rd","name":""},
  {"lat":41.93763,"lon":-84.95941,"city":"Coldwater","state":"MI","address":"620 E Chicago Rd","name":""},
  {"lat":41.93763,"lon":-84.95941,"city":"Coldwater","state":"MI","address":"620 E Chicago Rd","name":""},
  {"lat":41.76793,"lon":-88.20944,"city":"Aurora","state":"IL","address":"808 N Route 59","name":""},
  {"lat":41.76793,"lon":-88.20944,"city":"Aurora","state":"IL","address":"808 N Route 59","name":""},
  {"lat":41.76793,"lon":-88.20944,"city":"Aurora","state":"IL","address":"808 N Route 59","name":""},
  {"lat":42.71622,"lon":-83.03212,"city":"Washington","state":"MI","address":"8401 26 Mile Rd","name":""},
  {"lat":42.71622,"lon":-83.03212,"city":"Washington","state":"MI","address":"8401 26 Mile Rd","name":""},
  {"lat":42.71622,"lon":-83.03212,"city":"Washington","state":"MI","address":"8401 26 Mile Rd","name":""},
  {"lat":39.73834,"lon":-89.70171,"city":"Springfield","state":"IL","address":"4200 Conestoga Dr","name":""},
  {"lat":39.73834,"lon":-89.70171,"city":"Springfield","state":"IL","address":"4200 Conestoga Dr","name":""},
  {"lat":39.73834,"lon":-89.70171,"city":"Springfield","state":"IL","address":"4200 Conestoga Dr","name":""},
  {"lat":41.93409,"lon":-85.65505,"city":"Three Rivers","state":"MI","address":"800 US 131","name":""},
  {"lat":41.93409,"lon":-85.65505,"city":"Three Rivers","state":"MI","address":"800 US 131","name":""},
  {"lat":41.93409,"lon":-85.65505,"city":"Three Rivers","state":"MI","address":"800 US 131","name":""},
  {"lat":42.56557,"lon":-84.44555,"city":"Mason","state":"MI","address":"550 Hull Rd","name":""},
  {"lat":42.56557,"lon":-84.44555,"city":"Mason","state":"MI","address":"550 Hull Rd","name":""},
  {"lat":42.56557,"lon":-84.44555,"city":"Mason","state":"MI","address":"550 Hull Rd","name":""},
  {"lat":42.28568,"lon":-83.84169,"city":"Ann Arbor","state":"MI","address":"5645 Jackson Rd","name":""},
  {"lat":42.28568,"lon":-83.84169,"city":"Ann Arbor","state":"MI","address":"5645 Jackson Rd","name":""},
  {"lat":42.28568,"lon":-83.84169,"city":"Ann Arbor","state":"MI","address":"5645 Jackson Rd","name":""},
  {"lat":44.28397,"lon":-85.40483,"city":"Cadillac","state":"MI","address":"8605 E 34 Rd","name":""},
  {"lat":44.28397,"lon":-85.40483,"city":"Cadillac","state":"MI","address":"8605 E 34 Rd","name":""},
  {"lat":44.28397,"lon":-85.40483,"city":"Cadillac","state":"MI","address":"8605 E 34 Rd","name":""},
  {"lat":41.5286,"lon":-87.47407,"city":"Highland","state":"IN","address":"10138 Indianapolis","name":""},
  {"lat":41.5286,"lon":-87.47407,"city":"Highland","state":"IN","address":"10138 Indianapolis","name":""},
  {"lat":41.5286,"lon":-87.47407,"city":"Highland","state":"IN","address":"10138 Indianapolis","name":""},
  {"lat":42.59065,"lon":-83.87678,"city":"Howell","state":"MI","address":"3883 E Grand River","name":""},
  {"lat":42.59065,"lon":-83.87678,"city":"Howell","state":"MI","address":"3883 E Grand River","name":""},
  {"lat":41.70102,"lon":-88.12755,"city":"Bolingbrook","state":"IL","address":"225 N Weber Rd","name":""},
  {"lat":41.70102,"lon":-88.12755,"city":"Bolingbrook","state":"IL","address":"225 N Weber Rd","name":""},
  {"lat":41.70102,"lon":-88.12755,"city":"Bolingbrook","state":"IL","address":"225 N Weber Rd","name":""},
  {"lat":38.99738,"lon":-84.42171,"city":"Cold Spring","state":"KY","address":"5400 Alexandria Pike","name":""},
  {"lat":38.99738,"lon":-84.42171,"city":"Cold Spring","state":"KY","address":"5400 Alexandria Pike","name":""},
  {"lat":38.99738,"lon":-84.42171,"city":"Cold Spring","state":"KY","address":"5400 Alexandria Pike","name":""},
  {"lat":38.32332,"lon":-85.70903,"city":"Jeffersonville","state":"IN","address":"2750 Allison Lane","name":""},
  {"lat":38.32332,"lon":-85.70903,"city":"Jeffersonville","state":"IN","address":"2750 Allison Lane","name":""},
  {"lat":38.32332,"lon":-85.70903,"city":"Jeffersonville","state":"IN","address":"2750 Allison Lane","name":""},
  {"lat":38.11249,"lon":-85.67962,"city":"Louisville","state":"KY","address":"9500 Preston Hwy","name":""},
  {"lat":38.11249,"lon":-85.67962,"city":"Louisville","state":"KY","address":"9500 Preston Hwy","name":""},
  {"lat":41.46771,"lon":-87.34555,"city":"Merrillville","state":"IN","address":"611 W. Lincoln Hwy","name":""},
  {"lat":41.46771,"lon":-87.34555,"city":"Merrillville","state":"IN","address":"611 W. Lincoln Hwy","name":""},
  {"lat":41.46771,"lon":-87.34555,"city":"Merrillville","state":"IN","address":"611 W. Lincoln Hwy","name":""},
  {"lat":38.29922,"lon":-85.55388,"city":"Louisville","state":"KY","address":"4100 Towne Center Dr","name":""},
  {"lat":38.29922,"lon":-85.55388,"city":"Louisville","state":"KY","address":"4100 Towne Center Dr","name":""},
  {"lat":38.29922,"lon":-85.55388,"city":"Louisville","state":"KY","address":"4100 Towne Center Dr","name":""},
  {"lat":43.04652,"lon":-82.46068,"city":"Fort Gratiot Twp","state":"MI","address":"4775 24th Ave","name":""},
  {"lat":43.04652,"lon":-82.46068,"city":"Fort Gratiot Twp","state":"MI","address":"4775 24th Ave","name":""},
  {"lat":43.04652,"lon":-82.46068,"city":"Fort Gratiot Twp","state":"MI","address":"4775 24th Ave","name":""},
  {"lat":38.11166,"lon":-85.86089,"city":"Louisville","state":"KY","address":"9905 Dixie Hwy","name":""},
  {"lat":38.11166,"lon":-85.86089,"city":"Louisville","state":"KY","address":"9905 Dixie Hwy","name":""},
  {"lat":38.11166,"lon":-85.86089,"city":"Louisville","state":"KY","address":"9905 Dixie Hwy","name":""},
  {"lat":38.01884,"lon":-84.42221,"city":"Lexington","state":"KY","address":"2155 Paul Jones Way","name":""},
  {"lat":38.01884,"lon":-84.42221,"city":"Lexington","state":"KY","address":"2155 Paul Jones Way","name":""},
  {"lat":38.01884,"lon":-84.42221,"city":"Lexington","state":"KY","address":"2155 Paul Jones Way","name":""},
  {"lat":38.1881,"lon":-85.60796,"city":"Louisville","state":"KY","address":"4500 S Hurstbourne Pkwy","name":""},
  {"lat":38.1881,"lon":-85.60796,"city":"Louisville","state":"KY","address":"4500 S Hurstbourne Pkwy","name":""},
  {"lat":38.1881,"lon":-85.60796,"city":"Louisville","state":"KY","address":"4500 S Hurstbourne Pkwy","name":""},
  {"lat":42.99672,"lon":-85.59439,"city":"Grand Rapids","state":"MI","address":"1997 E Beltline NE","name":""},
  {"lat":42.99672,"lon":-85.59439,"city":"Grand Rapids","state":"MI","address":"1997 E Beltline NE","name":""},
  {"lat":42.99672,"lon":-85.59439,"city":"Grand Rapids","state":"MI","address":"1997 E Beltline NE","name":""},
  {"lat":39.30541,"lon":-84.52717,"city":"Fairfield","state":"OH","address":"6325 S Gilmore Rd","name":""},
  {"lat":39.30541,"lon":-84.52717,"city":"Fairfield","state":"OH","address":"6325 S Gilmore Rd","name":""},
  {"lat":39.19722,"lon":-84.23757,"city":"Milford","state":"OH","address":"1082 SR 28","name":""},
  {"lat":39.19722,"lon":-84.23757,"city":"Milford","state":"OH","address":"1082 SR 28","name":""},
  {"lat":39.19722,"lon":-84.23757,"city":"Milford","state":"OH","address":"1082 SR 28","name":""},
  {"lat":41.37711,"lon":-83.60754,"city":"Bowling Green","state":"OH","address":"2111 E Wooster St","name":""},
  {"lat":41.37711,"lon":-83.60754,"city":"Bowling Green","state":"OH","address":"2111 E Wooster St","name":""},
  {"lat":41.37711,"lon":-83.60754,"city":"Bowling Green","state":"OH","address":"2111 E Wooster St","name":""},
  {"lat":39.86828,"lon":-84.88532,"city":"Richmond","state":"IN","address":"2507 Chester Blvd","name":""},
  {"lat":39.86828,"lon":-84.88532,"city":"Richmond","state":"IN","address":"2507 Chester Blvd","name":""},
  {"lat":39.86828,"lon":-84.88532,"city":"Richmond","state":"IN","address":"2507 Chester Blvd","name":""},
  {"lat":39.92577,"lon":-86.02033,"city":"Indianapolis","state":"IN","address":"8375 E 96th St","name":""},
  {"lat":39.92577,"lon":-86.02033,"city":"Indianapolis","state":"IN","address":"8375 E 96th St","name":""},
  {"lat":39.92577,"lon":-86.02033,"city":"Indianapolis","state":"IN","address":"8375 E 96th St","name":""},
  {"lat":40.52158,"lon":-85.6772,"city":"Marion","state":"IN","address":"3820 S. Western Ave.","name":""},
  {"lat":40.52158,"lon":-85.6772,"city":"Marion","state":"IN","address":"3820 S. Western Ave.","name":""},
  {"lat":40.52158,"lon":-85.6772,"city":"Marion","state":"IN","address":"3820 S. Western Ave.","name":""},
  {"lat":39.95189,"lon":-86.34244,"city":"Zionsville","state":"IN","address":"6650 Whitestown Pkwy","name":""},
  {"lat":39.95189,"lon":-86.34244,"city":"Zionsville","state":"IN","address":"6650 Whitestown Pkwy","name":""},
  {"lat":39.95189,"lon":-86.34244,"city":"Zionsville","state":"IN","address":"6650 Whitestown Pkwy","name":""},
  {"lat":39.01149,"lon":-84.63837,"city":"Florence","state":"KY","address":"4990 Houston Rd","name":""},
  {"lat":39.01149,"lon":-84.63837,"city":"Florence","state":"KY","address":"4990 Houston Rd","name":""},
  {"lat":39.29236,"lon":-84.29251,"city":"Loveland","state":"OH","address":"3911 W State Route 22-3","name":""},
  {"lat":39.29236,"lon":-84.29251,"city":"Loveland","state":"OH","address":"3911 W State Route 22-3","name":""},
  {"lat":39.29236,"lon":-84.29251,"city":"Loveland","state":"OH","address":"3911 W State Route 22-3","name":""},
  {"lat":41.67525,"lon":-86.88974,"city":"Michigan City","state":"IN","address":"5150 S Franklin St","name":""},
  {"lat":41.67525,"lon":-86.88974,"city":"Michigan City","state":"IN","address":"5150 S Franklin St","name":""},
  {"lat":41.67525,"lon":-86.88974,"city":"Michigan City","state":"IN","address":"5150 S Franklin St","name":""},
  {"lat":39.09853,"lon":-84.26464,"city":"Cincinnati","state":"OH","address":"888 Eastgate N Rd","name":""},
  {"lat":39.09853,"lon":-84.26464,"city":"Cincinnati","state":"OH","address":"888 Eastgate N Rd","name":""},
  {"lat":39.09853,"lon":-84.26464,"city":"Cincinnati","state":"OH","address":"888 Eastgate N Rd","name":""},
  {"lat":39.35742,"lon":-84.37603,"city":"West Chester","state":"OH","address":"7390 Tylersville Rd","name":""},
  {"lat":39.35742,"lon":-84.37603,"city":"West Chester","state":"OH","address":"7390 Tylersville Rd","name":""},
  {"lat":39.35742,"lon":-84.37603,"city":"West Chester","state":"OH","address":"7390 Tylersville Rd","name":""},
  {"lat":40.14513,"lon":-88.2608,"city":"Champaign","state":"IL","address":"2401 N Prospect Ave","name":""},
  {"lat":40.14513,"lon":-88.2608,"city":"Champaign","state":"IL","address":"2401 N Prospect Ave","name":""},
  {"lat":40.14513,"lon":-88.2608,"city":"Champaign","state":"IL","address":"2401 N Prospect Ave","name":""},
  {"lat":42.55073,"lon":-82.96278,"city":"Fraser","state":"MI","address":"34835 Utica Rd","name":""},
  {"lat":42.55073,"lon":-82.96278,"city":"Fraser","state":"MI","address":"34835 Utica Rd","name":""},
  {"lat":42.55073,"lon":-82.96278,"city":"Fraser","state":"MI","address":"34835 Utica Rd","name":""},
  {"lat":39.7503,"lon":-82.65493,"city":"Lancaster","state":"OH","address":"2900 Columbus-Lancaster Rd","name":""},
  {"lat":39.7503,"lon":-82.65493,"city":"Lancaster","state":"OH","address":"2900 Columbus-Lancaster Rd","name":""},
  {"lat":39.7503,"lon":-82.65493,"city":"Lancaster","state":"OH","address":"2900 Columbus-Lancaster Rd","name":""},
  {"lat":40.1611,"lon":-83.02283,"city":"Lewis Center","state":"OH","address":"8870 Columbus Pike","name":""},
  {"lat":40.1611,"lon":-83.02283,"city":"Lewis Center","state":"OH","address":"8870 Columbus Pike","name":""},
  {"lat":40.1611,"lon":-83.02283,"city":"Lewis Center","state":"OH","address":"8870 Columbus Pike","name":""},
  {"lat":41.41174,"lon":-82.66315,"city":"Sandusky","state":"OH","address":"4702 Milan Rd","name":""},
  {"lat":41.41174,"lon":-82.66315,"city":"Sandusky","state":"OH","address":"4702 Milan Rd","name":""},
  {"lat":41.41174,"lon":-82.66315,"city":"Sandusky","state":"OH","address":"4702 Milan Rd","name":""},
  {"lat":43.04114,"lon":-83.32653,"city":"Lapeer","state":"MI","address":"1555 Demille Rd","name":""},
  {"lat":43.04114,"lon":-83.32653,"city":"Lapeer","state":"MI","address":"1555 Demille Rd","name":""},
  {"lat":43.04114,"lon":-83.32653,"city":"Lapeer","state":"MI","address":"1555 Demille Rd","name":""},
  {"lat":40.22133,"lon":-85.45887,"city":"Muncie","state":"IN","address":"6260 W McGalliard Rd","name":""},
  {"lat":40.22133,"lon":-85.45887,"city":"Muncie","state":"IN","address":"6260 W McGalliard Rd","name":""},
  {"lat":40.22133,"lon":-85.45887,"city":"Muncie","state":"IN","address":"6260 W McGalliard Rd","name":""},
  {"lat":40.47428,"lon":-86.10084,"city":"Kokomo","state":"IN","address":"2301 E Markland Ave","name":""},
  {"lat":40.47428,"lon":-86.10084,"city":"Kokomo","state":"IN","address":"2301 E Markland Ave","name":""},
  {"lat":40.47428,"lon":-86.10084,"city":"Kokomo","state":"IN","address":"2301 E Markland Ave","name":""},
  {"lat":41.13384,"lon":-85.01267,"city":"Fort Wayne","state":"IN","address":"10301 SR 37 Hwy","name":""},
  {"lat":41.13384,"lon":-85.01267,"city":"Fort Wayne","state":"IN","address":"10301 SR 37 Hwy","name":""},
  {"lat":41.13384,"lon":-85.01267,"city":"Fort Wayne","state":"IN","address":"10301 SR 37 Hwy","name":""},
  {"lat":40.04904,"lon":-85.64855,"city":"Anderson","state":"IN","address":"6610 Scatterfield Rd","name":""},
  {"lat":40.04904,"lon":-85.64855,"city":"Anderson","state":"IN","address":"6610 Scatterfield Rd","name":""},
  {"lat":40.04904,"lon":-85.64855,"city":"Anderson","state":"IN","address":"6610 Scatterfield Rd","name":""},
  {"lat":40.41483,"lon":-86.81263,"city":"Lafayette","state":"IN","address":"4901 SR 26 E","name":""},
  {"lat":40.41483,"lon":-86.81263,"city":"Lafayette","state":"IN","address":"4901 SR 26 E","name":""},
  {"lat":40.41483,"lon":-86.81263,"city":"Lafayette","state":"IN","address":"4901 SR 26 E","name":""},
  {"lat":39.43132,"lon":-84.59694,"city":"Hamilton","state":"OH","address":"1560 Main St","name":""},
  {"lat":39.43132,"lon":-84.59694,"city":"Hamilton","state":"OH","address":"1560 Main St","name":""},
  {"lat":39.43132,"lon":-84.59694,"city":"Hamilton","state":"OH","address":"1560 Main St","name":""},
  {"lat":39.66353,"lon":-86.07737,"city":"Indianapolis","state":"IN","address":"5325 E Southport Rd","name":""},
  {"lat":39.66353,"lon":-86.07737,"city":"Indianapolis","state":"IN","address":"5325 E Southport Rd","name":""},
  {"lat":39.66353,"lon":-86.07737,"city":"Indianapolis","state":"IN","address":"5325 E Southport Rd","name":""},
  {"lat":39.76116,"lon":-86.32976,"city":"Avon","state":"IN","address":"10841 E US 36","name":""},
  {"lat":39.76116,"lon":-86.32976,"city":"Avon","state":"IN","address":"10841 E US 36","name":""},
  {"lat":39.76116,"lon":-86.32976,"city":"Avon","state":"IN","address":"10841 E US 36","name":""},
  {"lat":39.61437,"lon":-86.16198,"city":"Greenwood","state":"IN","address":"150 S Marlin Dr","name":""},
  {"lat":39.61437,"lon":-86.16198,"city":"Greenwood","state":"IN","address":"150 S Marlin Dr","name":""},
  {"lat":39.61437,"lon":-86.16198,"city":"Greenwood","state":"IN","address":"150 S Marlin Dr","name":""},
  {"lat":39.77427,"lon":-85.96367,"city":"Indianapolis","state":"IN","address":"11351 E Washington St","name":""},
  {"lat":39.77427,"lon":-85.96367,"city":"Indianapolis","state":"IN","address":"11351 E Washington St","name":""},
  {"lat":39.77427,"lon":-85.96367,"city":"Indianapolis","state":"IN","address":"11351 E Washington St","name":""},
  {"lat":39.97357,"lon":-86.15256,"city":"Carmel","state":"IN","address":"1424 W Carmel Dr","name":""},
  {"lat":39.97357,"lon":-86.15256,"city":"Carmel","state":"IN","address":"1424 W Carmel Dr","name":""},
  {"lat":39.97357,"lon":-86.15256,"city":"Carmel","state":"IN","address":"1424 W Carmel Dr","name":""},
  {"lat":39.82625,"lon":-86.25173,"city":"Indianapolis","state":"IN","address":"5349 Pike Plaza Rd","name":""},
  {"lat":39.82625,"lon":-86.25173,"city":"Indianapolis","state":"IN","address":"5349 Pike Plaza Rd","name":""},
  {"lat":39.82625,"lon":-86.25173,"city":"Indianapolis","state":"IN","address":"5349 Pike Plaza Rd","name":""},
  {"lat":41.62787,"lon":-86.17229,"city":"Mishawaka","state":"IN","address":"3610 S Bremen Hwy","name":""},
  {"lat":41.62787,"lon":-86.17229,"city":"Mishawaka","state":"IN","address":"3610 S Bremen Hwy","name":""},
  {"lat":41.62787,"lon":-86.17229,"city":"Mishawaka","state":"IN","address":"3610 S Bremen Hwy","name":""},
  {"lat":41.62485,"lon":-85.90991,"city":"Goshen","state":"IN","address":"4522 Elkhart Rd","name":""},
  {"lat":41.62485,"lon":-85.90991,"city":"Goshen","state":"IN","address":"4522 Elkhart Rd","name":""},
  {"lat":41.62485,"lon":-85.90991,"city":"Goshen","state":"IN","address":"4522 Elkhart Rd","name":""},
  {"lat":40.78972,"lon":-82.59336,"city":"Mansfield","state":"OH","address":"1355 N Lexington-Springmill Rd","name":""},
  {"lat":40.78972,"lon":-82.59336,"city":"Mansfield","state":"OH","address":"1355 N Lexington-Springmill Rd","name":""},
  {"lat":40.78972,"lon":-82.59336,"city":"Mansfield","state":"OH","address":"1355 N Lexington-Springmill Rd","name":""},
  {"lat":41.07151,"lon":-85.21698,"city":"Fort Wayne","state":"IN","address":"5909 Illinois Rd","name":""},
  {"lat":41.07151,"lon":-85.21698,"city":"Fort Wayne","state":"IN","address":"5909 Illinois Rd","name":""},
  {"lat":41.07151,"lon":-85.21698,"city":"Fort Wayne","state":"IN","address":"5909 Illinois Rd","name":""},
  {"lat":41.1379,"lon":-85.16593,"city":"Fort Wayne","state":"IN","address":"6309 Lima Rd","name":""},
  {"lat":41.1379,"lon":-85.16593,"city":"Fort Wayne","state":"IN","address":"6309 Lima Rd","name":""},
  {"lat":41.1379,"lon":-85.16593,"city":"Fort Wayne","state":"IN","address":"6309 Lima Rd","name":""},
  {"lat":42.19128,"lon":-83.18474,"city":"Southgate","state":"MI","address":"16300 Fort St","name":""},
  {"lat":42.19128,"lon":-83.18474,"city":"Southgate","state":"MI","address":"16300 Fort St","name":""},
  {"lat":42.19128,"lon":-83.18474,"city":"Southgate","state":"MI","address":"16300 Fort St","name":""},
  {"lat":42.49781,"lon":-83.54127,"city":"Wixom","state":"MI","address":"49900 Grand River Ave","name":""},
  {"lat":42.49781,"lon":-83.54127,"city":"Wixom","state":"MI","address":"49900 Grand River Ave","name":""},
  {"lat":42.49781,"lon":-83.54127,"city":"Wixom","state":"MI","address":"49900 Grand River Ave","name":""},
  {"lat":41.70664,"lon":-86.18556,"city":"Mishawaka","state":"IN","address":"5020 Grape Rd","name":""},
  {"lat":41.70664,"lon":-86.18556,"city":"Mishawaka","state":"IN","address":"5020 Grape Rd","name":""},
  {"lat":42.29874,"lon":-85.67932,"city":"Kalamazoo","state":"MI","address":"6660 W Main St","name":""},
  {"lat":42.29874,"lon":-85.67932,"city":"Kalamazoo","state":"MI","address":"6660 W Main St","name":""},
  {"lat":42.29874,"lon":-85.67932,"city":"Kalamazoo","state":"MI","address":"6660 W Main St","name":""},
  {"lat":41.72643,"lon":-86.28569,"city":"South Bend","state":"IN","address":"3600 N Portage Rd","name":""},
  {"lat":41.72643,"lon":-86.28569,"city":"South Bend","state":"IN","address":"3600 N Portage Rd","name":""},
  {"lat":41.72643,"lon":-86.28569,"city":"South Bend","state":"IN","address":"3600 N Portage Rd","name":""},
  {"lat":41.72044,"lon":-83.51058,"city":"Toledo","state":"OH","address":"1500 E Alexis Rd","name":""},
  {"lat":41.72044,"lon":-83.51058,"city":"Toledo","state":"OH","address":"1500 E Alexis Rd","name":""},
  {"lat":41.72044,"lon":-83.51058,"city":"Toledo","state":"OH","address":"1500 E Alexis Rd","name":""},
  {"lat":41.67655,"lon":-83.71825,"city":"Toledo","state":"OH","address":"7240 W Central Ave","name":""},
  {"lat":41.67655,"lon":-83.71825,"city":"Toledo","state":"OH","address":"7240 W Central Ave","name":""},
  {"lat":41.67655,"lon":-83.71825,"city":"Toledo","state":"OH","address":"7240 W Central Ave","name":""},
  {"lat":41.61897,"lon":-83.48246,"city":"Oregon","state":"OH","address":"1725 S Wheeling","name":""},
  {"lat":41.61897,"lon":-83.48246,"city":"Oregon","state":"OH","address":"1725 S Wheeling","name":""},
  {"lat":41.61897,"lon":-83.48246,"city":"Oregon","state":"OH","address":"1725 S Wheeling","name":""},
  {"lat":41.57936,"lon":-83.6669,"city":"Maumee","state":"OH","address":"1391 Conant St","name":""},
  {"lat":41.57936,"lon":-83.6669,"city":"Maumee","state":"OH","address":"1391 Conant St","name":""},
  {"lat":40.06092,"lon":-82.86012,"city":"Columbus","state":"OH","address":"5050 N Hamilton Rd","name":""},
  {"lat":40.06092,"lon":-82.86012,"city":"Columbus","state":"OH","address":"5050 N Hamilton Rd","name":""},
  {"lat":40.06092,"lon":-82.86012,"city":"Columbus","state":"OH","address":"5050 N Hamilton Rd","name":""},
  {"lat":43.00184,"lon":-84.11577,"city":"Corunna","state":"MI","address":"2591 E M-21","name":""},
  {"lat":43.00184,"lon":-84.11577,"city":"Corunna","state":"MI","address":"2591 E M-21","name":""},
  {"lat":43.00184,"lon":-84.11577,"city":"Corunna","state":"MI","address":"2591 E M-21","name":""},
  {"lat":40.05454,"lon":-84.24344,"city":"Troy","state":"OH","address":"1900 W Main St","name":""},
  {"lat":40.05454,"lon":-84.24344,"city":"Troy","state":"OH","address":"1900 W Main St","name":""},
  {"lat":40.05454,"lon":-84.24344,"city":"Troy","state":"OH","address":"1900 W Main St","name":""},
  {"lat":40.57876,"lon":-83.07206,"city":"Marion","state":"OH","address":"2153 Marion-Mt Gilead Rd","name":""},
  {"lat":40.57876,"lon":-83.07206,"city":"Marion","state":"OH","address":"2153 Marion-Mt Gilead Rd","name":""},
  {"lat":40.57876,"lon":-83.07206,"city":"Marion","state":"OH","address":"2153 Marion-Mt Gilead Rd","name":""},
  {"lat":40.77154,"lon":-84.16155,"city":"Lima","state":"OH","address":"3298 Elida Rd","name":""},
  {"lat":40.77154,"lon":-84.16155,"city":"Lima","state":"OH","address":"3298 Elida Rd","name":""},
  {"lat":40.77154,"lon":-84.16155,"city":"Lima","state":"OH","address":"3298 Elida Rd","name":""},
  {"lat":42.54769,"lon":-83.44215,"city":"Commerce","state":"MI","address":"1703 Haggerty Rd","name":""},
  {"lat":42.54769,"lon":-83.44215,"city":"Commerce","state":"MI","address":"1703 Haggerty Rd","name":""},
  {"lat":42.54769,"lon":-83.44215,"city":"Commerce","state":"MI","address":"1703 Haggerty Rd","name":""},
  {"lat":43.66331,"lon":-84.24317,"city":"Midland","state":"MI","address":"7300 Eastman Ave.","name":""},
  {"lat":43.66331,"lon":-84.24317,"city":"Midland","state":"MI","address":"7300 Eastman Ave.","name":""},
  {"lat":43.66331,"lon":-84.24317,"city":"Midland","state":"MI","address":"7300 Eastman Ave.","name":""},
  {"lat":39.85801,"lon":-84.27507,"city":"Englewood","state":"OH","address":"9200 N Main","name":""},
  {"lat":39.85801,"lon":-84.27507,"city":"Englewood","state":"OH","address":"9200 N Main","name":""},
  {"lat":39.85801,"lon":-84.27507,"city":"Englewood","state":"OH","address":"9200 N Main","name":""},
  {"lat":39.77754,"lon":-84.07365,"city":"Fairborn","state":"OH","address":"3822 Colonel Glenn Hwy","name":""},
  {"lat":39.77754,"lon":-84.07365,"city":"Fairborn","state":"OH","address":"3822 Colonel Glenn Hwy","name":""},
  {"lat":39.77754,"lon":-84.07365,"city":"Fairborn","state":"OH","address":"3822 Colonel Glenn Hwy","name":""},
  {"lat":42.67682,"lon":-82.83554,"city":"Chesterfield","state":"MI","address":"27255 23 Mile Rd","name":""},
  {"lat":42.67682,"lon":-82.83554,"city":"Chesterfield","state":"MI","address":"27255 23 Mile Rd","name":""},
  {"lat":42.67682,"lon":-82.83554,"city":"Chesterfield","state":"MI","address":"27255 23 Mile Rd","name":""},
  {"lat":39.98401,"lon":-83.15434,"city":"Columbus","state":"OH","address":"1661 Hilliard Rd","name":""},
  {"lat":39.98401,"lon":-83.15434,"city":"Columbus","state":"OH","address":"1661 Hilliard Rd","name":""},
  {"lat":39.98401,"lon":-83.15434,"city":"Columbus","state":"OH","address":"1661 Hilliard Rd","name":""},
  {"lat":39.67089,"lon":-84.2187,"city":"Dayton","state":"OH","address":"5858 Springboro Pike","name":""},
  {"lat":39.67089,"lon":-84.2187,"city":"Dayton","state":"OH","address":"5858 Springboro Pike","name":""},
  {"lat":39.67089,"lon":-84.2187,"city":"Dayton","state":"OH","address":"5858 Springboro Pike","name":""},
  {"lat":39.68548,"lon":-84.13253,"city":"Kettering","state":"OH","address":"4075 Wilmington Pike","name":""},
  {"lat":39.68548,"lon":-84.13253,"city":"Kettering","state":"OH","address":"4075 Wilmington Pike","name":""},
  {"lat":39.68548,"lon":-84.13253,"city":"Kettering","state":"OH","address":"4075 Wilmington Pike","name":""},
  {"lat":42.23193,"lon":-83.48264,"city":"Belleville","state":"MI","address":"9701 Belleville Rd","name":""},
  {"lat":42.23193,"lon":-83.48264,"city":"Belleville","state":"MI","address":"9701 Belleville Rd","name":""},
  {"lat":42.23193,"lon":-83.48264,"city":"Belleville","state":"MI","address":"9701 Belleville Rd","name":""},
  {"lat":43.28345,"lon":-86.22025,"city":"North Muskegon","state":"MI","address":"1800 Holton Rd","name":""},
  {"lat":43.28345,"lon":-86.22025,"city":"North Muskegon","state":"MI","address":"1800 Holton Rd","name":""},
  {"lat":43.28345,"lon":-86.22025,"city":"North Muskegon","state":"MI","address":"1800 Holton Rd","name":""},
  {"lat":42.14413,"lon":-83.23009,"city":"Woodhaven","state":"MI","address":"22600 Allen Rd","name":""},
  {"lat":42.14413,"lon":-83.23009,"city":"Woodhaven","state":"MI","address":"22600 Allen Rd","name":""},
  {"lat":42.14413,"lon":-83.23009,"city":"Woodhaven","state":"MI","address":"22600 Allen Rd","name":""},
  {"lat":43.61465,"lon":-84.7646,"city":"Mount Pleasant","state":"MI","address":"1015 Pickard St","name":""},
  {"lat":43.61465,"lon":-84.7646,"city":"Mount Pleasant","state":"MI","address":"1015 Pickard St","name":""},
  {"lat":43.61465,"lon":-84.7646,"city":"Mount Pleasant","state":"MI","address":"1015 Pickard St","name":""},
  {"lat":41.94493,"lon":-83.39934,"city":"Monroe","state":"MI","address":"1700 Telegraph Rd","name":""},
  {"lat":41.94493,"lon":-83.39934,"city":"Monroe","state":"MI","address":"1700 Telegraph Rd","name":""},
  {"lat":41.94493,"lon":-83.39934,"city":"Monroe","state":"MI","address":"1700 Telegraph Rd","name":""},
  {"lat":42.33263,"lon":-83.40573,"city":"Westland","state":"MI","address":"37201 Warren Rd","name":""},
  {"lat":42.33263,"lon":-83.40573,"city":"Westland","state":"MI","address":"37201 Warren Rd","name":""},
  {"lat":42.33263,"lon":-83.40573,"city":"Westland","state":"MI","address":"37201 Warren Rd","name":""},
  {"lat":39.94285,"lon":-83.8301,"city":"Springfield","state":"OH","address":"1500 Hillcrest Ave","name":""},
  {"lat":39.94285,"lon":-83.8301,"city":"Springfield","state":"OH","address":"1500 Hillcrest Ave","name":""},
  {"lat":42.62999,"lon":-82.97652,"city":"Utica","state":"MI","address":"15055 Hall Rd","name":""},
  {"lat":42.62999,"lon":-82.97652,"city":"Utica","state":"MI","address":"15055 Hall Rd","name":""},
  {"lat":42.62999,"lon":-82.97652,"city":"Utica","state":"MI","address":"15055 Hall Rd","name":""},
  {"lat":42.23941,"lon":-83.76608,"city":"Ann Arbor","state":"MI","address":"3145 Ann Arbor-Saline Rd","name":""},
  {"lat":42.23941,"lon":-83.76608,"city":"Ann Arbor","state":"MI","address":"3145 Ann Arbor-Saline Rd","name":""},
  {"lat":42.23941,"lon":-83.76608,"city":"Ann Arbor","state":"MI","address":"3145 Ann Arbor-Saline Rd","name":""},
  {"lat":42.52347,"lon":-82.90561,"city":"Roseville","state":"MI","address":"30800 Little Mack","name":""},
  {"lat":42.52347,"lon":-82.90561,"city":"Roseville","state":"MI","address":"30800 Little Mack","name":""},
  {"lat":42.52347,"lon":-82.90561,"city":"Roseville","state":"MI","address":"30800 Little Mack","name":""},
  {"lat":39.49951,"lon":-84.33152,"city":"Franklin","state":"OH","address":"3651 Towne Blvd","name":""},
  {"lat":39.49951,"lon":-84.33152,"city":"Franklin","state":"OH","address":"3651 Towne Blvd","name":""},
  {"lat":39.49951,"lon":-84.33152,"city":"Franklin","state":"OH","address":"3651 Towne Blvd","name":""},
  {"lat":40.09269,"lon":-83.09414,"city":"Dublin","state":"OH","address":"6175 Sawmill Rd","name":""},
  {"lat":40.09269,"lon":-83.09414,"city":"Dublin","state":"OH","address":"6175 Sawmill Rd","name":""},
  {"lat":42.63411,"lon":-83.12876,"city":"Rochester Hills","state":"MI","address":"3175 S. Rochester Rd","name":""},
  {"lat":42.63411,"lon":-83.12876,"city":"Rochester Hills","state":"MI","address":"3175 S. Rochester Rd","name":""},
  {"lat":42.25477,"lon":-84.3596,"city":"Jackson","state":"MI","address":"3333 E Michigan Ave","name":""},
  {"lat":42.25477,"lon":-84.3596,"city":"Jackson","state":"MI","address":"3333 E Michigan Ave","name":""},
  {"lat":42.25477,"lon":-84.3596,"city":"Jackson","state":"MI","address":"3333 E Michigan Ave","name":""},
  {"lat":42.43558,"lon":-83.43731,"city":"Northville","state":"MI","address":"20401 Haggerty Rd","name":""},
  {"lat":42.43558,"lon":-83.43731,"city":"Northville","state":"MI","address":"20401 Haggerty Rd","name":""},
  {"lat":42.43558,"lon":-83.43731,"city":"Northville","state":"MI","address":"20401 Haggerty Rd","name":""},
  {"lat":42.56287,"lon":-83.02616,"city":"Sterling Heights","state":"MI","address":"36600 Van Dyke Ave","name":""},
  {"lat":42.56287,"lon":-83.02616,"city":"Sterling Heights","state":"MI","address":"36600 Van Dyke Ave","name":""},
  {"lat":42.56287,"lon":-83.02616,"city":"Sterling Heights","state":"MI","address":"36600 Van Dyke Ave","name":""},
  {"lat":42.65313,"lon":-83.36826,"city":"Waterford","state":"MI","address":"4200 Highland Rd","name":""},
  {"lat":42.65313,"lon":-83.36826,"city":"Waterford","state":"MI","address":"4200 Highland Rd","name":""},
  {"lat":42.65313,"lon":-83.36826,"city":"Waterford","state":"MI","address":"4200 Highland Rd","name":""},
  {"lat":42.76303,"lon":-84.50039,"city":"East Lansing","state":"MI","address":"1350 W Lake Lansing Rd","name":""},
  {"lat":42.76303,"lon":-84.50039,"city":"East Lansing","state":"MI","address":"1350 W Lake Lansing Rd","name":""},
  {"lat":41.05704,"lon":-83.59985,"city":"Findlay","state":"OH","address":"2200 Tiffin Ave","name":""},
  {"lat":41.05704,"lon":-83.59985,"city":"Findlay","state":"OH","address":"2200 Tiffin Ave","name":""},
  {"lat":41.05704,"lon":-83.59985,"city":"Findlay","state":"OH","address":"2200 Tiffin Ave","name":""},
  {"lat":42.91611,"lon":-85.53214,"city":"Grand Rapids","state":"MI","address":"5531 28th St SE","name":""},
  {"lat":42.91611,"lon":-85.53214,"city":"Grand Rapids","state":"MI","address":"5531 28th St SE","name":""},
  {"lat":42.91611,"lon":-85.53214,"city":"Grand Rapids","state":"MI","address":"5531 28th St SE","name":""},
  {"lat":43.62132,"lon":-83.93409,"city":"Bay City","state":"MI","address":"2980 E Wilder Rd","name":""},
  {"lat":43.62132,"lon":-83.93409,"city":"Bay City","state":"MI","address":"2980 E Wilder Rd","name":""},
  {"lat":43.62132,"lon":-83.93409,"city":"Bay City","state":"MI","address":"2980 E Wilder Rd","name":""},
  {"lat":42.78119,"lon":-86.07542,"city":"Holland","state":"MI","address":"746 E 16th St","name":""},
  {"lat":42.78119,"lon":-86.07542,"city":"Holland","state":"MI","address":"746 E 16th St","name":""},
  {"lat":42.78119,"lon":-86.07542,"city":"Holland","state":"MI","address":"746 E 16th St","name":""},
  {"lat":42.53881,"lon":-83.78878,"city":"Brighton","state":"MI","address":"8650 W Grand River","name":""},
  {"lat":42.53881,"lon":-83.78878,"city":"Brighton","state":"MI","address":"8650 W Grand River","name":""},
  {"lat":42.53881,"lon":-83.78878,"city":"Brighton","state":"MI","address":"8650 W Grand River","name":""},
  {"lat":41.87698,"lon":-84.03584,"city":"Adrian","state":"MI","address":"217 E US 223","name":""},
  {"lat":41.87698,"lon":-84.03584,"city":"Adrian","state":"MI","address":"217 E US 223","name":""},
  {"lat":41.87698,"lon":-84.03584,"city":"Adrian","state":"MI","address":"217 E US 223","name":""},
  {"lat":42.94671,"lon":-83.72879,"city":"Flint","state":"MI","address":"2474 W Hill Rd","name":""},
  {"lat":42.94671,"lon":-83.72879,"city":"Flint","state":"MI","address":"2474 W Hill Rd","name":""},
  {"lat":42.94671,"lon":-83.72879,"city":"Flint","state":"MI","address":"2474 W Hill Rd","name":""},
  {"lat":43.48254,"lon":-83.98248,"city":"Saginaw","state":"MI","address":"3360 Tittabawassee Rd","name":""},
  {"lat":43.48254,"lon":-83.98248,"city":"Saginaw","state":"MI","address":"3360 Tittabawassee Rd","name":""},
  {"lat":43.48254,"lon":-83.98248,"city":"Saginaw","state":"MI","address":"3360 Tittabawassee Rd","name":""},
  {"lat":43.4183,"lon":-84.07951,"city":"Saginaw","state":"MI","address":"8400 Gratiot Rd","name":""},
  {"lat":43.4183,"lon":-84.07951,"city":"Saginaw","state":"MI","address":"8400 Gratiot Rd","name":""},
  {"lat":43.4183,"lon":-84.07951,"city":"Saginaw","state":"MI","address":"8400 Gratiot Rd","name":""},
  {"lat":42.08205,"lon":-86.42189,"city":"Benton Harbor","state":"MI","address":"1920 Pipestone Rd","name":""},
  {"lat":42.08205,"lon":-86.42189,"city":"Benton Harbor","state":"MI","address":"1920 Pipestone Rd","name":""},
  {"lat":42.08205,"lon":-86.42189,"city":"Benton Harbor","state":"MI","address":"1920 Pipestone Rd","name":""},
  {"lat":42.86378,"lon":-85.68074,"city":"Wyoming","state":"MI","address":"5500 Clyde Park SW","name":""},
  {"lat":42.86378,"lon":-85.68074,"city":"Wyoming","state":"MI","address":"5500 Clyde Park SW","name":""},
  {"lat":42.86378,"lon":-85.68074,"city":"Wyoming","state":"MI","address":"5500 Clyde Park SW","name":""},
  {"lat":42.20052,"lon":-83.26151,"city":"Taylor","state":"MI","address":"14640 Pardee Rd","name":""},
  {"lat":42.20052,"lon":-83.26151,"city":"Taylor","state":"MI","address":"14640 Pardee Rd","name":""},
  {"lat":42.20052,"lon":-83.26151,"city":"Taylor","state":"MI","address":"14640 Pardee Rd","name":""},
  {"lat":42.53916,"lon":-83.18176,"city":"Royal Oak","state":"MI","address":"5150 Coolidge Hwy","name":""},
  {"lat":42.53916,"lon":-83.18176,"city":"Royal Oak","state":"MI","address":"5150 Coolidge Hwy","name":""},
  {"lat":42.53916,"lon":-83.18176,"city":"Royal Oak","state":"MI","address":"5150 Coolidge Hwy","name":""},
  {"lat":44.74308,"lon":-85.64456,"city":"Traverse City","state":"MI","address":"3955 US 31 S","name":""},
  {"lat":44.74308,"lon":-85.64456,"city":"Traverse City","state":"MI","address":"3955 US 31 S","name":""},
  {"lat":44.74308,"lon":-85.64456,"city":"Traverse City","state":"MI","address":"3955 US 31 S","name":""},
  {"lat":42.3194,"lon":-83.48451,"city":"Canton","state":"MI","address":"45001 Ford Rd","name":""},
  {"lat":42.3194,"lon":-83.48451,"city":"Canton","state":"MI","address":"45001 Ford Rd","name":""},
  {"lat":42.3194,"lon":-83.48451,"city":"Canton","state":"MI","address":"45001 Ford Rd","name":""},
  {"lat":42.27123,"lon":-84.44935,"city":"Jackson","state":"MI","address":"2777 Airport Rd","name":""},
  {"lat":42.27123,"lon":-84.44935,"city":"Jackson","state":"MI","address":"2777 Airport Rd","name":""},
  {"lat":42.27123,"lon":-84.44935,"city":"Jackson","state":"MI","address":"2777 Airport Rd","name":""},
  {"lat":42.99374,"lon":-83.63048,"city":"Burton","state":"MI","address":"G-2333 S Center Rd","name":""},
  {"lat":42.99374,"lon":-83.63048,"city":"Burton","state":"MI","address":"G-2333 S Center Rd","name":""},
  {"lat":42.99374,"lon":-83.63048,"city":"Burton","state":"MI","address":"G-2333 S Center Rd","name":""},
  {"lat":42.23368,"lon":-83.67641,"city":"Ypsilanti","state":"MI","address":"3825 Carpenter Rd","name":""},
  {"lat":42.23368,"lon":-83.67641,"city":"Ypsilanti","state":"MI","address":"3825 Carpenter Rd","name":""},
  {"lat":42.23368,"lon":-83.67641,"city":"Ypsilanti","state":"MI","address":"3825 Carpenter Rd","name":""},
  {"lat":42.90458,"lon":-85.79488,"city":"Jenison","state":"MI","address":"550 Baldwin Street","name":""},
  {"lat":42.90458,"lon":-85.79488,"city":"Jenison","state":"MI","address":"550 Baldwin Street","name":""},
  {"lat":42.90458,"lon":-85.79488,"city":"Jenison","state":"MI","address":"550 Baldwin Street","name":""},
  {"lat":42.71915,"lon":-84.42466,"city":"Okemos","state":"MI","address":"2055 W Grand River","name":""},
  {"lat":42.71915,"lon":-84.42466,"city":"Okemos","state":"MI","address":"2055 W Grand River","name":""},
  {"lat":42.71915,"lon":-84.42466,"city":"Okemos","state":"MI","address":"2055 W Grand River","name":""},
  {"lat":42.73911,"lon":-84.62384,"city":"Lansing","state":"MI","address":"5125 W Saginaw Hwy","name":""},
  {"lat":42.73911,"lon":-84.62384,"city":"Lansing","state":"MI","address":"5125 W Saginaw Hwy","name":""},
  {"lat":42.73911,"lon":-84.62384,"city":"Lansing","state":"MI","address":"5125 W Saginaw Hwy","name":""},
  {"lat":42.24258,"lon":-85.58724,"city":"Portage","state":"MI","address":"5121 S Westnedge Ave","name":""},
  {"lat":42.24258,"lon":-85.58724,"city":"Portage","state":"MI","address":"5121 S Westnedge Ave","name":""},
  {"lat":42.24258,"lon":-85.58724,"city":"Portage","state":"MI","address":"5121 S Westnedge Ave","name":""},
  {"lat":42.32322,"lon":-85.51544,"city":"Kalamazoo","state":"MI","address":"5800 Gull Rd","name":""},
  {"lat":42.32322,"lon":-85.51544,"city":"Kalamazoo","state":"MI","address":"5800 Gull Rd","name":""},
  {"lat":42.32322,"lon":-85.51544,"city":"Kalamazoo","state":"MI","address":"5800 Gull Rd","name":""},
  {"lat":43.00807,"lon":-85.69168,"city":"Grand Rapids","state":"MI","address":"2425 Alpine NW","name":""},
  {"lat":43.00807,"lon":-85.69168,"city":"Grand Rapids","state":"MI","address":"2425 Alpine NW","name":""},
  {"lat":43.00807,"lon":-85.69168,"city":"Grand Rapids","state":"MI","address":"2425 Alpine NW","name":""},
  {"lat":43.19307,"lon":-86.26123,"city":"Muskegon","state":"MI","address":"700 W Norton Ave","name":""},
  {"lat":43.19307,"lon":-86.26123,"city":"Muskegon","state":"MI","address":"700 W Norton Ave","name":""},
  {"lat":43.19307,"lon":-86.26123,"city":"Muskegon","state":"MI","address":"700 W Norton Ave","name":""}]}