{"key":"microtel","displayName":"Microtel","category":"hotels","useLocationName":false,"locations":[
  {"lat":48.3899,"lon":-102.932404,"city":"Tioga","state":"ND","address":"1001 Elm Street","name":""},
  {"lat":46.843832,"lon":-96.889174,"city":"West Fargo","state":"ND","address":"705 23rd Avenue East","name":""},
  {"lat":48.308039,"lon":-102.378545,"city":"Stanley","state":"ND","address":"901 Jarard Street","name":""},
  {"lat":48.197147,"lon":-101.299953,"city":"Minot","state":"ND","address":"414 37th Avenue Southwest","name":""},
  {"lat":48.168218,"lon":-103.62869,"city":"Williston","state":"ND","address":"3820 4th Avenue West","name":""},
  {"lat":46.90024,"lon":-102.796047,"city":"Dickinson","state":"ND","address":"1597 6th Avenue West","name":""},
  {"lat":41.780728,"lon":-107.221117,"city":"Rawlins","state":"WY","address":"812 Locust St","name":""},
  {"lat":41.127762,"lon":-104.829483,"city":"Cheyenne","state":"WY","address":"1400 West Lincolnway","name":""},
  {"lat":42.1921,"lon":-121.75542,"city":"Klamath Falls","state":"OR","address":"2716 Dakota Court","name":""},
  {"lat":43.147974,"lon":-70.675244,"city":"York","state":"ME","address":"6 Market Place Drive","name":""},
  {"lat":34.480533,"lon":-93.060795,"city":"Hot Springs","state":"AR","address":"410 Higdon Ferry Road","name":""},
  {"lat":35.251782,"lon":-91.68498,"city":"Searcy","state":"AR","address":"3668 Ferren Trail","name":""},
  {"lat":35.110944,"lon":-92.437242,"city":"Conway","state":"AR","address":"2475 Sanders St","name":""},
  {"lat":36.326072,"lon":-94.125652,"city":"Rogers","state":"AR","address":"909 South 8th Street","name":""},
  {"lat":38.719875,"lon":-75.111947,"city":"Rehoboth Beach","state":"DE","address":"One Seaside Outlets Way","name":""},
  {"lat":38.92861,"lon":-75.41878,"city":"Milford","state":"DE","address":"106 Silicato Prkwy","name":""},
  {"lat":38.678959,"lon":-75.391922,"city":"Georgetown","state":"DE","address":"22297 Dupont Highway","name":""},
  {"lat":39.128956,"lon":-75.49588,"city":"Dover","state":"DE","address":"1703 East Lebanon Road","name":""},
  {"lat":41.713696,"lon":-86.250293,"city":"South Bend","state":"IN","address":"222 Dixie Way South","name":""},
  {"lat":41.665714,"lon":-86.891229,"city":"Michigan City","state":"IN","address":"9834 West 400 North","name":""},
  {"lat":41.736008,"lon":-85.975441,"city":"Elkhart","state":"IN","address":"3301 Plaza Ct.","name":""},
  {"lat":39.764824,"lon":-86.26053,"city":"Indianapolis","state":"IN","address":"5815 Rockville Road","name":""},
  {"lat":43.220589,"lon":-70.889086,"city":"Dover","state":"NH","address":"31 Webb Place","name":""},
  {"lat":47.701497,"lon":-104.166964,"city":"Sidney","state":"MT","address":"1500 South Central Ave.","name":""},
  {"lat":45.697712,"lon":-111.044159,"city":"Bozeman","state":"MT","address":"612 Nikles Dr","name":""},
  {"lat":37.22548,"lon":-95.743536,"city":"Independence","state":"KS","address":"2917 West Main Street","name":""},
  {"lat":61.338665,"lon":-149.561234,"city":"Eagle River","state":"AK","address":"13049 Old Glenn Highway","name":""},
  {"lat":34.929189,"lon":-89.797607,"city":"Olive Branch","state":"MS","address":"10849 Business Center Drive","name":""},
  {"lat":32.361856,"lon":-88.671191,"city":"Meridian","state":"MS","address":"518 Bonita Lakes Drive","name":""},
  {"lat":31.325615,"lon":-89.357321,"city":"Hattiesburg","state":"MS","address":"105 Westover Drive","name":""},
  {"lat":39.768165,"lon":-89.608698,"city":"Springfield","state":"IL","address":"2636 Sunrise Drive","name":""},
  {"lat":39.929741,"lon":-91.412399,"city":"Quincy","state":"IL","address":"200 South 3rd Street","name":""},
  {"lat":40.159394,"lon":-88.272336,"city":"Champaign","state":"IL","address":"1615 Rion Drive","name":""},
  {"lat":34.984524,"lon":-118.933781,"city":"Wheeler Ridge","state":"CA","address":"5620 Laval Road","name":""},
  {"lat":37.761986,"lon":-121.438461,"city":"Tracy","state":"CA","address":"861 West Clover Road","name":""},
  {"lat":38.114631,"lon":-121.394769,"city":"Lodi","state":"CA","address":"6428 West Banner Road","name":""},
  {"lat":37.602944,"lon":-120.968549,"city":"Modesto Ceres","state":"CA","address":"1760 Herndon Road","name":""},
  {"lat":37.123276,"lon":-121.627121,"city":"Morgan Hill","state":"CA","address":"16245 Condit Road","name":""},
  {"lat":32.658938,"lon":-114.144545,"city":"Wellton","state":"AZ","address":"28784 Commerce Way","name":""},
  {"lat":39.725417,"lon":-105.693978,"city":"Georgetown","state":"CO","address":"2190 Argentine Street","name":""},
  {"lat":40.43462,"lon":-104.9883,"city":"Loveland","state":"CO","address":"3996 Peralta Drive","name":""},
  {"lat":38.72098,"lon":-104.72824,"city":"Fountain","state":"CO","address":"7710 Office Circle","name":""},
  {"lat":38.999709,"lon":-105.060989,"city":"Woodland Park","state":"CO","address":"722 Country Drive","name":""},
  {"lat":38.216228,"lon":-104.624825,"city":"Pueblo","state":"CO","address":"3343 Gateway Drive","name":""},
  {"lat":39.810906,"lon":-104.770217,"city":"Denver","state":"CO","address":"18600 East 63rd Avenue","name":""},
  {"lat":28.501289,"lon":-82.590482,"city":"Spring Hill","state":"FL","address":"4881 Commercial Way","name":""},
  {"lat":28.519848,"lon":-82.238826,"city":"Brooksville","state":"FL","address":"6298 Nature Coast Blvd","name":""},
  {"lat":28.898715,"lon":-81.911573,"city":"Lady Lake","state":"FL","address":"850 South US Highway 27/441","name":""},
  {"lat":29.026445,"lon":-82.155577,"city":"Ocala","state":"FL","address":"1770 Southwest 134th Street","name":""},
  {"lat":28.271646,"lon":-82.189125,"city":"Zephyrhills","state":"FL","address":"7839 Gall Boulevard","name":""},
  {"lat":30.19116,"lon":-85.641215,"city":"Panama City","state":"FL","address":"1110 East 24th Street","name":""},
  {"lat":26.972172,"lon":-82.083282,"city":"Port Charlotte","state":"FL","address":"4056 Tamiami Trail","name":""},
  {"lat":28.669963,"lon":-82.147176,"city":"Bushnell","state":"FL","address":"2612 West County Road 48","name":""},
  {"lat":29.550972,"lon":-81.214264,"city":"Palm Coast","state":"FL","address":"16 Kingswood Drive","name":""},
  {"lat":30.484147,"lon":-81.665325,"city":"Jacksonville","state":"FL","address":"13200 Intl Airport Blvd","name":""},
  {"lat":30.724855,"lon":-85.183937,"city":"Marianna","state":"FL","address":"4959 Whitetail Drive","name":""},
  {"lat":28.825463,"lon":-81.796088,"city":"Leesburg","state":"FL","address":"9700 US 441","name":""},
  {"lat":36.885766,"lon":-104.432253,"city":"Raton","state":"NM","address":"1640 Cedar Street","name":""},
  {"lat":35.50742,"lon":-108.824903,"city":"Gallup","state":"NM","address":"3270 U.S. Rte 66","name":""},
  {"lat":35.078394,"lon":-106.745257,"city":"Albuquerque","state":"NM","address":"9910 Avalon Road Northwest","name":""},
  {"lat":32.485878,"lon":-86.408705,"city":"Prattville","state":"AL","address":"284 Interstate Hwy Park Loop","name":""},
  {"lat":32.622497,"lon":-85.398381,"city":"Opelika","state":"AL","address":"1651 Parker Way","name":""},
  {"lat":32.369215,"lon":-86.140087,"city":"Montgomery","state":"AL","address":"100 Gibbons Drive","name":""},
  {"lat":30.80385,"lon":-88.101959,"city":"Saraland","state":"AL","address":"1124 Shelton Beach Road","name":""},
  {"lat":34.711852,"lon":-87.670459,"city":"Tuscumbia","state":"AL","address":"1852 U.S. 72","name":""},
  {"lat":31.471333,"lon":-85.675657,"city":"Ozark","state":"AL","address":"1140 Highway 231 North","name":""},
  {"lat":33.368076,"lon":-86.81778,"city":"Hoover","state":"AL","address":"500 Jackson Drive","name":""},
  {"lat":32.563796,"lon":-85.503594,"city":"Auburn","state":"AL","address":"2174 South College Street","name":""},
  {"lat":33.645489,"lon":-86.824951,"city":"Gardendale","state":"AL","address":"850 Odum Road","name":""},
  {"lat":34.277317,"lon":-86.201681,"city":"Albertville","state":"AL","address":"220 Highway 75 North","name":""},
  {"lat":30.648239,"lon":-87.911758,"city":"Daphne","state":"AL","address":"29050 US Highway 98","name":""},
  {"lat":34.775936,"lon":-86.526715,"city":"Huntsville","state":"AL","address":"1820 Chase Creek Row","name":""},
  {"lat":33.173948,"lon":-87.451419,"city":"Tuscaloosa Cottondale","state":"AL","address":"6331 Interstate Drive","name":""},
  {"lat":30.293638,"lon":-87.683162,"city":"Gulf Shores","state":"AL","address":"3600 Gulf Shores Parkway","name":""},
  {"lat":39.032561,"lon":-76.692191,"city":"Gambrills","state":"MD","address":"2525 Evergreen Rd.","name":""},
  {"lat":38.339032,"lon":-75.117589,"city":"Ocean City","state":"MD","address":"12536 Ocean Gateway","name":""},
  {"lat":38.367738,"lon":-75.543834,"city":"Salisbury","state":"MD","address":"3050 Merritt Mill Road","name":""},
  {"lat":39.20317,"lon":-76.679684,"city":"Linthicum Heights","state":"MD","address":"1170 Winterson Road","name":""},
  {"lat":39.69161,"lon":-77.735297,"city":"Hagerstown","state":"MD","address":"13726 Oliver Drive","name":""},
  {"lat":39.214927,"lon":-78.138511,"city":"Winchester","state":"VA","address":"150 Faraday Plaza","name":""},
  {"lat":36.71005,"lon":-78.11011,"city":"South Hill","state":"VA","address":"111 Arnold Drive","name":""},
  {"lat":37.367165,"lon":-79.181389,"city":"Lynchburg","state":"VA","address":"5704 Seminole Avenue","name":""},
  {"lat":38.405623,"lon":-78.906764,"city":"Harrisonburg","state":"VA","address":"85 Pleasant Valley Road","name":""},
  {"lat":38.455058,"lon":-78.02106,"city":"Culpeper","state":"VA","address":"885 Willis Lane","name":""},
  {"lat":37.110016,"lon":-76.500542,"city":"Newport News","state":"VA","address":"501 Operations Drive","name":""},
  {"lat":37.52486,"lon":-77.32605,"city":"Sandston","state":"VA","address":"6000 Audubon Drive","name":""},
  {"lat":42.771706,"lon":-86.084145,"city":"Holland","state":"MI","address":"643 Hastings Avenue","name":""},
  {"lat":44.268669,"lon":-86.297096,"city":"Manistee","state":"MI","address":"226 East Parkdale Avenue","name":""},
  {"lat":42.303039,"lon":-83.688312,"city":"Ann Arbor","state":"MI","address":"3610 Plymouth Rd","name":""},
  {"lat":42.525414,"lon":-82.91394,"city":"Roseville","state":"MI","address":"20313 13 Mile Rd","name":""},
  {"lat":34.206624,"lon":-84.817217,"city":"Cartersville","state":"GA","address":"1348 Joe Frank Harris Pkwy SE","name":""},
  {"lat":32.445141,"lon":-84.926414,"city":"Columbus","state":"GA","address":"3930 St. Marys Road","name":""},
  {"lat":32.924951,"lon":-83.727429,"city":"Macon","state":"GA","address":"2020 Bowman Park","name":""},
  {"lat":32.435157,"lon":-83.758914,"city":"Perry","state":"GA","address":"110 Fairview Drive","name":""},
  {"lat":34.083908,"lon":-84.538271,"city":"Woodstock","state":"GA","address":"305 Molly Lane","name":""},
  {"lat":34.477039,"lon":-84.468641,"city":"Jasper","state":"GA","address":"171 H. Mullins Court","name":""},
  {"lat":32.567646,"lon":-84.965179,"city":"Columbus","state":"GA","address":"1728 Fountain Court","name":""},
  {"lat":33.652908,"lon":-84.010277,"city":"Conyers","state":"GA","address":"1412 Old McDonough Highway","name":""},
  {"lat":33.524986,"lon":-82.035583,"city":"Augusta","state":"GA","address":"2909 River West Dr","name":""},
  {"lat":31.452511,"lon":-83.5283,"city":"Tifton","state":"GA","address":"196 Virginia Ave. South","name":""},
  {"lat":30.790894,"lon":-81.654663,"city":"Kingsland","state":"GA","address":"1325 East King Avenue","name":""},
  {"lat":33.698524,"lon":-84.120651,"city":"Lithonia","state":"GA","address":"2980 Evans Mill Road","name":""},
  {"lat":33.505938,"lon":-84.224442,"city":"Stockbridge","state":"GA","address":"195 Country Club Drive","name":""},
  {"lat":33.688085,"lon":-85.153136,"city":"Bremen","state":"GA","address":"104 Price Creek Road","name":""},
  {"lat":33.836082,"lon":-84.335548,"city":"Atlanta","state":"GA","address":"1840 Corporate Blvd Northeast","name":""},
  {"lat":33.945271,"lon":-83.442101,"city":"Athens","state":"GA","address":"1050 Ultimate Drive","name":""},
  {"lat":33.923659,"lon":-84.21144,"city":"Norcross","state":"GA","address":"2150 North Norcross Tucker Rd","name":""},
  {"lat":33.623596,"lon":-84.454834,"city":"College Park","state":"GA","address":"4839 Massachusetts Blvd","name":""},
  {"lat":32.11021,"lon":-81.236046,"city":"Pooler","state":"GA","address":"125 Continental Boulevard","name":""},
  {"lat":32.52324,"lon":-93.701943,"city":"Bossier City","state":"LA","address":"2713 Village Lane","name":""},
  {"lat":30.521179,"lon":-91.156433,"city":"Baton Rouge","state":"LA","address":"3444 Harding Blvd.","name":""},
  {"lat":30.355215,"lon":-89.74387,"city":"Pearl River","state":"LA","address":"63537 Highway 1090","name":""},
  {"lat":30.43764,"lon":-90.452112,"city":"Ponchatoula","state":"LA","address":"727 West Pine Street","name":""},
  {"lat":29.616402,"lon":-90.757506,"city":"Houma","state":"LA","address":"1801 Martin Luther King Blvd","name":""},
  {"lat":30.426882,"lon":-91.072191,"city":"Baton Rouge","state":"LA","address":"10311 Plaza Americana Drive","name":""},
  {"lat":30.241333,"lon":-92.06587,"city":"Scott","state":"LA","address":"301 Ambassador Caffery Parkway","name":""},
  {"lat":43.030064,"lon":-91.130575,"city":"Prairie du Chien","state":"WI","address":"1833 South Marquette Road","name":""},
  {"lat":43.877402,"lon":-91.177018,"city":"Onalaska","state":"WI","address":"3240 North Kinney Coulee Road","name":""},
  {"lat":45.474682,"lon":-91.753937,"city":"Rice Lake","state":"WI","address":"2771 Decker Dr","name":""},
  {"lat":44.023634,"lon":-90.505703,"city":"Tomah","state":"WI","address":"115 West Andres Street","name":""},
  {"lat":43.76041,"lon":-88.473854,"city":"Fond du Lac","state":"WI","address":"682 S Pioneer Road","name":""},
  {"lat":44.26466,"lon":-88.471802,"city":"Appleton","state":"WI","address":"321 Metro Drive","name":""},
  {"lat":43.128896,"lon":-89.29342,"city":"Madison","state":"WI","address":"2139 East Springs Drive","name":""},
  {"lat":42.714847,"lon":-88.981829,"city":"Janesville","state":"WI","address":"3121 Wellington Place","name":""},
  {"lat":40.67327,"lon":-99.083678,"city":"Kearney","state":"NE","address":"104 Talmadge","name":""},
  {"lat":41.138934,"lon":-95.958114,"city":"Bellevue","state":"NE","address":"3008 Samson Way","name":""},
  {"lat":40.847282,"lon":-96.685234,"city":"Lincoln","state":"NE","address":"2505 Fairfield Street","name":""},
  {"lat":46.845532,"lon":-96.761504,"city":"Moorhead","state":"MN","address":"2915 12th Street South","name":""},
  {"lat":44.866489,"lon":-93.058449,"city":"Inver Grove Heights","state":"MN","address":"5681 Bishop Ave","name":""},
  {"lat":44.180387,"lon":-93.959413,"city":"Mankato","state":"MN","address":"200 St Andrews Drive","name":""},
  {"lat":44.243697,"lon":-94.968425,"city":"Springfield","state":"MN","address":"502 East Rock Street","name":""},
  {"lat":44.294398,"lon":-94.439979,"city":"New Ulm","state":"MN","address":"424 20th South Street","name":""},
  {"lat":44.861773,"lon":-93.262885,"city":"Bloomington","state":"MN","address":"801 East 78th Street","name":""},
  {"lat":44.847298,"lon":-93.147575,"city":"Eagan","state":"MN","address":"3000 Denmark Avenue","name":""},
  {"lat":44.066812,"lon":-92.50334,"city":"Rochester","state":"MN","address":"4210 Highway 52 North","name":""},
  {"lat":44.102552,"lon":-103.201588,"city":"Rapid City","state":"SD","address":"1740 Rapp Street","name":""},
  {"lat":43.518751,"lon":-96.778698,"city":"Sioux Falls","state":"SD","address":"2901 South Carolyn Ave","name":""},
  {"lat":35.460717,"lon":-86.055122,"city":"Manchester","state":"TN","address":"201 Expressway Drive","name":""},
  {"lat":35.500896,"lon":-86.458443,"city":"Shelbyville","state":"TN","address":"1207 North Main Street","name":""},
  {"lat":35.822397,"lon":-83.577355,"city":"Pigeon Forge","state":"TN","address":"2045 Parkway","name":""},
  {"lat":35.045975,"lon":-85.157257,"city":"Chattanooga","state":"TN","address":"7014 McCutcheon Road","name":""},
  {"lat":35.191578,"lon":-89.797935,"city":"Cordova","state":"TN","address":"2423 North Germantown Parkway","name":""},
  {"lat":36.596413,"lon":-87.28141,"city":"Clarksville","state":"TN","address":"241 Holiday Drive","name":""},
  {"lat":35.844872,"lon":-86.429726,"city":"Murfreesboro","state":"TN","address":"151 Chaffin Place","name":""},
  {"lat":35.709438,"lon":-83.517555,"city":"Gatlinburg","state":"TN","address":"211 Historic Nature Trail","name":""},
  {"lat":40.570835,"lon":-112.29181,"city":"Tooele","state":"UT","address":"2284 North 470 East","name":""},
  {"lat":40.1605,"lon":-111.649546,"city":"Springville","state":"UT","address":"535 South 2000 West","name":""},
  {"lat":40.423759,"lon":-109.499352,"city":"Naples","state":"UT","address":"1041 South 1500 East","name":""},
  {"lat":40.77,"lon":-112.002831,"city":"Salt Lake City","state":"UT","address":"61 North Tommy Tompson Road","name":""},
  {"lat":35.188674,"lon":-101.938964,"city":"Amarillo","state":"TX","address":"2302 S. Soncy Road","name":""},
  {"lat":30.58789,"lon":-96.289928,"city":"College Station","state":"TX","address":"1820 Ponderosa Drive","name":""},
  {"lat":33.552575,"lon":-101.845724,"city":"Lubbock","state":"TX","address":"4620 I-27 Frontage Road","name":""},
  {"lat":32.450483,"lon":-100.445868,"city":"Sweetwater","state":"TX","address":"9416 N Interstate 20","name":""},
  {"lat":28.817398,"lon":-97.858718,"city":"Kenedy","state":"TX","address":"333 North Sunset Strip Drive","name":""},
  {"lat":31.975951,"lon":-102.070319,"city":"Midland","state":"TX","address":"200 West Longview Avenue","name":""},
  {"lat":31.399185,"lon":-103.481222,"city":"Pecos","state":"TX","address":"5204 South Cedar Street","name":""},
  {"lat":28.943444,"lon":-98.505971,"city":"Pleasanton","state":"TX","address":"1311 Brush Country Lane","name":""},
  {"lat":31.899043,"lon":-102.340049,"city":"Odessa","state":"TX","address":"4300 East 50th Street","name":""},
  {"lat":28.434341,"lon":-99.250645,"city":"Cotulla","state":"TX","address":"499 North Interstate 35","name":""},
  {"lat":30.484291,"lon":-97.647789,"city":"Round Rock","state":"TX","address":"6 Roundville Lane","name":""},
  {"lat":30.083216,"lon":-97.828134,"city":"Buda","state":"TX","address":"1285 Cabelas Drive","name":""},
  {"lat":28.693012,"lon":-100.482012,"city":"Eagle Pass","state":"TX","address":"2352 El Indio Highway","name":""},
  {"lat":30.216318,"lon":-97.690237,"city":"Austin","state":"TX","address":"7705 Metro Center Drive","name":""},
  {"lat":29.701342,"lon":-98.097374,"city":"New Braunfels","state":"TX","address":"1175 North Business IH 35","name":""},
  {"lat":31.439026,"lon":-100.500482,"city":"San Angelo","state":"TX","address":"4649 West Houston Harte Expr","name":""},
  {"lat":27.900213,"lon":-97.143173,"city":"Aransas Pass","state":"TX","address":"355 East Goodnight Avenue","name":""},
  {"lat":32.836391,"lon":-97.292763,"city":"Fort Worth","state":"TX","address":"3740 Tanacross Drive","name":""},
  {"lat":35.195459,"lon":-101.817131,"city":"Amarillo","state":"TX","address":"1501 Ross Street","name":""},
  {"lat":29.549365,"lon":-95.095474,"city":"Houston","state":"TX","address":"1620 NASA Parkway","name":""},
  {"lat":32.86194,"lon":-96.65498,"city":"Garland","state":"TX","address":"1901 Pendleton Drive","name":""},
  {"lat":40.190488,"lon":-77.163506,"city":"Carlisle","state":"PA","address":"15 Westminster Drive","name":""},
  {"lat":41.182075,"lon":-79.393246,"city":"Clarion","state":"PA","address":"121 North Point Drive","name":""},
  {"lat":40.448104,"lon":-80.18126,"city":"Pittsburgh","state":"PA","address":"900 Chauvet Drive","name":""},
  {"lat":40.500857,"lon":-78.388215,"city":"Altoona","state":"PA","address":"1601 Valley View Boulevard","name":""},
  {"lat":39.869766,"lon":-75.319786,"city":"Ridley Park","state":"PA","address":"155 South Stewart Avenue","name":""},
  {"lat":40.779775,"lon":-80.391828,"city":"Beaver Falls","state":"PA","address":"2801 Darlington Road","name":""},
  {"lat":41.974368,"lon":-76.540656,"city":"Sayre","state":"PA","address":"1775 Elmira Street","name":""},
  {"lat":39.898313,"lon":-80.14153,"city":"Waynesburg","state":"PA","address":"300 Comfort Lane","name":""},
  {"lat":41.451439,"lon":-75.63562,"city":"Dickson City","state":"PA","address":"232 Main Street","name":""},
  {"lat":41.805214,"lon":-77.078006,"city":"Mansfield","state":"PA","address":"90 Dorsett Heights","name":""},
  {"lat":40.561261,"lon":-75.999808,"city":"Hamburg","state":"PA","address":"50 Industrial Drive","name":""},
  {"lat":39.886234,"lon":-75.246967,"city":"Philadelphia","state":"PA","address":"8840 Tinicum Blvd","name":""},
  {"lat":39.943321,"lon":-75.586431,"city":"West Chester","state":"PA","address":"500 Willowbrook Lane","name":""},
  {"lat":41.415065,"lon":-73.395078,"city":"Bethel","state":"CT","address":"80 Benedict Road","name":""},
  {"lat":41.47788,"lon":-72.099803,"city":"Uncasville","state":"CT","address":"1954 Norwich New London Tpke","name":""},
  {"lat":41.241274,"lon":-95.89768,"city":"Council Bluffs","state":"IA","address":"2141 South 35th St","name":""},
  {"lat":41.695523,"lon":-93.245966,"city":"Colfax","state":"IA","address":"11000 Federal Ave","name":""},
  {"lat":43.147869,"lon":-93.358803,"city":"Clear Lake","state":"IA","address":"1305 North 25th Street","name":""},
  {"lat":41.649011,"lon":-93.738378,"city":"Urbandale","state":"IA","address":"8711 Plum Drive","name":""},
  {"lat":42.008074,"lon":-93.583453,"city":"Ames","state":"IA","address":"2216 Southeast 16th Street","name":""},
  {"lat":33.962935,"lon":-80.94169,"city":"Columbia","state":"SC","address":"7504 Garners Ferry Rd.","name":""},
  {"lat":34.579018,"lon":-82.712753,"city":"Anderson","state":"SC","address":"102 Electric City Boulevard","name":""},
  {"lat":32.877913,"lon":-80.719652,"city":"Walterboro","state":"SC","address":"130 Cane Branch Road","name":""},
  {"lat":34.235328,"lon":-79.804559,"city":"Florence","state":"SC","address":"1912 Enterprise Drive","name":""},
  {"lat":34.973679,"lon":-80.990199,"city":"Rock Hill","state":"SC","address":"1047 Riverview Road","name":""},
  {"lat":34.835736,"lon":-82.312708,"city":"Greenville","state":"SC","address":"1024 Woodruff Road","name":""},
  {"lat":34.077102,"lon":-80.944971,"city":"Columbia","state":"SC","address":"1520 Barbara Dr","name":""},
  {"lat":34.90958,"lon":-82.10301,"city":"Duncan","state":"SC","address":"1534 East Main St","name":""},
  {"lat":37.967364,"lon":-90.057112,"city":"Sainte Genevieve","state":"MO","address":"21958 Highway 32","name":""},
  {"lat":39.250877,"lon":-94.448943,"city":"Liberty","state":"MO","address":"413 N State Route 291","name":""},
  {"lat":37.044114,"lon":-94.480223,"city":"Joplin","state":"MO","address":"4101 Richard Joseph Boulevard","name":""},
  {"lat":36.298458,"lon":-97.29882,"city":"Perry","state":"OK","address":"410 32nd Street","name":""},
  {"lat":34.188802,"lon":-97.170038,"city":"Ardmore","state":"OK","address":"1904 Cooper Drive","name":""},
  {"lat":36.276765,"lon":-95.639411,"city":"Claremore","state":"OK","address":"10600 East Mallard Lake Road","name":""},
  {"lat":36.871255,"lon":-94.854949,"city":"Miami","state":"OK","address":"2015 East Steve Owens Blvd","name":""},
  {"lat":34.671512,"lon":-99.333837,"city":"Altus","state":"OK","address":"3210 North Main Street","name":""},
  {"lat":34.004182,"lon":-94.739478,"city":"Broken Bow","state":"OK","address":"1701 South. Park Drive","name":""},
  {"lat":35.459388,"lon":-97.618573,"city":"Oklahoma City","state":"OK","address":"624 South MacArthur Blvd.","name":""},
  {"lat":36.160509,"lon":-95.793978,"city":"Tulsa","state":"OK","address":"16518 East Admiral Place","name":""},
  {"lat":34.77651,"lon":-77.38978,"city":"Jacksonville","state":"NC","address":"2411 Commerce Road","name":""},
  {"lat":35.38151,"lon":-83.25536,"city":"Sylva","state":"NC","address":"89 Rufus Robinson Rd","name":""},
  {"lat":35.422158,"lon":-83.436291,"city":"Bryson City","state":"NC","address":"82 Songbird Forest Road","name":""},
  {"lat":35.6139,"lon":-77.401551,"city":"Greenville","state":"NC","address":"450 Moye Boulevard","name":""},
  {"lat":35.764115,"lon":-78.007497,"city":"Wilson","state":"NC","address":"5013 Hayes Place West","name":""},
  {"lat":35.160221,"lon":-79.410057,"city":"Southern Pines","state":"NC","address":"205 Windstar Place","name":""},
  {"lat":35.462885,"lon":-83.313897,"city":"Cherokee","state":"NC","address":"674 Casino Trail","name":""},
  {"lat":35.856414,"lon":-80.104172,"city":"Thomasville","state":"NC","address":"959 Lake Road","name":""},
  {"lat":35.415767,"lon":-78.799326,"city":"Lillington","state":"NC","address":"300 East Cornelius Harnett Blv","name":""},
  {"lat":35.79647,"lon":-78.57619,"city":"Raleigh","state":"NC","address":"1209 Plainview Drive","name":""},
  {"lat":36.062429,"lon":-79.43456,"city":"Burlington","state":"NC","address":"2185 Hanford Road","name":""},
  {"lat":35.240955,"lon":-80.921509,"city":"Charlotte","state":"NC","address":"3412 Queen City Drive","name":""},
  {"lat":35.77174,"lon":-80.867096,"city":"Statesville","state":"NC","address":"109 Landson Drive","name":""},
  {"lat":35.161648,"lon":-83.390137,"city":"Franklin","state":"NC","address":"81 Allman Drive","name":""},
  {"lat":35.861591,"lon":-78.818054,"city":"Morrisville","state":"NC","address":"104 Factory Shops Road","name":""},
  {"lat":35.487103,"lon":-80.875572,"city":"Cornelius","state":"NC","address":"20820 Torrence Chapel Rd","name":""},
  {"lat":36.058994,"lon":-79.889282,"city":"Greensboro","state":"NC","address":"4304 Big Tree Way","name":""},
  {"lat":35.448391,"lon":-80.60746,"city":"Kannapolis","state":"NC","address":"3113 Cloverleaf Parkway","name":""},
  {"lat":36.059126,"lon":-79.105329,"city":"Hillsborough","state":"NC","address":"120 Old Dogwood Street","name":""},
  {"lat":35.305801,"lon":-80.852104,"city":"Charlotte","state":"NC","address":"6309 Banner Elk Drive","name":""},
  {"lat":35.120251,"lon":-80.697235,"city":"Matthews","state":"NC","address":"1603 Matthews Mint Hill Road","name":""},
  {"lat":35.299326,"lon":-80.752241,"city":"Charlotte","state":"NC","address":"132 East McCullough Drive","name":""},
  {"lat":43.046182,"lon":-77.106274,"city":"Newark","state":"NY","address":"434 East Union Street","name":""},
  {"lat":43.06374,"lon":77.35958,"city":"Macedon","state":"NY","address":"350 NY State Rt. 31","name":""},
  {"lat":42.97207,"lon":-77.353383,"city":"Farmington","state":"NY","address":"1299 NYS Route 332","name":""},
  {"lat":42.92977,"lon":-74.20379,"city":"Amsterdam","state":"NY","address":"1393 State Hwy 5S","name":""},
  {"lat":42.7517,"lon":-78.132545,"city":"Warsaw","state":"NY","address":"287 North Main Street","name":""},
  {"lat":40.75188,"lon":-73.934379,"city":"Long Island City","state":"NY","address":"29 12 40th Ave","name":""},
  {"lat":43.089302,"lon":-78.97522,"city":"Niagara Falls","state":"NY","address":"7726 Niagara Falls Blvd","name":""},
  {"lat":42.11911,"lon":-75.944954,"city":"Binghamton","state":"NY","address":"400 Prospect Street","name":""},
  {"lat":42.660704,"lon":-77.054841,"city":"Penn Yan","state":"NY","address":"124 Elm Street","name":""},
  {"lat":42.857441,"lon":-77.007866,"city":"Geneva","state":"NY","address":"550 Hamilton Street","name":""},
  {"lat":43.103393,"lon":-77.754125,"city":"Rochester","state":"NY","address":"3258 Chili Avenue","name":""},
  {"lat":42.501908,"lon":-78.689189,"city":"Springville","state":"NY","address":"270 Cascade Drive","name":""},
  {"lat":42.117018,"lon":-77.941045,"city":"Wellsville","state":"NY","address":"30 West Dyke St","name":""},
  {"lat":43.011229,"lon":-74.360192,"city":"Johnstown","state":"NY","address":"136 North Comrie Avenue","name":""},
  {"lat":42.079755,"lon":-78.477395,"city":"Olean","state":"NY","address":"3234 NYS Route 417","name":""},
  {"lat":44.6963,"lon":-73.502054,"city":"Plattsburgh","state":"NY","address":"554 State Route 3","name":""},
  {"lat":42.340251,"lon":-77.33493,"city":"Bath","state":"NY","address":"370 West Morris Street","name":""},
  {"lat":41.446319,"lon":-74.364763,"city":"Middletown","state":"NY","address":"19 Crystal Run Crossing","name":""},
  {"lat":43.150444,"lon":-76.34481,"city":"Baldwinsville","state":"NY","address":"131 Downer Street","name":""},
  {"lat":42.906982,"lon":-76.82505,"city":"Seneca Falls","state":"NY","address":"1966 Route 5 and 20","name":""},
  {"lat":42.752884,"lon":-73.771286,"city":"Latham","state":"NY","address":"7 Rensselaer Avenue","name":""},
  {"lat":43.008936,"lon":-77.446783,"city":"Victor","state":"NY","address":"7498 Main Street Fishers","name":""},
  {"lat":39.68546,"lon":-80.856793,"city":"New Martinsville","state":"WV","address":"410 N State Route 2","name":""},
  {"lat":40.063102,"lon":-80.593297,"city":"Triadelphia","state":"WV","address":"85 Fort Henry Road","name":""},
  {"lat":37.359223,"lon":-81.05632,"city":"Princeton","state":"WV","address":"250 Ambrose Lane","name":""},
  {"lat":38.6597,"lon":-80.7565,"city":"Gassaway","state":"WV","address":"115 Reston Place","name":""},
  {"lat":39.6586,"lon":-79.51796,"city":"Hazelton","state":"WV","address":"886 Casteel Road","name":""},
  {"lat":39.324617,"lon":-80.231825,"city":"Bridgeport","state":"WV","address":"201 Conference Center Way","name":""},
  {"lat":37.769534,"lon":-81.159943,"city":"Beckley","state":"WV","address":"1001 South Eisenhower Dr.","name":""},
  {"lat":37.796912,"lon":-81.221039,"city":"Beckley","state":"WV","address":"2130 Harper Road","name":""},
  {"lat":39.191884,"lon":-81.531248,"city":"Mineral Wells","state":"WV","address":"94 Old Nicolette Road","name":""},
  {"lat":38.366553,"lon":-81.686304,"city":"Charleston","state":"WV","address":"600 Second Avenue","name":""},
  {"lat":40.26831,"lon":-82.92969,"city":"Sunbury","state":"OH","address":"7323 State Route 37 East","name":""},
  {"lat":40.585649,"lon":-81.092052,"city":"Carrollton","state":"OH","address":"1030 Canton Rd NW","name":""},
  {"lat":40.280179,"lon":-81.00049,"city":"Cadiz","state":"OH","address":"620 Lincoln Ave","name":""},
  {"lat":40.076386,"lon":-80.866068,"city":"Saint Clairsville","state":"OH","address":"51128 National Road East","name":""},
  {"lat":39.410421,"lon":-81.428437,"city":"Marietta","state":"OH","address":"506 Pike Street","name":""},
  {"lat":40.8469,"lon":-84.317,"city":"Delphos","state":"OH","address":"480 Moxie Lane","name":""},
  {"lat":39.359558,"lon":-84.266525,"city":"Mason","state":"OH","address":"5324 Beach Boulevard","name":""},
  {"lat":39.74276,"lon":-84.114716,"city":"Dayton","state":"OH","address":"4500 Linden Ave","name":""},
  {"lat":40.883396,"lon":-81.432526,"city":"North Canton","state":"OH","address":"7046 Sunset Strip Avenue","name":""},
  {"lat":40.001667,"lon":-81.578232,"city":"Cambridge","state":"OH","address":"8779 Georgetown Road","name":""},
  {"lat":39.003681,"lon":-84.648643,"city":"Florence","state":"KY","address":"7490 Woodspoint Dr","name":""},
  {"lat":38.22266,"lon":-84.541946,"city":"Georgetown","state":"KY","address":"111 Darby Drive","name":""},
  {"lat":36.932011,"lon":-86.417526,"city":"Bowling Green","state":"KY","address":"1980 Mel Browning Rd.","name":""},
  {"lat":38.68475,"lon":-84.599197,"city":"Dry Ridge","state":"KY","address":"79 Blackburn Lane","name":""},
  {"lat":38.222927,"lon":-85.542557,"city":"Louisville","state":"KY","address":"1221 Kentucky Mills Drive","name":""},
  {"lat":38.042156,"lon":-84.427063,"city":"Lexington","state":"KY","address":"2240 Buena Vista","name":""},
  {"lat":37.111324,"lon":-84.097359,"city":"London","state":"KY","address":"1895 Highway 192 West","name":""}]}