{"key":"motel_6","displayName":"Motel 6","category":"hotels","useLocationName":false,"locations":[
  {"lat":37.500514,"lon":-77.522854,"city":"Richmond","state":"VA","address":"100 GRESHAMWOOD PLACE","name":""},
  {"lat":38.291989,"lon":-112.649569,"city":"Beaver","state":"UT","address":"1345 North 450","name":""},
  {"lat":33.97602,"lon":-84.091591,"city":"Duluth","state":"GA","address":"2350 Stephens Center Drive","name":""},
  {"lat":37.712383,"lon":-85.833346,"city":"Elizabethtown","state":"KY","address":"1042 North Mulberry Street","name":""},
  {"lat":38.29579,"lon":-85.754814,"city":"Jeffersonville","state":"IN","address":"2012 Hospitality Way","name":""},
  {"lat":36.85261,"lon":-76.21091,"city":"Norfolk","state":"VA","address":"853 North Military Highway","name":""},
  {"lat":31.174931,"lon":-83.755042,"city":"Moultrie","state":"GA","address":"2405 1st Avenue Southeast","name":""},
  {"lat":37.371531,"lon":-118.39632,"city":"Bishop","state":"CA","address":"1005 N MAIN ST","name":""},
  {"lat":39.675163,"lon":-75.681727,"city":"Newark","state":"DE","address":"100 McIntosh Plaza","name":""},
  {"lat":37.799989,"lon":-122.43843,"city":"San Francisco","state":"CA","address":"2230 Lombard Street","name":""},
  {"lat":32.074889,"lon":-84.243847,"city":"Americus","state":"GA","address":"1007 South Martin Luther King Boulevard","name":""},
  {"lat":42.091373,"lon":-88.031379,"city":"Rolling Meadows","state":"IL","address":"1800 WINNETKA CIRCLE","name":""},
  {"lat":28.516483,"lon":-82.571832,"city":"Tampa","state":"FL","address":"6172 Commercial Way","name":""},
  {"lat":30.209599,"lon":-90.95379,"city":"Gonzales","state":"LA","address":"2700 South Saint Landry Avenue","name":""},
  {"lat":34.720345,"lon":-82.258995,"city":"Simpsonville","state":"SC","address":"3706 Grandview Drive","name":""},
  {"lat":35.3795,"lon":-120.856527,"city":"Morro Bay","state":"CA","address":"298 Atascadero Road","name":""},
  {"lat":35.13663,"lon":-90.027586,"city":"Memphis","state":"TN","address":"210 S. Pauline Street","name":""},
  {"lat":34.392972,"lon":-119.510417,"city":"Carpinteria","state":"CA","address":"5550 Carpinteria Avenue","name":""},
  {"lat":29.732958,"lon":-95.559369,"city":"Houston","state":"TX","address":"2950 West Sam Houston Parkway South","name":""},
  {"lat":30.69333,"lon":-95.554155,"city":"Huntsville","state":"TX","address":"613 INTERSTATE 45 S","name":""},
  {"lat":32.77473,"lon":-115.550644,"city":"El Centro","state":"CA","address":"395 Smoketree Drive","name":""},
  {"lat":40.130479,"lon":-88.196459,"city":"Urbana,","state":"IL","address":"1906 North Cunningham Avenue","name":""},
  {"lat":28.635204,"lon":-96.622021,"city":"Port Lavaca","state":"TX","address":"2100 Texas 35","name":""},
  {"lat":31.444577,"lon":-100.442444,"city":"San Angelo","state":"TX","address":"1601 South Bryant Boulevard","name":""},
  {"lat":34.258531,"lon":-84.462402,"city":"Canton","state":"GA","address":"114 Riverpoint Parkway","name":""},
  {"lat":31.111634,"lon":-97.357437,"city":"Temple","state":"TX","address":"802 North General Bruce Drive","name":""},
  {"lat":32.454881,"lon":-97.383424,"city":"Joshua","state":"TX","address":"501 SOUTH BROADWAY ST","name":""},
  {"lat":32.610032,"lon":-96.821707,"city":"Lancaster","state":"TX","address":"1750 NORTH I-35 E","name":""},
  {"lat":30.386558,"lon":-88.515848,"city":"Pascagoula","state":"MS","address":"4419 Denny Avenue","name":""},
  {"lat":30.384071,"lon":-91.063256,"city":"Baton Rouge","state":"LA","address":"10445 Reiger Road","name":""},
  {"lat":32.677653,"lon":-117.094542,"city":"National City","state":"CA","address":"1125 EAST PLAZA BLVD","name":""},
  {"lat":32.836749,"lon":-97.097583,"city":"Euless","state":"TX","address":"1001 W Airport Freeway","name":""},
  {"lat":33.468276,"lon":-94.044877,"city":"Texarkana","state":"TX","address":"5105 North State Line Avenue","name":""},
  {"lat":41.230159,"lon":-95.852404,"city":"Council Bluffs","state":"IA","address":"3032 South Expressway Street","name":""},
  {"lat":32.651557,"lon":-97.32374,"city":"Fort Worth","state":"TX","address":"6450 South Freeway","name":""},
  {"lat":34.953451,"lon":-120.419686,"city":"Santa Maria","state":"CA","address":"1007 East Main Street","name":""},
  {"lat":35.191964,"lon":-84.886435,"city":"Cleveland","state":"TN","address":"3000 Valley Hills Trail","name":""},
  {"lat":30.199207,"lon":-93.17867,"city":"Lake-Charles","state":"LA","address":"2607 Admiral King Street","name":""},
  {"lat":37.389163,"lon":-120.738748,"city":"Livingston","state":"CA","address":"110 Del Rio Avenue","name":""},
  {"lat":30.515432,"lon":-92.07095,"city":"Opelousas","state":"LA","address":"5791 Interstate 49 South Service Road","name":""},
  {"lat":34.065857,"lon":-117.611723,"city":"Ontario","state":"CA","address":"231 North Vineyard Avenue","name":""},
  {"lat":38.960812,"lon":-92.286773,"city":"Columbia","state":"MO","address":"3402 Interstate 70 Drive Southeast","name":""},
  {"lat":39.535347,"lon":-119.776511,"city":"Sparks","state":"NV","address":"2405 Victorian Ave","name":""},
  {"lat":30.787827,"lon":-81.655834,"city":"Kingsland","state":"GA","address":"120 ROBERT L EDENFIELD D","name":""},
  {"lat":33.389381,"lon":-111.838237,"city":"Mesa","state":"AZ","address":"336 W HAMPTON AVE","name":""},
  {"lat":33.498176,"lon":-117.150813,"city":"Temecula","state":"CA","address":"41900 Moreno Road","name":""},
  {"lat":34.136008,"lon":-116.079222,"city":"Twentynine Palms","state":"CA","address":"72562 Twentynine Palms Highway","name":""},
  {"lat":32.798309,"lon":-96.825757,"city":"Dallas","state":"TX","address":"2023 Market Center Boulevard","name":""},
  {"lat":29.900852,"lon":-97.904498,"city":"San Marcos","state":"TX","address":"2212 North Interstate 35","name":""},
  {"lat":47.188741,"lon":-122.460389,"city":"Tacoma","state":"WA","address":"1811 South 76th Street","name":""},
  {"lat":33.111583,"lon":-94.185217,"city":"Atlanta","state":"TX","address":"1100 West Main Street","name":""},
  {"lat":36.695365,"lon":-121.803625,"city":"Marina","state":"CA","address":"100 Reservation Road","name":""},
  {"lat":35.403781,"lon":-119.401794,"city":"Buttonwillow","state":"CA","address":"20638 TRACY AVE","name":""},
  {"lat":29.392245,"lon":-94.950391,"city":"Texas City","state":"TX","address":"902 Texas 146","name":""},
  {"lat":42.007309,"lon":-87.937642,"city":"Elk Grove Village","state":"IL","address":"2881 Touhy Avenue","name":""},
  {"lat":29.530738,"lon":-95.126935,"city":"Webster","state":"TX","address":"1001 West Nasa Parkway","name":""},
  {"lat":35.663409,"lon":-101.399996,"city":"Borger","state":"TX","address":"100 Bulldog Boulevard","name":""},
  {"lat":36.012279,"lon":-83.977998,"city":"Knoxville","state":"TN","address":"5640 Merchant Cntr Blvd","name":""},
  {"lat":36.044782,"lon":-79.845882,"city":"Greensboro","state":"NC","address":"2000 Veasley Street","name":""},
  {"lat":40.161892,"lon":-80.28235,"city":"Washington","state":"PA","address":"1385 West Chestnut Street","name":""},
  {"lat":31.574746,"lon":-94.674038,"city":"Nacogdoches","state":"TX","address":"3400 South Street","name":""},
  {"lat":38.22335,"lon":-122.126478,"city":"Fairfield","state":"CA","address":"4376 Central Place","name":""},
  {"lat":35.444869,"lon":-94.321908,"city":"Van Buren","state":"AR","address":"3200 Alma Highway","name":""},
  {"lat":35.34824,"lon":-81.934099,"city":"Spindale,","state":"NC","address":"188 Reservation Drive","name":""},
  {"lat":42.717443,"lon":-73.834024,"city":"Albany","state":"NY","address":"1600 CENTRAL AVENUE","name":""},
  {"lat":37.787168,"lon":-122.194988,"city":"Oakland","state":"CA","address":"3250 MacArthur Blvd, Oakland CA","name":""},
  {"lat":33.822766,"lon":-117.958927,"city":"Anaheim","state":"CA","address":"701 South Brookhurst Street","name":""},
  {"lat":36.601741,"lon":-78.15533,"city":"Bracey","state":"VA","address":"2850 State Route 903","name":""},
  {"lat":33.836436,"lon":-84.247565,"city":"Tucker","state":"GA","address":"1795 Crescent Centre Blvd.","name":""},
  {"lat":32.809763,"lon":-98.066943,"city":"Mineral Wells","state":"TX","address":"105 Karl Kessler Boulevard","name":""},
  {"lat":36.223635,"lon":-119.334836,"city":"Tulare","state":"CA","address":"1111 N Blackstone Dr","name":""},
  {"lat":26.173144,"lon":-98.001038,"city":"Weslaco","state":"TX","address":"1024 WEST EXPRESSWAY 83","name":""},
  {"lat":41.158204,"lon":-80.664485,"city":"Youngstown","state":"OH","address":"4249 Belmont Avenue","name":""},
  {"lat":38.455653,"lon":-121.844773,"city":"Dixon","state":"CA","address":"1480 Ary Lane","name":""},
  {"lat":33.871474,"lon":-118.276461,"city":"Gardena","state":"CA","address":"111 West Albertoni St","name":""},
  {"lat":44.045879,"lon":-92.49027,"city":"Rochester","state":"MN","address":"2107 West Frontage Road","name":""},
  {"lat":41.029902,"lon":-76.350388,"city":"Bloomsburg","state":"PA","address":"6305 COLUMBIA BLVD","name":""},
  {"lat":35.604774,"lon":-77.396807,"city":"Greenville","state":"NC","address":"810 South Memorial Drive","name":""},
  {"lat":32.834624,"lon":-97.22269,"city":"North Richland Hills","state":"TX","address":"7450 NE Loop 820","name":""},
  {"lat":34.893016,"lon":-95.772903,"city":"McAlester","state":"OK","address":"1400 South George Nigh Expressway","name":""},
  {"lat":44.372408,"lon":-89.816498,"city":"Wisconsin Rapids","state":"WI","address":"911 Huntington Avenue","name":""},
  {"lat":40.123741,"lon":-74.840096,"city":"Levittown","state":"PA","address":"6401 BRISTOL PIKE","name":""},
  {"lat":29.968111,"lon":-92.084413,"city":"Abbeville","state":"LA","address":"3523 Veterans Memorial Drive","name":""},
  {"lat":40.45403,"lon":-86.112796,"city":"Kokomo","state":"IN","address":"2808 South Reed Road","name":""},
  {"lat":34.069805,"lon":-118.02811,"city":"El Monte","state":"CA","address":"3429 Peck Road","name":""},
  {"lat":33.652806,"lon":-84.368457,"city":"Atlanta","state":"GA","address":"3701 Jonesboro Road Southeast","name":""},
  {"lat":32.504889,"lon":-92.0813,"city":"Monroe","state":"LA","address":"1035 Martin Luther King Junior Drive","name":""},
  {"lat":40.270209,"lon":-74.513736,"city":"East Windsor","state":"NJ","address":"351 Franklin Street","name":""},
  {"lat":37.646114,"lon":-121.003136,"city":"Modesto","state":"CA","address":"807 NEEDHAM STREET","name":""},
  {"lat":33.658995,"lon":-96.599308,"city":"Sherman","state":"TX","address":"2105 Texoma Parkway","name":""},
  {"lat":41.754951,"lon":-71.435114,"city":"Warwick","state":"RI","address":"20 JEFFERSON BLVD","name":""},
  {"lat":32.366718,"lon":-90.151474,"city":"Jackson","state":"MS","address":"5035 Interstate 55 North Frontage Road","name":""},
  {"lat":32.853093,"lon":-97.111713,"city":"Bedford","state":"TX","address":"2904 CRYSTAL SPRINGS","name":""},
  {"lat":39.541946,"lon":-84.289754,"city":"Franklin","state":"OH","address":"2000 William C Good Boulevard","name":""},
  {"lat":32.748758,"lon":-97.097957,"city":"Arlington","state":"TX","address":"910 North Collins Street","name":""},
  {"lat":43.382197,"lon":-87.928742,"city":"Saukville","state":"WI","address":"180 SOUTH FOSTER DR","name":""},
  {"lat":47.239649,"lon":-122.359283,"city":"Fife","state":"WA","address":"5201 20th Street East","name":""},
  {"lat":32.49198,"lon":-92.082178,"city":"Monroe","state":"LA","address":"1501 Martin Luther King Junior Drive","name":""},
  {"lat":36.795156,"lon":-119.791045,"city":"Fresno","state":"CA","address":"4245 North Blackstone Avenue","name":""},
  {"lat":34.897569,"lon":-117.007096,"city":"Barstow","state":"CA","address":"150 Yucca Avenue","name":""},
  {"lat":36.059942,"lon":-89.395994,"city":"Dyersburg","state":"TN","address":"2331 Lake Road","name":""},
  {"lat":34.733946,"lon":-86.619071,"city":"Huntsville","state":"AL","address":"3141 University Drive Northwest","name":""},
  {"lat":34.068868,"lon":-118.0999,"city":"Rosemead","state":"CA","address":"3327 Del Mar Avenue","name":""},
  {"lat":32.703827,"lon":-96.277763,"city":"Terrell","state":"TX","address":"101 Mira Place","name":""},
  {"lat":33.832154,"lon":-118.034868,"city":"Cypress","state":"CA","address":"5601 Lincoln Avenue","name":""},
  {"lat":40.419735,"lon":-86.819608,"city":"Lafayette","state":"IN","address":"139 Frontage Road","name":""},
  {"lat":42.525411,"lon":-96.501663,"city":"North Sioux City","state":"SD","address":"110 Sodrac Drive","name":""},
  {"lat":30.525187,"lon":-87.312601,"city":"Pensacola","state":"FL","address":"8690 Pine Forest Road","name":""},
  {"lat":34.663075,"lon":-120.45878,"city":"Lompoc","state":"CA","address":"1521 North H Street","name":""},
  {"lat":32.54987,"lon":-117.046003,"city":"San Ysidro","state":"CA","address":"230 Via De San Ysidro","name":""},
  {"lat":27.870162,"lon":-97.335671,"city":"Portland","state":"TX","address":"133 U.S. 181","name":""},
  {"lat":40.320306,"lon":-76.897565,"city":"Harrisburg","state":"PA","address":"4125 North Front Street","name":""},
  {"lat":30.457022,"lon":-90.958082,"city":"Denham Springs","state":"LA","address":"125 Rushing Road West","name":""},
  {"lat":31.037281,"lon":-104.854317,"city":"Van Horn","state":"TX","address":"1805 W BROADWAY","name":""},
  {"lat":39.24373,"lon":-94.659638,"city":"Kansas City","state":"MO","address":"8230 Northwest Prairie View Road","name":""},
  {"lat":32.472445,"lon":-83.742218,"city":"Perry","state":"GA","address":"1004-A Saint Patricks Drive","name":""},
  {"lat":32.840586,"lon":-97.343484,"city":"Fort Worth","state":"TX","address":"5335 South Blue Mound Road","name":""},
  {"lat":40.063151,"lon":-82.999191,"city":"Columbus","state":"OH","address":"750 Morse Road","name":""},
  {"lat":30.424769,"lon":-97.754402,"city":"Austin","state":"TX","address":"11901 Pavilion Boulevard","name":""},
  {"lat":35.148679,"lon":-114.568416,"city":"Bullhead City","state":"AZ","address":"1081 Highway 95","name":""},
  {"lat":40.816236,"lon":-97.596162,"city":"York","state":"NE","address":"4817 South Lincoln Avenue","name":""},
  {"lat":44.034156,"lon":-123.039352,"city":"Eugene","state":"OR","address":"3690 Glenwood Drive","name":""},
  {"lat":33.823905,"lon":-84.489319,"city":"Atlanta","state":"GA","address":"5300 S Cobb Drive SE","name":""},
  {"lat":37.952983,"lon":-121.292004,"city":"Stockton","state":"CA","address":"33 North Center Street","name":""},
  {"lat":32.85837,"lon":-96.885991,"city":"Dallas","state":"TX","address":"2380 West Northwest Highway","name":""},
  {"lat":41.188937,"lon":-79.391847,"city":"Clarion","state":"PA","address":"24 United Drive","name":""},
  {"lat":27.561067,"lon":-99.446585,"city":"Laredo","state":"TX","address":"7124 ROSSON LANE","name":""},
  {"lat":36.065282,"lon":-79.432982,"city":"Burlington","state":"NC","address":"978 Plantation Drive","name":""},
  {"lat":32.697345,"lon":-114.605574,"city":"Yuma","state":"AZ","address":"1445 E 16TH ST","name":""},
  {"lat":35.414689,"lon":-119.059617,"city":"Bakersfield","state":"CA","address":"6141 Knudsen Drive","name":""},
  {"lat":35.306845,"lon":-80.845753,"city":"Charlotte","state":"NC","address":"4930 Sunset Road","name":""},
  {"lat":40.01424,"lon":-76.14841,"city":"Gordonville","state":"PA","address":"2959 East Lincoln Highway","name":""},
  {"lat":30.655578,"lon":-96.365626,"city":"Bryan","state":"TX","address":"1601 SOUTH TEXAS AVENUE","name":""},
  {"lat":33.175985,"lon":-87.525398,"city":"Tuscaloosa","state":"AL","address":"3600 McFarland Boulevard East","name":""},
  {"lat":38.85973,"lon":-94.813118,"city":"Olathe","state":"KS","address":"1501 South Hamilton Circle","name":""},
  {"lat":38.887955,"lon":-76.853514,"city":"Capitol Heights","state":"MD","address":"75 Hampton Park Boulevard","name":""},
  {"lat":33.842201,"lon":-117.832119,"city":"Orange","state":"CA","address":"3191 North Tustin Street","name":""},
  {"lat":46.954638,"lon":-123.806493,"city":"Aberdeen","state":"WA","address":"1700 South Boone Street","name":""},
  {"lat":36.100604,"lon":-115.164608,"city":"Las Vegas","state":"NV","address":"195 East Tropicana Avenue","name":""},
  {"lat":32.005767,"lon":-81.27795,"city":"Savannah","state":"GA","address":"6 Gateway Boulevard East","name":""},
  {"lat":32.342276,"lon":-106.763227,"city":"Las Cruces","state":"NM","address":"2120 Summit Court","name":""},
  {"lat":39.872462,"lon":-75.279119,"city":"Lester","state":"PA","address":"600 South Governor Printz Boulevard","name":""},
  {"lat":36.675085,"lon":-80.713082,"city":"Fancy Gap","state":"VA","address":"142 Kelly Road","name":""},
  {"lat":29.489803,"lon":-98.544795,"city":"San-Antonio","state":"TX","address":"6015 Ih-10 West","name":""},
  {"lat":32.901362,"lon":-96.715046,"city":"Dallas","state":"TX","address":"9801 Adleta Court","name":""},
  {"lat":31.723366,"lon":-93.084665,"city":"Natchitoches","state":"LA","address":"7624 LA-1","name":""},
  {"lat":38.880603,"lon":-104.8374,"city":"Colorado Springs","state":"CO","address":"3228 North Chestnut Street","name":""},
  {"lat":32.339737,"lon":-111.06316,"city":"Tucson","state":"AZ","address":"7277 North Camino De Oeste","name":""},
  {"lat":42.008581,"lon":-92.913861,"city":"Marshalltown","state":"IA","address":"18 West Berle Road","name":""},
  {"lat":38.568274,"lon":-121.468117,"city":"Sacramento","state":"CA","address":"1415 30th Street","name":""},
  {"lat":27.924804,"lon":-97.17777,"city":"Aransas Pass","state":"TX","address":"2705 West Wheeler Avenue","name":""},
  {"lat":30.962908,"lon":-95.891409,"city":"Madisonville","state":"TX","address":"2007 East Main Street","name":""},
  {"lat":27.561034,"lon":-99.504289,"city":"Laredo","state":"TX","address":"5920 San Bernardo Avenue","name":""},
  {"lat":31.246173,"lon":-90.475005,"city":"McComb,","state":"MS","address":"100 Commerce Street","name":""},
  {"lat":33.04835,"lon":-97.008221,"city":"Lewisville","state":"TX","address":"200 N Stemmons Frwy","name":""},
  {"lat":38.992304,"lon":-110.140062,"city":"Green River","state":"UT","address":"1860 East Main Street","name":""},
  {"lat":41.514844,"lon":-88.12606,"city":"Joliet","state":"IL","address":"1850 McDonough Street","name":""},
  {"lat":43.247845,"lon":-123.357337,"city":"Roseburg","state":"OR","address":"3100 Northwest Aviation Drive","name":""},
  {"lat":34.075824,"lon":-80.941207,"city":"Columbia","state":"SC","address":"7541 Nates Road","name":""},
  {"lat":30.21827,"lon":-81.583334,"city":"Jacksonville","state":"FL","address":"8285 Philips Highway","name":""},
  {"lat":40.590811,"lon":-75.588939,"city":"Allentown","state":"PA","address":"681 Blue Barn Road","name":""},
  {"lat":32.216127,"lon":-98.188977,"city":"Stephenville","state":"TX","address":"701 East South Loop","name":""},
  {"lat":46.863333,"lon":-96.838489,"city":"Fargo","state":"ND","address":"1202 36th Street South","name":""},
  {"lat":39.752659,"lon":-121.843758,"city":"Chico","state":"CA","address":"665 Manzanita Court","name":""},
  {"lat":35.171261,"lon":-103.685061,"city":"Tucumcari","state":"NM","address":"2900 E TUCUMCARI BLVD","name":""},
  {"lat":27.945963,"lon":-82.337232,"city":"Tampa","state":"FL","address":"9942 East Adamo Drive","name":""},
  {"lat":42.589237,"lon":-76.133138,"city":"McGraw","state":"NY","address":"3775 U.S ROUTE 11","name":""},
  {"lat":41.033166,"lon":-76.004373,"city":"Drums","state":"PA","address":"1064 Pennsylvania 93","name":""},
  {"lat":33.738845,"lon":-117.823235,"city":"Tustin","state":"CA","address":"750 El Camino Real","name":""},
  {"lat":39.785227,"lon":-105.107743,"city":"Wheat Ridge","state":"CO","address":"9920 W 49th Ave","name":""},
  {"lat":32.267638,"lon":-107.773364,"city":"Deming","state":"NM","address":"1217 West Pine Street","name":""},
  {"lat":39.63492,"lon":-84.227433,"city":"Miamisburg","state":"OH","address":"8101 Springboro Pike","name":""},
  {"lat":28.70776,"lon":-100.481926,"city":"Eagle Pass","state":"TX","address":"2338 EAST MAIN ST","name":""},
  {"lat":32.626837,"lon":-85.40589,"city":"Opelika","state":"AL","address":"2100 Gateway Drive","name":""},
  {"lat":44.026795,"lon":-116.947411,"city":"Ontario","state":"OR","address":"275 Northeast 12th Street","name":""},
  {"lat":35.090522,"lon":-92.418588,"city":"Conway","state":"AR","address":"810 Museum Road","name":""},
  {"lat":32.687196,"lon":-96.820533,"city":"Dallas","state":"TX","address":"4610 South R L Thornton Freeway","name":""},
  {"lat":33.790025,"lon":-118.321115,"city":"Lomita","state":"CA","address":"2237 Pacific Coast Highway","name":""},
  {"lat":39.121567,"lon":-88.560118,"city":"Effingham","state":"IL","address":"1412 West Fayette Avenue","name":""},
  {"lat":31.11171,"lon":-97.35726,"city":"Temple","state":"TX","address":"802 North General Bruce Drive","name":""},
  {"lat":29.536098,"lon":-95.774467,"city":"Rosenberg","state":"TX","address":"26010 Southwest Freeway","name":""},
  {"lat":30.083002,"lon":-94.134065,"city":"Beaumont","state":"TX","address":"220 Interstate 10","name":""},
  {"lat":35.118495,"lon":-101.907381,"city":"Amarillo","state":"TX","address":"8601 Canyon Drive","name":""},
  {"lat":39.937445,"lon":-74.968927,"city":"Maple Shade","state":"NJ","address":"2798 New Jersey 73","name":""},
  {"lat":30.62014,"lon":-97.69131,"city":"Georgetown","state":"TX","address":"1005 Leander Road","name":""},
  {"lat":33.877222,"lon":-118.084194,"city":"Artesia","state":"CA","address":"16905 Pioneer Boulevard","name":""},
  {"lat":32.802272,"lon":-96.922511,"city":"Irving","state":"TX","address":"1205 South Loop 12","name":""},
  {"lat":32.504498,"lon":-94.751655,"city":"Longview","state":"TX","address":"419 North Spur 63","name":""},
  {"lat":45.452043,"lon":-122.722733,"city":"Portland","state":"OR","address":"10155 Southwest Capitol Highway","name":""},
  {"lat":28.352874,"lon":-80.607364,"city":"Cocoa Beach","state":"FL","address":"3701 North Atlantic Avenue","name":""},
  {"lat":31.464505,"lon":-100.446724,"city":"San Angelo","state":"TX","address":"311 North Bryant Boulevard","name":""},
  {"lat":41.235965,"lon":-75.852836,"city":"Wilkes-Barre Township","state":"PA","address":"884 Schechter Drive","name":""},
  {"lat":35.721049,"lon":-81.347059,"city":"Hickory","state":"NC","address":"484 U.S. Highway 70 Southwest","name":""},
  {"lat":40.57291,"lon":-122.362041,"city":"Redding","state":"CA","address":"2385 Bechelli Lane","name":""},
  {"lat":35.021751,"lon":-97.933622,"city":"Chickasha","state":"OK","address":"2701 South 4th Street","name":""},
  {"lat":29.703267,"lon":-98.095786,"city":"New Braunfels","state":"TX","address":"1214 North Business 35","name":""},
  {"lat":38.190411,"lon":-85.747557,"city":"Louisville","state":"KY","address":"571 Phillips Lane","name":""},
  {"lat":34.259993,"lon":-116.866636,"city":"Big Bear Lake","state":"CA","address":"42899 Big Bear Blvd","name":""},
  {"lat":32.329448,"lon":-96.624659,"city":"Ennis","state":"TX","address":"100 Interstate 45","name":""},
  {"lat":34.791413,"lon":-82.377873,"city":"Greenville","state":"SC","address":"12 Impact Dr.","name":""},
  {"lat":35.421296,"lon":-99.374787,"city":"Elk City","state":"OK","address":"2604 E HWY 66","name":""},
  {"lat":32.793778,"lon":-96.653017,"city":"Mesquite","state":"TX","address":"3601 U.S. 80","name":""},
  {"lat":32.717261,"lon":-100.909892,"city":"Snyder","state":"TX","address":"1137 EAST US HWY 180","name":""},
  {"lat":33.802095,"lon":-118.002704,"city":"Stanton","state":"CA","address":"7450 Katella Avenue","name":""},
  {"lat":33.546382,"lon":-84.274995,"city":"Stockbridge","state":"GA","address":"619 Georgia 138","name":""},
  {"lat":42.212085,"lon":-83.225543,"city":"Southgate","state":"MI","address":"18777 Northline Road","name":""},
  {"lat":33.772761,"lon":-118.006967,"city":"Westminster","state":"CA","address":"13100 Goldenwest Street","name":""},
  {"lat":44.947229,"lon":-122.992501,"city":"Salem","state":"OR","address":"1401 Hawthorne Avenue Northeast","name":""},
  {"lat":34.404896,"lon":-119.531331,"city":"Carpinteria","state":"CA","address":"4200 Via Real","name":""},
  {"lat":39.271789,"lon":-103.708127,"city":"Limon","state":"CO","address":"985 U.S. 24","name":""},
  {"lat":39.984267,"lon":-76.733613,"city":"York","state":"PA","address":"125 Arsenal Road","name":""},
  {"lat":32.876422,"lon":-105.95893,"city":"Alamogordo","state":"NM","address":"251 Panorama Boulevard","name":""},
  {"lat":32.928417,"lon":-96.762256,"city":"Dallas","state":"TX","address":"13185 North Central Expressway","name":""},
  {"lat":39.62631,"lon":-77.765905,"city":"Hagerstown","state":"MD","address":"11321 Massey Blvd","name":""},
  {"lat":34.556563,"lon":-117.290652,"city":"Victorville","state":"CA","address":"16868 STODDARD WELLS RD","name":""},
  {"lat":30.415094,"lon":-88.788806,"city":"Ocean Springs","state":"MS","address":"2873 Bienville Blvd","name":""},
  {"lat":30.451068,"lon":-91.261525,"city":"Port Allen","state":"LA","address":"2800 I-10 Frontage Road","name":""},
  {"lat":41.662477,"lon":-87.745614,"city":"Alsip","state":"IL","address":"5150 West 127th Street","name":""},
  {"lat":35.466917,"lon":-120.650653,"city":"Atascadero","state":"CA","address":"9400 El Camino Real","name":""},
  {"lat":35.275713,"lon":-80.794753,"city":"Charlotte","state":"NC","address":"1111 W. SUGAR CREEK RD","name":""},
  {"lat":34.053141,"lon":-118.278814,"city":"Los Angeles","state":"CA","address":"906 South Alvarado Street","name":""},
  {"lat":45.699386,"lon":-111.049315,"city":"Bozeman","state":"MT","address":"817 Wheat Drive","name":""},
  {"lat":30.244403,"lon":-92.664886,"city":"Jennings","state":"LA","address":"607 HOLIDAY DR","name":""},
  {"lat":38.422069,"lon":-77.408309,"city":"Fredericksburg","state":"VA","address":"Stafford, Stafford County, VA","name":""},
  {"lat":38.573688,"lon":-121.550669,"city":"West Sacramento","state":"CA","address":"1254 Halyard Drive","name":""},
  {"lat":39.879468,"lon":-83.053335,"city":"Grove City","state":"OH","address":"1900 Stringtown Road","name":""},
  {"lat":33.38757,"lon":-111.838829,"city":"Mesa","state":"AZ","address":"1511 S COUNTRY CLUB DR","name":""},
  {"lat":40.027108,"lon":-84.228942,"city":"Troy","state":"OH","address":"1260 SOUTH DORSET ROAD","name":""},
  {"lat":35.079769,"lon":-78.942304,"city":"Fayetteville","state":"NC","address":"3719 Bragg Boulevard","name":""},
  {"lat":34.897604,"lon":-117.007178,"city":"Barstow","state":"CA","address":"150 Yucca Avenue","name":""},
  {"lat":26.198084,"lon":-98.29866,"city":"Mission","state":"TX","address":"1813 East Expressway 83","name":""},
  {"lat":37.985482,"lon":-121.246598,"city":"Stockton","state":"CA","address":"2533 North Piccoli Road","name":""},
  {"lat":39.311474,"lon":-76.618474,"city":"Baltimore","state":"MD","address":"110 West North Avenue","name":""},
  {"lat":31.405786,"lon":-103.483933,"city":"Pecos","state":"TX","address":"4002 South Cedar Street","name":""},
  {"lat":39.894035,"lon":-83.813008,"city":"Springfield","state":"OH","address":"11 West Leffel Lane","name":""},
  {"lat":42.353716,"lon":-122.874709,"city":"Medford","state":"OR","address":"2400 Biddle Road","name":""},
  {"lat":34.062578,"lon":-117.285709,"city":"San Bernardino","state":"CA","address":"111 West Redlands Boulevard","name":""},
  {"lat":33.775494,"lon":-116.449866,"city":"Rancho Mirage","state":"CA","address":"69570 Highway 111","name":""},
  {"lat":42.862271,"lon":-106.338973,"city":"Casper","state":"WY","address":"1150 Wilkins Circle","name":""},
  {"lat":37.159983,"lon":-76.556454,"city":"Newport News","state":"VA","address":"15540 Warwick Boulevard","name":""},
  {"lat":44.95316,"lon":-93.026802,"city":"Saint Paul","state":"MN","address":"1739 OLD HUDSON RD","name":""},
  {"lat":38.052004,"lon":-75.542136,"city":"Pocomoke City","state":"MD","address":"1540 Ocean Highway","name":""},
  {"lat":39.116522,"lon":-108.52985,"city":"Grand Junction","state":"CO","address":"776 Horizon Drive","name":""},
  {"lat":41.329139,"lon":-82.620733,"city":"Milan","state":"OH","address":"11406 U.S. 250 North","name":""},
  {"lat":38.762374,"lon":-78.630775,"city":"Mount Jackson","state":"VA","address":"250 Conicville Road","name":""},
  {"lat":37.649094,"lon":-118.972427,"city":"Mammoth Lakes","state":"CA","address":"3372 Main Street","name":""},
  {"lat":45.75057,"lon":-108.549694,"city":"Billings","state":"MT","address":"5353 Midland Road","name":""},
  {"lat":33.349943,"lon":-111.96543,"city":"Tempe","state":"AZ","address":"1660 West Elliot Road","name":""},
  {"lat":40.464256,"lon":-74.404879,"city":"East Brunswick","state":"NJ","address":"246 State Route 18","name":""},
  {"lat":33.800581,"lon":-116.541935,"city":"Palm Springs","state":"CA","address":"595 East Palm Canyon Drive","name":""},
  {"lat":29.550582,"lon":-98.672387,"city":"San-Antonio","state":"TX","address":"11425 West Loop 1604 North","name":""},
  {"lat":35.421408,"lon":-97.486247,"city":"Oklahoma City","state":"OK","address":"1337 Southeast 44th Street","name":""},
  {"lat":34.97343,"lon":-80.984276,"city":"Rock Hill","state":"SC","address":"2640 Cherry Road","name":""},
  {"lat":45.26041,"lon":-122.696607,"city":"Canby","state":"OR","address":"463 Southwest 1st Avenue","name":""},
  {"lat":32.580219,"lon":-95.855145,"city":"Canton","state":"TX","address":"3001 N. TRADEDAYS BLVD","name":""},
  {"lat":40.632211,"lon":-111.862947,"city":"Murray","state":"UT","address":"975 East 6600 South","name":""},
  {"lat":35.81389,"lon":-78.602795,"city":"Raleigh","state":"NC","address":"2641 Appliance Court","name":""},
  {"lat":38.41549,"lon":-81.796343,"city":"Cross Lanes","state":"WV","address":"330 Goff Mountain Road","name":""},
  {"lat":32.357753,"lon":-86.214756,"city":"Montgomery","state":"AL","address":"1401 Eastern Boulevard","name":""},
  {"lat":33.899264,"lon":-84.478129,"city":"Smyrna","state":"GA","address":"2200 Corporate Plaza Southeast","name":""},
  {"lat":35.512323,"lon":-97.562875,"city":"Oklahoma City","state":"OK","address":"2727 W. I-44 SERVICE RD","name":""},
  {"lat":36.324695,"lon":-86.707818,"city":"Goodlettsville","state":"TN","address":"323 CARTWRIGHT ST","name":""},
  {"lat":31.685838,"lon":-89.1478,"city":"Laurel","state":"MS","address":"1608 Jefferson Street","name":""},
  {"lat":35.977489,"lon":-77.796337,"city":"Rocky Mount","state":"NC","address":"1370 North Wesleyan Boulevard","name":""},
  {"lat":33.709201,"lon":-78.909684,"city":"Myrtle Beach","state":"SC","address":"730 Frontage Road East","name":""},
  {"lat":43.654625,"lon":-93.341057,"city":"Albert Lea","state":"MN","address":"2019 EAST MAIN STREET","name":""},
  {"lat":46.229158,"lon":-119.097038,"city":"Pasco","state":"WA","address":"720 West Lewis Street","name":""},
  {"lat":28.030289,"lon":-97.530585,"city":"Sinton","state":"TX","address":"8154 U.S. 77","name":""},
  {"lat":40.85375,"lon":-115.743697,"city":"Elko","state":"NV","address":"3021 Idaho Street","name":""},
  {"lat":30.427076,"lon":-91.076028,"city":"Baton Rouge","state":"LA","address":"10055 Gwenadele Avenue","name":""},
  {"lat":41.240079,"lon":-111.970668,"city":"Ogden","state":"UT","address":"1455 Washington Boulevard","name":""},
  {"lat":32.012433,"lon":-81.110878,"city":"Savannah","state":"GA","address":"201 Stephenson Avenue","name":""},
  {"lat":38.411604,"lon":-75.566821,"city":"Salisbury","state":"MD","address":"2615 N SALISBURY BLVD","name":""},
  {"lat":35.192496,"lon":-111.625939,"city":"Flaggstaff","state":"AZ","address":"2010 E Butler Ave","name":""},
  {"lat":37.606814,"lon":-97.330639,"city":"Wichita","state":"KS","address":"607 East 47th Street South","name":""},
  {"lat":43.089737,"lon":-76.088637,"city":"East Syracuse","state":"NY","address":"6577 Baptist Way","name":""},
  {"lat":32.805851,"lon":-97.371013,"city":"Fort Worth","state":"TX","address":"3271 North Freeway","name":""},
  {"lat":42.205962,"lon":-121.726067,"city":"Klamath Falls","state":"OR","address":"5136 South 6th Street","name":""},
  {"lat":37.78322,"lon":-122.417384,"city":"San Francisco","state":"CA","address":"587 Eddy Street","name":""},
  {"lat":37.625292,"lon":-77.527067,"city":"Richmond","state":"VA","address":"7831 Shrader Road","name":""},
  {"lat":35.027802,"lon":-85.313607,"city":"Chattanooga","state":"TN","address":"2440 Williams Street","name":""},
  {"lat":31.293961,"lon":-92.479318,"city":"Alexandria","state":"LA","address":"742 MacArthur Drive","name":""},
  {"lat":32.135042,"lon":-110.929642,"city":"Tucson","state":"AZ","address":"2803 East Valencia Road","name":""},
  {"lat":33.758202,"lon":-90.716484,"city":"Cleveland","state":"MS","address":"721 North Davis Avenue","name":""},
  {"lat":43.384272,"lon":-123.336785,"city":"Sutherlin","state":"OR","address":"1400 HOSPITALITY WAY","name":""},
  {"lat":46.189004,"lon":-123.85033,"city":"Astoria","state":"OR","address":"288 WEST MARINE DR","name":""},
  {"lat":29.543242,"lon":-98.492232,"city":"San-Antonio","state":"TX","address":"11221 San Pedro Avenue","name":""},
  {"lat":34.392975,"lon":-119.510499,"city":"Carpinteria","state":"CA","address":"5550 Carpinteria Avenue","name":""},
  {"lat":35.249121,"lon":-112.193437,"city":"Williams","state":"AZ","address":"620 West Route 66","name":""},
  {"lat":33.920677,"lon":-94.845028,"city":"Idabel","state":"OK","address":"2906 Northwest Texas Street","name":""},
  {"lat":38.273932,"lon":-84.553872,"city":"Georgetown","state":"KY","address":"401 Cherry Blossom Way","name":""},
  {"lat":29.169676,"lon":-81.087223,"city":"Daytona Beach","state":"FL","address":"2992 W. International Speedway Blvd.","name":""},
  {"lat":33.666799,"lon":-84.031174,"city":"Conyers","state":"GA","address":"1351 Dogwood Drive Southwest","name":""},
  {"lat":39.313125,"lon":-81.484632,"city":"Parkersburg","state":"WV","address":"6333 EMERSON AVE","name":""},
  {"lat":40.843676,"lon":-82.317829,"city":"Ashland","state":"OH","address":"1423 MONTGOMERY ROAD","name":""},
  {"lat":32.912467,"lon":-97.004941,"city":"Irving","state":"TX","address":"4100 West John Carpenter Freeway","name":""},
  {"lat":35.459264,"lon":-97.594998,"city":"Oklahoma City","state":"OK","address":"4200 West I 40 Service Road","name":""},
  {"lat":39.637477,"lon":-75.808504,"city":"Elkton","state":"MD","address":"223 Belle Hill Road","name":""},
  {"lat":32.8788,"lon":-83.765371,"city":"Macon","state":"GA","address":"150 Plantation Inn Drive","name":""},
  {"lat":36.90632,"lon":-111.47581,"city":"Page","state":"AZ","address":"637 South Lake Powell Boulevard","name":""},
  {"lat":40.0785,"lon":-86.903717,"city":"Crawfordsville","state":"IN","address":"1040 COREY BOULEVARD","name":""},
  {"lat":34.816318,"lon":-118.886256,"city":"Lebec","state":"CA","address":"51541 Ralphs Ranch Road","name":""},
  {"lat":29.529518,"lon":-98.563003,"city":"San-Antonio","state":"TX","address":"9400 Wurzbach Road","name":""},
  {"lat":35.106945,"lon":-106.606152,"city":"Albuquerque","state":"NM","address":"3400 Prospect Avenue Northeast","name":""},
  {"lat":29.36772,"lon":-98.452952,"city":"San-Antonio","state":"TX","address":"748 Hot Wells Boulevard","name":""},
  {"lat":33.736318,"lon":-118.284707,"city":"San Pedro","state":"CA","address":"354 West 9th Street","name":""},
  {"lat":38.637504,"lon":-121.476467,"city":"Sacramento","state":"CA","address":"3796 Northgate Boulevard","name":""},
  {"lat":47.674869,"lon":-117.284777,"city":"Spokane","state":"WA","address":"1919 N HUTCHINSON RD","name":""},
  {"lat":38.809761,"lon":-76.897579,"city":"Camp Springs","state":"MD","address":"5701 Allentown Road","name":""},
  {"lat":35.307502,"lon":-93.140822,"city":"Russellville","state":"AR","address":"215 West Birch Street","name":""},
  {"lat":38.475875,"lon":-121.417271,"city":"Sacramento","state":"CA","address":"7407 Elsie Avenue","name":""},
  {"lat":28.659367,"lon":-81.389669,"city":"Altamonte Springs","state":"FL","address":"235 Wymore Road","name":""},
  {"lat":32.778269,"lon":-96.623392,"city":"Mesquite","state":"TX","address":"1129 Gross Road","name":""},
  {"lat":31.094384,"lon":-97.735307,"city":"Killeen","state":"TX","address":"800 East Central Texas Expressway","name":""},
  {"lat":30.261906,"lon":-82.122347,"city":"Macclenny","state":"FL","address":"1499 South 6th Street","name":""},
  {"lat":38.951921,"lon":-94.734842,"city":"Lenexa","state":"KS","address":"9725 LENEXA DR","name":""},
  {"lat":36.326348,"lon":-119.342874,"city":"Visalia","state":"CA","address":"4645 West Noble Avenue","name":""},
  {"lat":40.790147,"lon":-124.180055,"city":"Eureka","state":"CA","address":"1934 Broadway Street","name":""},
  {"lat":36.097752,"lon":-115.181986,"city":"Las Vegas","state":"NV","address":"5085 Dean Martin Drive","name":""},
  {"lat":35.18688,"lon":-101.933176,"city":"Amarillo","state":"TX","address":"6801 Interstate 40 West","name":""},
  {"lat":34.023229,"lon":-84.325785,"city":"Roswell","state":"GA","address":"9955 Old Dogwood Road","name":""},
  {"lat":38.412954,"lon":-82.357072,"city":"Huntington","state":"WV","address":"4644 U.S. 60","name":""},
  {"lat":41.907948,"lon":-71.893753,"city":"Putnam","state":"CT","address":"5 Heritage Road","name":""},
  {"lat":44.618507,"lon":-124.051227,"city":"Newport","state":"OR","address":"2633 S PACIFIC WAY","name":""},
  {"lat":41.589173,"lon":-93.812028,"city":"West Des Moines","state":"IA","address":"7655 Office Plaza Drive North","name":""},
  {"lat":32.678579,"lon":-117.108895,"city":"National City","state":"CA","address":"425 Roosevelt Avenue","name":""},
  {"lat":47.699803,"lon":-116.79564,"city":"Coeur d'Alene","state":"ID","address":"610 West Appleway Avenue","name":""},
  {"lat":34.791413,"lon":-82.377873,"city":"Greenville","state":"SC","address":"12 Impact Drive","name":""},
  {"lat":35.067841,"lon":-118.17769,"city":"Mojave","state":"CA","address":"16958 SR 58","name":""},
  {"lat":33.393582,"lon":-110.766096,"city":"Globe","state":"AZ","address":"1699 East Ash Street","name":""},
  {"lat":29.388303,"lon":-100.904158,"city":"Del Rio","state":"TX","address":"2115 Veterans Boulevard","name":""},
  {"lat":32.641,"lon":-117.099009,"city":"Chula Vista","state":"CA","address":"745 E Street","name":""},
  {"lat":35.191137,"lon":-101.874157,"city":"Amarillo","state":"TX","address":"2032 Paramount Boulevard","name":""},
  {"lat":37.95075,"lon":-122.046339,"city":"Concord","state":"CA","address":"1370 Monument Boulevard","name":""},
  {"lat":37.608188,"lon":-122.066518,"city":"Hayward","state":"CA","address":"30155 Industrial Parkway Southwest","name":""},
  {"lat":33.66531,"lon":-95.512203,"city":"Paris","state":"TX","address":"425 35th Street Northeast","name":""},
  {"lat":40.6783,"lon":-74.194574,"city":"Elizabeth","state":"NJ","address":"819 Spring Street","name":""},
  {"lat":33.76308,"lon":-84.383631,"city":"Atlanta","state":"GA","address":"311 Courtland Street Northeast","name":""},
  {"lat":41.382099,"lon":-81.98002,"city":"North Ridgeville","state":"OH","address":"32751 Lorain Road","name":""},
  {"lat":40.276428,"lon":-74.706204,"city":"Lawrenceville","state":"NJ","address":"2995 Route 1 South","name":""},
  {"lat":32.199076,"lon":-110.875735,"city":"Tucson","state":"AZ","address":"1990 South Craycroft Road","name":""},
  {"lat":39.416979,"lon":-77.436901,"city":"Frederick","state":"MD","address":"999 WEST PATRICK STREET","name":""},
  {"lat":43.505982,"lon":-112.053193,"city":"Idaho Falls","state":"ID","address":"1100 Lindsay Boulevard","name":""},
  {"lat":35.243004,"lon":-120.684793,"city":"San Luis Obispo","state":"CA","address":"1625 Calle Joaquin","name":""},
  {"lat":45.443304,"lon":-122.745689,"city":"Tigard","state":"OR","address":"11455 Southwest Pacific Highway","name":""},
  {"lat":41.116932,"lon":-85.182482,"city":"Fort Wayne","state":"IN","address":"3003 W Coliseum Blvd.","name":""},
  {"lat":42.214146,"lon":-89.072347,"city":"Rockford","state":"IL","address":"3919 11th Street","name":""},
  {"lat":41.660393,"lon":-93.497652,"city":"Altoona","state":"IA","address":"3225 Adventureland Dr.","name":""},
  {"lat":41.586203,"lon":-83.566345,"city":"Rossford","state":"OH","address":"1135 BUCK RD","name":""},
  {"lat":35.167147,"lon":-89.864285,"city":"Memphis","state":"TN","address":"1541 Sycamore View Road","name":""},
  {"lat":35.554184,"lon":-89.656164,"city":"Covington","state":"TN","address":"901 HWY 51 N","name":""},
  {"lat":36.678846,"lon":-121.639509,"city":"Salinas","state":"CA","address":"140 Kern Street","name":""},
  {"lat":42.30681,"lon":-87.961812,"city":"Libertyville","state":"IL","address":"1809 North Milwaukee Avenue","name":""},
  {"lat":32.760264,"lon":-117.185805,"city":"San Diego","state":"CA","address":"2424 Hotel Circle North","name":""},
  {"lat":35.987427,"lon":-106.057786,"city":"Espa√±Ola","state":"NM","address":"811 South Riverside Drive","name":""},
  {"lat":27.804264,"lon":-97.485174,"city":"Corpus Christi","state":"TX","address":"6301 IH 37","name":""},
  {"lat":33.781383,"lon":-117.218065,"city":"Perris","state":"CA","address":"480 South Redlands Avenue","name":""},
  {"lat":27.686012,"lon":-97.322197,"city":"Corpus Christi","state":"TX","address":"8202 South Padre Island Drive","name":""},
  {"lat":32.902051,"lon":-97.542739,"city":"Azle","state":"TX","address":"624 Boyd Road","name":""},
  {"lat":26.09021,"lon":-80.164439,"city":"Fort Lauderdale","state":"FL","address":"1801 State Road 84 West","name":""},
  {"lat":30.610131,"lon":-98.265318,"city":"Marble Falls","state":"TX","address":"1400 Ollie Lane","name":""},
  {"lat":44.638672,"lon":-123.071594,"city":"Albany","state":"OR","address":"2735 Pacific Boulevard Southeast","name":""},
  {"lat":40.513941,"lon":-76.115551,"city":"Shartlesville","state":"PA","address":"35 Roadside Drive","name":""},
  {"lat":33.937391,"lon":-98.517396,"city":"Wichita Falls","state":"TX","address":"1211 Central Freeway","name":""},
  {"lat":36.952218,"lon":-81.069838,"city":"Wytheville","state":"VA","address":"1160 East Main Street","name":""},
  {"lat":29.448525,"lon":-98.428287,"city":"San-Antonio","state":"TX","address":"3617 North PanAm Expressway","name":""},
  {"lat":35.243073,"lon":-120.684768,"city":"San Luis Obispo","state":"CA","address":"1625 Calle Joaquin","name":""},
  {"lat":41.225487,"lon":-96.041225,"city":"Omaha","state":"NE","address":"3511 South 84th Street","name":""},
  {"lat":38.438227,"lon":-82.019435,"city":"Hurricane","state":"WV","address":"419 Hurricane Creek Road","name":""},
  {"lat":33.409262,"lon":-111.961419,"city":"Tempe","state":"AZ","address":"1720 South Priest Drive","name":""},
  {"lat":37.37303,"lon":-121.919524,"city":"San Jose","state":"CA","address":"2081 North 1st Street","name":""},
  {"lat":36.07644,"lon":-79.957483,"city":"Greensboro","state":"NC","address":"605 South Regional Road","name":""},
  {"lat":30.390716,"lon":-88.981717,"city":"Biloxi","state":"MS","address":"2476 Beach Boulevard","name":""},
  {"lat":33.509522,"lon":-82.043671,"city":"Augusta","state":"GA","address":"201 Boy Scout Road","name":""},
  {"lat":33.805725,"lon":-117.907542,"city":"Anaheim","state":"CA","address":"100 West Disney Way","name":""},
  {"lat":41.218995,"lon":-89.926437,"city":"Kewanee","state":"IL","address":"901 Tenney Street","name":""},
  {"lat":41.101478,"lon":-114.953591,"city":"Wells","state":"NV","address":"1561 6th Street","name":""},
  {"lat":29.711335,"lon":-95.170159,"city":"Pasadena","state":"TX","address":"3010 Pasadena Freeway","name":""},
  {"lat":37.526364,"lon":-122.267826,"city":"Belmont","state":"CA","address":"1101 Shoreway Road","name":""},
  {"lat":38.777173,"lon":-77.18302,"city":"Springfield","state":"VA","address":"6868 Springfield Boulevard","name":""},
  {"lat":42.991421,"lon":-78.801716,"city":"Amherst","state":"NY","address":"4400 Maple Road","name":""},
  {"lat":32.72504,"lon":-97.115469,"city":"Arlington","state":"TX","address":"703 Benge Drive","name":""},
  {"lat":34.715529,"lon":-86.638334,"city":"Huntsville","state":"AL","address":"4751 Governors House Drive Southwest","name":""},
  {"lat":32.92368,"lon":-96.901577,"city":"Farmers Branch","state":"TX","address":"13235 N Stemmons Freeway","name":""},
  {"lat":39.984645,"lon":-76.725463,"city":"York","state":"PA","address":"323 Arsenal Rd","name":""},
  {"lat":34.427967,"lon":-117.385563,"city":"Hesperia","state":"CA","address":"9757 Cataba Road","name":""},
  {"lat":34.376543,"lon":-96.133726,"city":"Atoka","state":"OK","address":"1101 South Mississippi Avenue","name":""},
  {"lat":32.619108,"lon":-83.624949,"city":"Warner Robins","state":"GA","address":"1440 Watson Boulevard","name":""},
  {"lat":36.03653,"lon":-114.988093,"city":"Henderson","state":"NV","address":"85 West Lake Mead","name":""},
  {"lat":33.022321,"lon":-96.708767,"city":"Plano","state":"TX","address":"1600 North Central Expressway","name":""},
  {"lat":41.736498,"lon":-85.97567,"city":"Elkhart","state":"IN","address":"3321 Plaza Court","name":""},
  {"lat":30.283994,"lon":-87.688197,"city":"Gulf Shores","state":"AL","address":"3025 West 1st Street","name":""},
  {"lat":39.524895,"lon":-122.211415,"city":"Willows","state":"CA","address":"452 North Humboldt Avenue","name":""},
  {"lat":32.805689,"lon":-97.416247,"city":"Fort Worth","state":"TX","address":"6120 Shady Oaks Manor Drive","name":""},
  {"lat":28.061199,"lon":-97.04369,"city":"Rockport","state":"TX","address":"1006 Farm to Market Road 3036","name":""},
  {"lat":41.593075,"lon":-83.668377,"city":"Toledo","state":"OH","address":"5335 Heatherdowns Boulevard","name":""},
  {"lat":32.758742,"lon":-97.026554,"city":"Grand Prairie","state":"TX","address":"1410 North State Highway 161","name":""},
  {"lat":39.822446,"lon":-86.272307,"city":"Indianapolis","state":"IN","address":"3744 North High School Road","name":""},
  {"lat":34.893016,"lon":-95.772903,"city":"McAlester","state":"OK","address":"1400 South George Nigh Expressway","name":""},
  {"lat":32.267195,"lon":-86.357242,"city":"Montgomery","state":"AL","address":"7760 Slade Plaza Boulevard","name":""},
  {"lat":37.055558,"lon":-121.013241,"city":"Santa Nella","state":"CA","address":"28821 Gonzaga Road","name":""},
  {"lat":38.110791,"lon":-122.228207,"city":"Vallejo","state":"CA","address":"44 Admiral Callaghan Lane","name":""},
  {"lat":31.809499,"lon":-85.990928,"city":"Troy","state":"AL","address":"204B US HWY 231 NORTH","name":""},
  {"lat":32.727694,"lon":-97.790278,"city":"Weatherford","state":"TX","address":"150 Alford Dr","name":""},
  {"lat":33.399105,"lon":-84.755629,"city":"Newnan","state":"GA","address":"6 HERRING ROAD","name":""},
  {"lat":29.347493,"lon":-98.539171,"city":"San-Antonio","state":"TX","address":"7950 South PanAm Expressway","name":""},
  {"lat":33.469715,"lon":-82.077677,"city":"Augusta","state":"GA","address":"3421 Wrightsboro Road","name":""},
  {"lat":30.527896,"lon":-97.799287,"city":"Cedar Park","state":"TX","address":"800 ARROW POINT DRIVE","name":""},
  {"lat":41.051156,"lon":-102.069455,"city":"Big Springs","state":"NE","address":"111 Circle Road","name":""},
  {"lat":34.265992,"lon":-119.272153,"city":"Ventura","state":"CA","address":"2145 East Harbor Boulevard","name":""},
  {"lat":32.513783,"lon":-84.951467,"city":"Columbus","state":"GA","address":"5020 Armour Road","name":""},
  {"lat":40.07934,"lon":-104.818567,"city":"Fort Lupton","state":"CO","address":"65 South Grand Avenue","name":""},
  {"lat":33.767568,"lon":-117.918983,"city":"Garden Grove","state":"CA","address":"12091 Trask Avenue","name":""},
  {"lat":44.088144,"lon":-123.044248,"city":"Springfield","state":"OR","address":"3752 International Court","name":""},
  {"lat":34.162905,"lon":-117.333274,"city":"San Bernardino","state":"CA","address":"1960 Ostrems Way","name":""},
  {"lat":42.75913,"lon":-73.930242,"city":"Schenectady","state":"NY","address":"2700 Curry Road","name":""},
  {"lat":32.381249,"lon":-95.333466,"city":"Tyler","state":"TX","address":"2739 West Northwest Loop 323","name":""},
  {"lat":36.20359,"lon":-115.118761,"city":"North Las Vegas","state":"NV","address":"2401 Las Vegas Boulevard North","name":""},
  {"lat":31.366314,"lon":-110.932082,"city":"Nogales","state":"AZ","address":"141 West Mariposa Road","name":""},
  {"lat":41.944052,"lon":-91.677625,"city":"Cedar Rapids","state":"IA","address":"616 33rd Avenue Southwest","name":""},
  {"lat":29.941828,"lon":-95.296264,"city":"Humble","state":"TX","address":"15319 Eastex Freeway","name":""},
  {"lat":35.130123,"lon":-107.828177,"city":"Grants","state":"NM","address":"1505 East Santa Fe Avenue","name":""},
  {"lat":44.631436,"lon":-123.065541,"city":"Albany","state":"OR","address":"3125 Santiam Highway Southeast","name":""},
  {"lat":38.877448,"lon":-97.616047,"city":"Salina","state":"KS","address":"635 W DIAMOND DR","name":""},
  {"lat":42.522911,"lon":-83.025353,"city":"Warren","state":"MI","address":"8300 Chicago Road","name":""},
  {"lat":34.473295,"lon":-84.920733,"city":"Calhoun","state":"GA","address":"742 HIGHWAY 53 EAST S.E.","name":""},
  {"lat":43.091021,"lon":-70.79963,"city":"Portsmouth","state":"NH","address":"3 Gosling Road","name":""},
  {"lat":45.748971,"lon":-108.550848,"city":"Billings","state":"MT","address":"5400 Midland Road","name":""},
  {"lat":40.739127,"lon":-89.637154,"city":"Peoria","state":"IL","address":"2726 West Lake Avenue","name":""},
  {"lat":29.554082,"lon":-98.588328,"city":"San-Antonio","state":"TX","address":"11802 Interstate 10","name":""},
  {"lat":44.768806,"lon":-93.291769,"city":"Burnsville","state":"MN","address":"12920 Aldrich Avenue South","name":""},
  {"lat":46.998315,"lon":-122.911597,"city":"Tumwater","state":"WA","address":"400 Lee Street Southwest","name":""},
  {"lat":40.419822,"lon":-86.819247,"city":"Lafayette","state":"IN","address":"139 Frontage Road","name":""},
  {"lat":30.408,"lon":-87.277482,"city":"Pensacola","state":"FL","address":"5 N New Warrington Rd","name":""},
  {"lat":34.50629,"lon":-117.321085,"city":"San Bernardino","state":"CA","address":"14173 Green Tree Blvd","name":""},
  {"lat":41.230048,"lon":-112.009183,"city":"Ogden","state":"UT","address":"1206 West 2100 South","name":""},
  {"lat":30.586353,"lon":-88.172863,"city":"Mobile","state":"AL","address":"5686 Tillmans Corner Parkway","name":""},
  {"lat":36.162208,"lon":-95.901125,"city":"Tulsa","state":"OK","address":"6730 East Archer Street","name":""},
  {"lat":31.538101,"lon":-97.127567,"city":"Waco","state":"TX","address":"1430 Jack Kultgen Freeway","name":""},
  {"lat":38.006187,"lon":-121.350942,"city":"Stockton","state":"CA","address":"6717 Plymouth Road","name":""},
  {"lat":35.14535,"lon":-80.897775,"city":"Charlotte","state":"NC","address":"131 Red Roof Drive","name":""},
  {"lat":39.969381,"lon":-104.828172,"city":"Brighton","state":"CO","address":"15040 Brighton Road","name":""},
  {"lat":30.709334,"lon":-94.952508,"city":"Livingston","state":"TX","address":"U.S. 59 Loop South","name":""},
  {"lat":37.663614,"lon":-121.02666,"city":"Modesto","state":"CA","address":"1920 West Orangeburg Avenue","name":""},
  {"lat":38.190078,"lon":-86.981622,"city":"Dale","state":"IN","address":"1334 North Washington Street","name":""},
  {"lat":43.026034,"lon":-108.387423,"city":"Riverton","state":"WY","address":"302 EAST FREMONT AVE.","name":""},
  {"lat":26.696157,"lon":-80.071506,"city":"West Palm Beach","state":"FL","address":"1535 Centrepark Drive North","name":""},
  {"lat":32.793194,"lon":-96.695666,"city":"Dallas","state":"TX","address":"8510 East R L Thornton Freeway","name":""},
  {"lat":37.143856,"lon":-84.107413,"city":"London","state":"KY","address":"285 West Hwy 80","name":""},
  {"lat":34.360084,"lon":-84.04495,"city":"Dawsonville","state":"GA","address":"76 North Georgia Avenue","name":""},
  {"lat":30.332152,"lon":-97.705319,"city":"Austin","state":"TX","address":"7100 North Interstate Highway 35","name":""},
  {"lat":35.584205,"lon":-89.090075,"city":"Bells","state":"TN","address":"9740 US-70 EAST","name":""},
  {"lat":32.882542,"lon":-96.696842,"city":"Dallas","state":"TX","address":"10921 Estate Lane","name":""},
  {"lat":33.479455,"lon":-112.031204,"city":"Phoenix","state":"AZ","address":"2333 East Thomas Road","name":""},
  {"lat":37.598122,"lon":-84.316015,"city":"Berea","state":"KY","address":"1029 Cooper Drive","name":""},
  {"lat":34.174702,"lon":-97.165473,"city":"Ardmore","state":"OK","address":"120 HOLIDAY DRIVE","name":""},
  {"lat":33.708977,"lon":-117.849319,"city":"Santa Ana","state":"CA","address":"1717 EAST DYER ROAD","name":""},
  {"lat":47.455309,"lon":-122.293824,"city":"Seattle","state":"WA","address":"16500 International Blvd","name":""},
  {"lat":39.46199,"lon":-118.780382,"city":"Fallon","state":"NV","address":"1705 S TAYLOR ST","name":""},
  {"lat":27.560472,"lon":-99.504957,"city":"Laredo","state":"TX","address":"5920 San Bernardo Avenue","name":""},
  {"lat":29.954097,"lon":-95.554714,"city":"Houston","state":"TX","address":"8711 Cypress Creek Parkway","name":""},
  {"lat":35.354084,"lon":-118.912672,"city":"Bakersfield","state":"CA","address":"8223 East Brundage Lane","name":""},
  {"lat":34.213707,"lon":-91.966293,"city":"Pine Bluff","state":"AR","address":"3103 Market Street","name":""},
  {"lat":35.061467,"lon":-85.133005,"city":"Chattanooga","state":"TN","address":"7707 LEE HWY","name":""},
  {"lat":35.3498,"lon":-89.901847,"city":"Millington","state":"TN","address":"8181 Highway 51 North","name":""},
  {"lat":33.758048,"lon":-117.919794,"city":"Santa Ana","state":"CA","address":"1501 North Harbor Boulevard","name":""},
  {"lat":38.651681,"lon":-75.593268,"city":"Seaford","state":"DE","address":"24057 Sussex Highway","name":""},
  {"lat":40.386031,"lon":-111.831484,"city":"Lehi","state":"UT","address":"210 South 1200 East","name":""},
  {"lat":34.121966,"lon":-117.906638,"city":"Azusa","state":"CA","address":"137 East 1st Street","name":""},
  {"lat":29.584581,"lon":-97.995194,"city":"Seguin","state":"TX","address":"1826 Interstate 10","name":""},
  {"lat":35.776794,"lon":-119.254605,"city":"Delano","state":"CA","address":"405 Cecil Avenue","name":""},
  {"lat":31.596536,"lon":-97.110765,"city":"Bellmead","state":"TX","address":"1509 Hogan Lane","name":""},
  {"lat":38.372186,"lon":-121.951911,"city":"Vacaville","state":"CA","address":"107 Lawrence Drive","name":""},
  {"lat":32.309964,"lon":-95.341339,"city":"Tyler","state":"TX","address":"3393 South Southwest Loop 323","name":""},
  {"lat":42.929469,"lon":-87.929123,"city":"Oak Creek","state":"WI","address":"1201 West College Avenue","name":""},
  {"lat":32.3577,"lon":-86.214778,"city":"Montgomery","state":"AL","address":"1401 Eastern Boulevard","name":""},
  {"lat":33.035205,"lon":-83.924717,"city":"Forsyth","state":"GA","address":"436 Tift College Drive","name":""},
  {"lat":33.679514,"lon":-93.606314,"city":"Hope","state":"AR","address":"1600 N HERVEY ST","name":""},
  {"lat":41.415455,"lon":-82.210591,"city":"Amherst","state":"OH","address":"704 North Leavitt Road","name":""},
  {"lat":41.360953,"lon":-72.071614,"city":"Groton","state":"CT","address":"404 BRIDGE ST","name":""},
  {"lat":30.284013,"lon":-95.45668,"city":"Conroe","state":"TX","address":"1525 Interstate 45 South","name":""},
  {"lat":31.349729,"lon":-89.335999,"city":"Hattiesburg","state":"MS","address":"6508 U.S. 49","name":""},
  {"lat":38.310435,"lon":-104.616486,"city":"Pueblo","state":"CO","address":"4103 N ELIZABETH ST","name":""},
  {"lat":32.759049,"lon":-97.262902,"city":"Fort Worth","state":"TX","address":"1236 Oakland Boulevard","name":""},
  {"lat":35.011256,"lon":-106.06621,"city":"Moriarty","state":"NM","address":"1901 U.S. Route 66","name":""},
  {"lat":42.360526,"lon":-87.874176,"city":"Waukegan","state":"IL","address":"31 North Green Bay Road","name":""},
  {"lat":29.805288,"lon":-94.984716,"city":"Baytown","state":"TX","address":"4911 East Freeway","name":""},
  {"lat":35.180517,"lon":-106.580803,"city":"Albuquerque","state":"NM","address":"8510 Pan American Freeway NE","name":""},
  {"lat":39.834025,"lon":-84.820425,"city":"Richmond","state":"IN","address":"6030 NATIONAL ROAD EAST","name":""},
  {"lat":36.161553,"lon":-95.768013,"city":"Catoosa","state":"OK","address":"18715 East Admiral Place","name":""},
  {"lat":30.118241,"lon":-93.820364,"city":"Orange","state":"TX","address":"2502 Texas 62","name":""},
  {"lat":41.468391,"lon":-87.320574,"city":"Merrillville","state":"IN","address":"8290 LOUISIANA ST","name":""},
  {"lat":38.338192,"lon":-77.489224,"city":"Fredericksburg","state":"VA","address":"401 Warrenton Road","name":""},
  {"lat":29.784188,"lon":-95.755298,"city":"Katy","state":"TX","address":"22105 Katy Freeway","name":""},
  {"lat":39.133549,"lon":-123.205517,"city":"Ukiah","state":"CA","address":"1208 South State Street","name":""},
  {"lat":32.703224,"lon":-96.655502,"city":"Dallas","state":"TX","address":"9626 C F Hawn Freeway","name":""},
  {"lat":39.63277,"lon":-84.20521,"city":"Dayton","state":"OH","address":"1944 Miamisburg Centerville Road","name":""},
  {"lat":39.121567,"lon":-88.560118,"city":"Effingham","state":"IL","address":"1412 West Fayette Avenue","name":""},
  {"lat":32.527823,"lon":-93.70071,"city":"Bossier City","state":"LA","address":"1984 Airline Drive","name":""},
  {"lat":32.734776,"lon":-96.611036,"city":"Mesquite","state":"TX","address":"2514 Balch Springs Road","name":""},
  {"lat":33.976148,"lon":-118.163197,"city":"Bell Gardens","state":"CA","address":"6344 South Eastern Avenue","name":""},
  {"lat":34.659968,"lon":-86.016502,"city":"Scottsboro","state":"AL","address":"46 Micah Way","name":""},
  {"lat":39.723177,"lon":-105.08093,"city":"Lakewood","state":"CO","address":"480 Wadsworth Boulevard","name":""},
  {"lat":37.920925,"lon":-90.536362,"city":"Bonne Terre","state":"MO","address":"1017 Highway K","name":""},
  {"lat":34.135727,"lon":-117.200093,"city":"Highland","state":"CA","address":"2659 East Highland Avenue","name":""},
  {"lat":32.686394,"lon":-97.32005,"city":"Fort Worth","state":"TX","address":"4201 South Freeway","name":""},
  {"lat":33.758171,"lon":-118.01964,"city":"Westminster","state":"CA","address":"6266 Westminster Boulevard","name":""},
  {"lat":37.963633,"lon":-122.51086,"city":"San Rafael","state":"CA","address":"737 Francisco Boulevard West","name":""},
  {"lat":38.870312,"lon":-77.173685,"city":"Falls Church","state":"VA","address":"6652 Arlington Boulevard","name":""},
  {"lat":36.982426,"lon":-120.087442,"city":"Madera","state":"CA","address":"2095 West Kennedy Street","name":""},
  {"lat":38.350016,"lon":-122.711289,"city":"Rohnert Park","state":"CA","address":"6145 Commerce Blvd","name":""},
  {"lat":43.021546,"lon":-85.635386,"city":"Grand Rapids","state":"MI","address":"3221 PLAINFIELD AVE.","name":""},
  {"lat":41.924423,"lon":-72.668379,"city":"Windsor Locks","state":"CT","address":"3 National Drive","name":""},
  {"lat":29.438565,"lon":-98.475117,"city":"San-Antonio","state":"TX","address":"3370 North Interstate 35 Frontage Road","name":""},
  {"lat":30.520493,"lon":-97.689957,"city":"Round Rock","state":"TX","address":"1400 N I-35","name":""},
  {"lat":44.784696,"lon":-117.805327,"city":"Baker City","state":"OR","address":"175 Campbell Street","name":""},
  {"lat":29.657239,"lon":-95.028364,"city":"La Porte","state":"TX","address":"705 North Highway 146","name":""},
  {"lat":33.826895,"lon":-84.25566,"city":"Tucker","state":"GA","address":"2810 Lawrenceville Highway","name":""},
  {"lat":34.031484,"lon":-117.691037,"city":"Chino","state":"CA","address":"12266 Central Avenue","name":""},
  {"lat":35.055369,"lon":-118.174051,"city":"Mojave","state":"CA","address":"16100 Sierra Highway","name":""},
  {"lat":34.040234,"lon":-118.082734,"city":"Rosemead","state":"CA","address":"1001 San Gabriel Boulevard","name":""},
  {"lat":37.625292,"lon":-77.527067,"city":"Richmond","state":"VA","address":"7831 Shrader Road","name":""},
  {"lat":43.697421,"lon":-98.047975,"city":"Mitchell","state":"SD","address":"1309 S OHLMAN ST","name":""},
  {"lat":33.540127,"lon":-112.186645,"city":"Glendale","state":"AZ","address":"7116 North 59th Avenue","name":""},
  {"lat":47.550602,"lon":-122.06033,"city":"Issaquah","state":"WA","address":"1885 15th Place Northwest","name":""},
  {"lat":48.183833,"lon":-114.308237,"city":"Kalispell","state":"MT","address":"1540 US 93 South","name":""},
  {"lat":30.24917,"lon":-93.181457,"city":"Lake-Charles","state":"LA","address":"921 North Martin Luther King Highway","name":""},
  {"lat":41.650763,"lon":-93.602528,"city":"Des Moines","state":"IA","address":"4940 Northeast 14th Street","name":""},
  {"lat":33.839773,"lon":-118.260748,"city":"Carson","state":"CA","address":"888 East Dominguez Street","name":""},
  {"lat":33.048275,"lon":-97.473225,"city":"Rhome","state":"TX","address":"300 HOLLY PARKWAY","name":""},
  {"lat":34.838676,"lon":-114.613341,"city":"Needles","state":"CA","address":"1420 J Street","name":""},
  {"lat":38.944084,"lon":-94.762485,"city":"Lenexa","state":"KS","address":"15151 West 101th Terrace","name":""},
  {"lat":39.655666,"lon":-79.985315,"city":"Morgantown","state":"WV","address":"3506 Monongahela Boulevard","name":""},
  {"lat":35.356155,"lon":-81.9262,"city":"Spindale","state":"NC","address":"Spindale, Rutherford County, North Carolina 28160","name":""},
  {"lat":45.622765,"lon":-122.555874,"city":"Vancouver","state":"WA","address":"221 NE CHKALOV DRIVE","name":""},
  {"lat":30.471268,"lon":-87.246663,"city":"Pensacola","state":"FL","address":"5829 Pensacola Boulevard","name":""},
  {"lat":41.294907,"lon":-105.590451,"city":"Laramie","state":"WY","address":"621 Plaza Lane","name":""},
  {"lat":43.089737,"lon":-76.088637,"city":"East Syracuse","state":"NY","address":"6577 Baptist Way","name":""},
  {"lat":41.580671,"lon":-88.170542,"city":"Joliet","state":"IL","address":"3551 Mall Loop Drive","name":""},
  {"lat":29.596357,"lon":-98.600565,"city":"San-Antonio","state":"TX","address":"16500 I-10 West","name":""},
  {"lat":34.068593,"lon":-117.435015,"city":"Fontana","state":"CA","address":"10195 Sierra Avenue","name":""},
  {"lat":38.110791,"lon":-122.228207,"city":"Vallejo","state":"CA","address":"44 Admiral Callaghan Lane","name":""},
  {"lat":40.026964,"lon":-83.025326,"city":"Columbus","state":"OH","address":"3246 Olentangy River Road","name":""},
  {"lat":33.847854,"lon":-117.99707,"city":"Buena Park","state":"CA","address":"7930 Beach Boulevard","name":""},
  {"lat":34.990788,"lon":-85.199571,"city":"Chattanooga","state":"TN","address":"1417 Saint Thomas Street","name":""},
  {"lat":38.712306,"lon":-90.448935,"city":"Maryland Heights","state":"MO","address":"12330 Dorsett Road","name":""},
  {"lat":35.134385,"lon":-120.621807,"city":"Pismo Beach","state":"CA","address":"860 North 4th Street","name":""},
  {"lat":37.303349,"lon":-120.49904,"city":"Merced","state":"CA","address":"1410 V Street","name":""},
  {"lat":34.425247,"lon":-117.346615,"city":"Hesperia","state":"CA","address":"9630 Maple Avenue","name":""},
  {"lat":33.876153,"lon":-118.150348,"city":"Bellflower","state":"CA","address":"17220 Downey Ave.","name":""},
  {"lat":33.951613,"lon":-84.125744,"city":"Duluth","state":"GA","address":"3525 Breckinridge Boulevard","name":""},
  {"lat":28.081723,"lon":-81.966794,"city":"Lakeland","state":"FL","address":"3120 US Highway 98 North","name":""},
  {"lat":32.755619,"lon":-117.048406,"city":"La Mesa","state":"CA","address":"6952 University Avenue","name":""},
  {"lat":35.459094,"lon":-94.771802,"city":"Sallisaw","state":"OK","address":"1300 East Cherokee Avenue","name":""},
  {"lat":32.835986,"lon":-97.003605,"city":"Irving","state":"TX","address":"3950 W. AIRPORT FREEWAY","name":""},
  {"lat":38.952547,"lon":-104.801303,"city":"Colorado Springs","state":"CO","address":"8280 Voyager Parkway","name":""},
  {"lat":38.659585,"lon":-121.362708,"city":"Sacramento","state":"CA","address":"5110 Interstate Avenue","name":""},
  {"lat":35.168278,"lon":-89.866006,"city":"Memphis","state":"TN","address":"1585 Sycamore View Road","name":""},
  {"lat":27.803255,"lon":-97.471377,"city":"Corpus Christi","state":"TX","address":"845 Lantana Street","name":""},
  {"lat":35.617496,"lon":-119.660158,"city":"Lost Hills","state":"CA","address":"14685 Warren Street","name":""},
  {"lat":36.744861,"lon":-80.777009,"city":"Hillsville","state":"VA","address":"57 Airport Road","name":""},
  {"lat":28.335638,"lon":-81.514278,"city":"Kissimmee","state":"FL","address":"5731 West Irlo Bronson Memorial Highway","name":""},
  {"lat":41.115953,"lon":-102.947222,"city":"Sidney","state":"NE","address":"3040 SILVERBERG DR","name":""},
  {"lat":42.744277,"lon":-78.848623,"city":"Hamburg","state":"NY","address":"5245 Camp Road","name":""},
  {"lat":30.078633,"lon":-97.820747,"city":"Buda","state":"TX","address":"5163 Overpass Rd","name":""},
  {"lat":48.209336,"lon":-101.315895,"city":"Minot","state":"ND","address":"1515 22nd Avenue Southwest","name":""},
  {"lat":30.422684,"lon":-89.09348,"city":"Gulfport","state":"MS","address":"9355 U.S. 49","name":""},
  {"lat":36.916876,"lon":-84.126816,"city":"Corbin","state":"KY","address":"1891 Cumberland Falls Highway","name":""},
  {"lat":33.745977,"lon":-117.845486,"city":"Santa Ana","state":"CA","address":"1623 East 1st Street","name":""},
  {"lat":39.553925,"lon":-119.490457,"city":"McCarran","state":"NV","address":"795 USA PARKWAY","name":""},
  {"lat":41.360741,"lon":-72.20774,"city":"East Lyme","state":"CT","address":"269 Flanders Road","name":""},
  {"lat":38.189783,"lon":-83.47479,"city":"Morehead","state":"KY","address":"602 Fraley Drive","name":""},
  {"lat":36.793484,"lon":-81.680184,"city":"Chilhowie","state":"VA","address":"108 River Road","name":""},
  {"lat":36.835954,"lon":-119.78897,"city":"Fresno","state":"CA","address":"6730 North Blackstone Avenue","name":""},
  {"lat":34.103493,"lon":-117.81754,"city":"San Dimas","state":"CA","address":"502 West Arrow Highway","name":""},
  {"lat":40.451241,"lon":-80.104165,"city":"Pittsburgh","state":"PA","address":"211 Beecham Drive","name":""},
  {"lat":32.864523,"lon":-96.892908,"city":"Dallas","state":"TX","address":"10326 Finnell Street","name":""},
  {"lat":35.31856,"lon":-106.534029,"city":"Bernalillo","state":"NM","address":"210 North Hill Road","name":""},
  {"lat":40.083245,"lon":-75.390701,"city":"King of Prussia","state":"PA","address":"815 West Dekalb Pike","name":""},
  {"lat":29.41024,"lon":-98.650992,"city":"San-Antonio","state":"TX","address":"2185 Southwest Loop 410","name":""},
  {"lat":39.286047,"lon":-84.442453,"city":"Cincinnati","state":"OH","address":"11620 Chester Road","name":""},
  {"lat":39.01288,"lon":-84.635275,"city":"Florence","state":"KY","address":"200 Meijer Drive","name":""},
  {"lat":27.702446,"lon":-97.367358,"city":"Corpus Christi","state":"TX","address":"5850 Williams Dr.","name":""},
  {"lat":32.865418,"lon":-96.66099,"city":"Garland","state":"TX","address":"12721 I-635","name":""},
  {"lat":35.512812,"lon":-93.822877,"city":"Ozark","state":"AR","address":"105 Airport Road","name":""},
  {"lat":39.712077,"lon":-89.64072,"city":"Springfield","state":"IL","address":"6011 S 6th St. Rd","name":""},
  {"lat":33.717251,"lon":-117.969393,"city":"Fountain Valley","state":"CA","address":"9125 Recreation Circle","name":""},
  {"lat":29.012992,"lon":-95.424762,"city":"Lake Jackson","state":"TX","address":"915 Texas 332","name":""},
  {"lat":35.104702,"lon":-106.624891,"city":"Albuquerque","state":"NM","address":"1701 University Boulevard Northeast","name":""},
  {"lat":35.946995,"lon":-83.201705,"city":"Newport","state":"TN","address":"255 HERITAGE BLVD","name":""},
  {"lat":35.58094,"lon":-78.148697,"city":"Kenly","state":"NC","address":"843 Johnston Parkway","name":""},
  {"lat":36.072723,"lon":-119.038027,"city":"Porterville","state":"CA","address":"935 West Morton Avenue","name":""},
  {"lat":31.827436,"lon":-102.35367,"city":"Odessa","state":"TX","address":"200 East I-20 Service Road","name":""},
  {"lat":32.486876,"lon":-94.35896,"city":"Marshall","state":"TX","address":"6002 East End Boulevard South","name":""},
  {"lat":34.257232,"lon":-83.465274,"city":"Commerce","state":"GA","address":"128 Frontage Road","name":""},
  {"lat":35.401955,"lon":-119.40045,"city":"Buttonwillow","state":"CA","address":"20645 Tracy Avenue","name":""},
  {"lat":37.57624,"lon":-122.046485,"city":"Fremont","state":"CA","address":"34047 Fremont Boulevard","name":""},
  {"lat":40.608906,"lon":-98.383562,"city":"Hastings","state":"NE","address":"2205 Osborne Drive East","name":""},
  {"lat":33.959961,"lon":-81.093538,"city":"West Columbia","state":"SC","address":"650 Cherokee Lane","name":""},
  {"lat":34.277924,"lon":-119.295497,"city":"Ventura","state":"CA","address":"350 East Thompson Boulevard","name":""},
  {"lat":30.002353,"lon":-90.038856,"city":"New-Orleans","state":"LA","address":"4200 Old Gentilly Road","name":""},
  {"lat":33.880766,"lon":-84.273573,"city":"Atlanta","state":"GA","address":"2820 Chamblee Tucker Road","name":""},
  {"lat":42.587826,"lon":-114.459083,"city":"Twin Falls","state":"ID","address":"1472 Blue Lakes Boulevard North","name":""},
  {"lat":32.576164,"lon":-117.08351,"city":"San Diego","state":"CA","address":"1101 HOLLISTER STREET","name":""},
  {"lat":45.836174,"lon":-119.287471,"city":"Hermiston","state":"OR","address":"635 South Highway 395","name":""},
  {"lat":32.837069,"lon":-97.198012,"city":"North Richland Hills","state":"TX","address":"8709 Airport Freeway","name":""},
  {"lat":30.860016,"lon":-87.777371,"city":"Bay Minette","state":"AL","address":"1402 U.S. 31","name":""},
  {"lat":39.595998,"lon":-104.882844,"city":"Greenwood Village","state":"CO","address":"9201 East Arapahoe Road","name":""},
  {"lat":30.220058,"lon":-93.375018,"city":"Sulphur","state":"LA","address":"2022 Ruth Street","name":""},
  {"lat":32.010424,"lon":-97.093025,"city":"Hillsboro","state":"TX","address":"1506 Hillview Drive","name":""},
  {"lat":33.85584,"lon":-117.888834,"city":"Anaheim","state":"CA","address":"1440 North State College Boulevard","name":""},
  {"lat":37.103712,"lon":-121.014506,"city":"Santa Nella Village","state":"CA","address":"12733 South Highway 33","name":""},
  {"lat":39.692166,"lon":-75.104302,"city":"Glassboro","state":"NJ","address":"133 Delsea Drive South","name":""},
  {"lat":32.798309,"lon":-96.825757,"city":"Dallas","state":"TX","address":"2023 Market Center Boulevard","name":""},
  {"lat":29.530141,"lon":-95.126432,"city":"Webster","state":"TX","address":"1001 West Nasa Parkway","name":""},
  {"lat":34.065857,"lon":-117.611723,"city":"Ontario","state":"CA","address":"231 North Vineyard Avenue","name":""},
  {"lat":29.703357,"lon":-98.093717,"city":"New Braunfels","state":"TX","address":"1275 North Interstate 35 Frontage Road","name":""},
  {"lat":32.523676,"lon":-96.821295,"city":"Red Oak","state":"TX","address":"202 South Interstate 35E","name":""},
  {"lat":30.266975,"lon":-92.015988,"city":"Lafayette","state":"LA","address":"2724 Northeast Evangeline Throughway","name":""},
  {"lat":32.839374,"lon":-97.084113,"city":"Euless","state":"TX","address":"110 West Airport Freeway","name":""},
  {"lat":43.854126,"lon":-91.245662,"city":"La Crosse","state":"WI","address":"2150 ROSE STREET","name":""},
  {"lat":29.823424,"lon":-94.899636,"city":"Baytown","state":"TX","address":"8911 State Highway 146","name":""},
  {"lat":33.945949,"lon":-118.367249,"city":"Inglewood","state":"CA","address":"5101 West Century Boulevard","name":""},
  {"lat":41.803951,"lon":-71.331365,"city":"Seekonk","state":"MA","address":"821 Fall River Ave.","name":""},
  {"lat":34.556563,"lon":-117.290652,"city":"Victorville","state":"CA","address":"16868 STODDARD WELLS RD","name":""},
  {"lat":30.326953,"lon":-97.702632,"city":"Austin","state":"TX","address":"6603 North Interstate Highway 35","name":""},
  {"lat":31.579967,"lon":-90.472612,"city":"Brookhaven","state":"MS","address":"1210 Brookway Boulevard","name":""},
  {"lat":33.232755,"lon":-97.176183,"city":"Denton","state":"TX","address":"4125 I-35 North","name":""},
  {"lat":34.613047,"lon":-120.188807,"city":"Buellton","state":"CA","address":"333 McMurray Road","name":""},
  {"lat":35.065094,"lon":-89.845597,"city":"Memphis","state":"TN","address":"6520 Mount Moriah Road","name":""},
  {"lat":41.125792,"lon":-104.838885,"city":"Cheyenne","state":"WY","address":"1735 Westland Road","name":""},
  {"lat":30.196435,"lon":-81.74223,"city":"Jacksonville","state":"FL","address":"6107 Youngerman Circle","name":""},
  {"lat":31.552282,"lon":-85.283058,"city":"Abbeville","state":"AL","address":"1237 U.S. 431","name":""},
  {"lat":32.738874,"lon":-97.453827,"city":"Fort Worth","state":"TX","address":"7960 West Freeway","name":""},
  {"lat":36.255894,"lon":-120.24721,"city":"Coalinga","state":"CA","address":"25008 West Dorris Avenue","name":""},
  {"lat":33.507049,"lon":-88.43344,"city":"Columbus","state":"MS","address":"1203 Highway 45 North","name":""},
  {"lat":31.576768,"lon":-102.892256,"city":"Monahans","state":"TX","address":"701 West Service Road I-20","name":""},
  {"lat":33.204086,"lon":-117.385573,"city":"Oceanside","state":"CA","address":"1103 North Coast Highway","name":""},
  {"lat":32.374408,"lon":-104.228581,"city":"Carlsbad","state":"NM","address":"3824 National Parks Highway","name":""},
  {"lat":34.428011,"lon":-117.385508,"city":"Hesperia","state":"CA","address":"9757 Cataba Road","name":""},
  {"lat":29.420269,"lon":-95.22063,"city":"Alvin","state":"TX","address":"110 East Highway 6","name":""},
  {"lat":32.476796,"lon":-99.696416,"city":"Abilene","state":"TX","address":"1702 East Overland Trail","name":""},
  {"lat":41.212574,"lon":-73.085634,"city":"Milford","state":"CT","address":"111 SCHOOLHOUSE RD","name":""},
  {"lat":29.378191,"lon":-95.005973,"city":"Texas City","state":"TX","address":"8540 FM 1765","name":""},
  {"lat":32.857963,"lon":-96.88745,"city":"Dallas","state":"TX","address":"2395 STEMMONS TRAIL","name":""},
  {"lat":27.885519,"lon":-97.213656,"city":"Ingleside","state":"TX","address":"2920 ROCKLAND BLVD","name":""},
  {"lat":34.026682,"lon":-117.748259,"city":"Pomona","state":"CA","address":"2470 S GAREY AVE","name":""},
  {"lat":36.131723,"lon":-115.084028,"city":"Las Vegas","state":"NV","address":"4125 Boulder Highway","name":""},
  {"lat":38.972076,"lon":-77.026882,"city":"Washington","state":"DC","address":"6711 Georgia Avenue Northwest","name":""},
  {"lat":38.637504,"lon":-121.476467,"city":"Sacramento","state":"CA","address":"3796 Northgate Boulevard","name":""},
  {"lat":37.23095,"lon":-77.393312,"city":"Petersburg","state":"VA","address":"25 N. LITTLE CHURCH ST.","name":""},
  {"lat":32.471514,"lon":-84.988027,"city":"Columbus","state":"GA","address":"1325 Veterans Parkway","name":""},
  {"lat":30.222527,"lon":-81.574237,"city":"Jacksonville","state":"FL","address":"8765 Baymeadows Road","name":""},
  {"lat":47.489134,"lon":-111.330234,"city":"Great Falls","state":"MT","address":"2 Treasure State Drive","name":""},
  {"lat":33.021383,"lon":-96.983582,"city":"Lewisville","state":"TX","address":"1705 Lakepointe Drive","name":""},
  {"lat":28.253099,"lon":-82.728813,"city":"New Port Richey","state":"FL","address":"6523 U.S. 19","name":""},
  {"lat":29.78397,"lon":-95.107246,"city":"Channelview","state":"TX","address":"209 Cedar Lane","name":""},
  {"lat":40.72936,"lon":-84.072757,"city":"Lima","state":"OH","address":"1800 HARDING HWY","name":""},
  {"lat":38.217018,"lon":-91.167847,"city":"Sullivan","state":"MO","address":"209 North Service Road West","name":""},
  {"lat":42.048594,"lon":-104.964287,"city":"Wheatland","state":"WY","address":"95 16th Street","name":""},
  {"lat":38.961461,"lon":-85.83904,"city":"Seymour","state":"IN","address":"365 TANGER BLVD","name":""},
  {"lat":34.229425,"lon":-79.801131,"city":"Florence","state":"SC","address":"2004 West Lucas Street","name":""},
  {"lat":29.787307,"lon":-95.730817,"city":"Katy","state":"TX","address":"1425 Westborough Drive","name":""},
  {"lat":32.837414,"lon":-97.29189,"city":"Fort Worth","state":"TX","address":"3861 TANACROSS DR","name":""},
  {"lat":33.155832,"lon":-117.337431,"city":"Carlsbad","state":"CA","address":"3666 Pio Pico Drive","name":""},
  {"lat":44.644373,"lon":-93.291294,"city":"Lakeville","state":"MN","address":"11274 210th Street West","name":""},
  {"lat":35.104568,"lon":-106.62517,"city":"Albuquerque","state":"NM","address":"1701 University Boulevard Northeast","name":""},
  {"lat":35.18688,"lon":-101.933176,"city":"Amarillo","state":"TX","address":"6801 Interstate 40 West","name":""},
  {"lat":33.857678,"lon":-118.029276,"city":"Buena Park","state":"CA","address":"7051 Valley View Street","name":""},
  {"lat":35.316552,"lon":-119.033672,"city":"Bakersfield","state":"CA","address":"2727 White Lane","name":""},
  {"lat":43.010416,"lon":-75.021604,"city":"Ilion","state":"NY","address":"345 East Main Street","name":""},
  {"lat":35.844676,"lon":-101.974575,"city":"Dumas","state":"TX","address":"1712 South Dumas Avenue","name":""},
  {"lat":31.092279,"lon":-97.727455,"city":"Killeen","state":"TX","address":"1502 East Central Texas Expressway","name":""},
  {"lat":39.142317,"lon":-119.766941,"city":"Carson City","state":"NV","address":"2749 South Carson Street","name":""},
  {"lat":36.006841,"lon":-83.774309,"city":"Knoxville","state":"TN","address":"722 Brakebill Road","name":""},
  {"lat":31.852833,"lon":-81.581877,"city":"Hinesville","state":"GA","address":"738 East Oglethorpe Highway","name":""},
  {"lat":37.07211,"lon":-84.617618,"city":"Somerset","state":"KY","address":"1532 South Highway 27","name":""},
  {"lat":36.916363,"lon":-76.224193,"city":"Norfolk","state":"VA","address":"1850 East Little Creek Road","name":""},
  {"lat":39.676125,"lon":-111.840807,"city":"Nephi","state":"UT","address":"2195 South Main Street","name":""},
  {"lat":33.533708,"lon":-101.845784,"city":"Lubbock","state":"TX","address":"909 66th ST","name":""},
  {"lat":33.466869,"lon":-86.827567,"city":"Birmingham City","state":"AL","address":"151 VULCAN RD","name":""},
  {"lat":39.50802,"lon":-121.571526,"city":"Oroville","state":"CA","address":"505 Montgomery Street","name":""},
  {"lat":44.531258,"lon":-88.061482,"city":"Green Bay","state":"WI","address":"1614 Shawano Avenue","name":""},
  {"lat":32.778729,"lon":-97.336894,"city":"Fort Worth","state":"TX","address":"913 East Northside Drive","name":""},
  {"lat":33.876153,"lon":-118.150348,"city":"Bellflower","state":"CA","address":"17220 Downey Avenue","name":""},
  {"lat":43.116394,"lon":-87.917258,"city":"Glendale","state":"WI","address":"5485 North Port Washington Road","name":""},
  {"lat":29.546181,"lon":-98.370334,"city":"San-Antonio","state":"TX","address":"11591 Interstate 35","name":""},
  {"lat":37.994416,"lon":-122.130759,"city":"Martinez","state":"CA","address":"3999 Alhambra Avenue","name":""},
  {"lat":42.469615,"lon":-83.424416,"city":"Farmington Hills","state":"MI","address":"38300 Grand River Avenue","name":""},
  {"lat":34.677787,"lon":-92.321375,"city":"Little Rock","state":"AR","address":"7501 Interstate 30 Frontage Road","name":""},
  {"lat":29.818036,"lon":-95.47045,"city":"Houston","state":"TX","address":"5555 West 34th Street","name":""},
  {"lat":40.775443,"lon":-76.223491,"city":"Frackville","state":"PA","address":"701 Altamont Boulevard","name":""},
  {"lat":36.724879,"lon":-108.187758,"city":"Farmington","state":"NM","address":"1600 Bloomfield Boulevard","name":""},
  {"lat":31.555044,"lon":-110.301233,"city":"Sierra Vista","state":"AZ","address":"201 West Fry Boulevard","name":""},
  {"lat":39.771818,"lon":-104.848493,"city":"Denver","state":"CO","address":"12020 East 39th Avenue","name":""},
  {"lat":33.368527,"lon":-79.269032,"city":"Georgetown","state":"SC","address":"120 Church Street","name":""},
  {"lat":29.96822,"lon":-95.422883,"city":"Houston","state":"TX","address":"12550 KUYKENDAHL RD","name":""},
  {"lat":35.230972,"lon":-97.483219,"city":"Norman","state":"OK","address":"1016 26th Avenue Northwest","name":""},
  {"lat":34.077127,"lon":-117.62082,"city":"Ontario","state":"CA","address":"1560 E 4TH ST","name":""},
  {"lat":41.710933,"lon":-112.173973,"city":"Tremonton","state":"UT","address":"585 West Main Street","name":""},
  {"lat":33.610888,"lon":-114.587741,"city":"Blythe","state":"CA","address":"801 East Hobsonway","name":""},
  {"lat":32.076224,"lon":-94.758738,"city":"Henderson","state":"TX","address":"1500 US HWY 259 SOUTH","name":""},
  {"lat":29.665504,"lon":-95.203578,"city":"Pasadena","state":"TX","address":"2601 Spencer Highway","name":""},
  {"lat":33.605028,"lon":-112.300444,"city":"Youngtown","state":"AZ","address":"11133 Grand Avenue","name":""},
  {"lat":33.858652,"lon":-117.789851,"city":"Anaheim","state":"CA","address":"5710 East La Palma Avenue","name":""},
  {"lat":37.332258,"lon":-121.910736,"city":"San Jose","state":"CA","address":"1041 The Alameda","name":""},
  {"lat":32.916583,"lon":-96.767982,"city":"Dallas","state":"TX","address":"12301 N US 75-Central Expy 1000","name":""},
  {"lat":45.503594,"lon":-122.417123,"city":"Gresham","state":"OR","address":"1572 Northeast Burnside Road","name":""},
  {"lat":38.46413,"lon":-122.72749,"city":"Santa Rosa","state":"CA","address":"2760 Cleveland Avenue","name":""},
  {"lat":39.168745,"lon":-123.212411,"city":"Ukiah","state":"CA","address":"1340 North State Street","name":""},
  {"lat":30.480155,"lon":-90.484289,"city":"Hammond","state":"LA","address":"2010 South Morrison Boulevard","name":""},
  {"lat":35.156811,"lon":-80.889517,"city":"Charlotte","state":"NC","address":"5830 Westpark Drive","name":""},
  {"lat":28.464826,"lon":-81.46297,"city":"Orlando","state":"FL","address":"5909 American Way","name":""},
  {"lat":42.214146,"lon":-89.072347,"city":"Rockford","state":"IL","address":"3919 11th Street","name":""},
  {"lat":37.056817,"lon":-76.401392,"city":"Hampton","state":"VA","address":"1616 Hardy Cash Drive","name":""},
  {"lat":37.673868,"lon":-97.409483,"city":"Wichita","state":"KS","address":"5736 West Kellogg Drive","name":""},
  {"lat":37.162762,"lon":-88.688395,"city":"Metropolis","state":"IL","address":"2119 E. 5TH ST","name":""},
  {"lat":42.862156,"lon":-106.338932,"city":"Casper","state":"WY","address":"1150 Wilkins Circle","name":""},
  {"lat":26.935113,"lon":-82.318614,"city":"Sarasota","state":"FL","address":"2540 South McCall Road","name":""},
  {"lat":35.726041,"lon":-78.648034,"city":"Raleigh","state":"NC","address":"3901 South Wilmington Street","name":""},
  {"lat":41.704772,"lon":-122.645385,"city":"Yreka","state":"CA","address":"1785 South Main Street","name":""},
  {"lat":29.677201,"lon":-95.429579,"city":"Houston","state":"TX","address":"3223 South Loop West","name":""},
  {"lat":34.781298,"lon":-92.272849,"city":"North Little Rock","state":"AR","address":"400 West 29th Street","name":""},
  {"lat":32.835479,"lon":-109.727176,"city":"Safford","state":"AZ","address":"1578 West Thatcher Boulevard","name":""},
  {"lat":45.336055,"lon":-122.764716,"city":"Wilsonville","state":"OR","address":"25438 Southwest Parkway Avenue","name":""},
  {"lat":46.791866,"lon":-114.102223,"city":"Missoula","state":"MT","address":"8060 Highway 93 North","name":""},
  {"lat":35.190172,"lon":-114.062996,"city":"Kingman","state":"AZ","address":"424 West Beale Street","name":""},
  {"lat":33.845271,"lon":-79.061609,"city":"Conway","state":"SC","address":"1240 Pine Street","name":""},
  {"lat":31.63983,"lon":-97.097619,"city":"Waco","state":"TX","address":"1008 East Crest Drive","name":""},
  {"lat":38.93319,"lon":-94.664714,"city":"Overland Park","state":"KS","address":"6850 West 108th Street","name":""},
  {"lat":41.240107,"lon":-81.351714,"city":"Streetsboro","state":"OH","address":"9371 Ohio 14","name":""},
  {"lat":40.485292,"lon":-74.416109,"city":"New Brunswick","state":"NJ","address":"26 US HIGHWAY 1 NORTH","name":""},
  {"lat":37.520146,"lon":-77.332712,"city":"Sandston","state":"VA","address":"5704 Wiliamsburg Road","name":""},
  {"lat":32.842242,"lon":-97.234367,"city":"North Richland Hills","state":"TX","address":"5151 THAXTON PARKWAY","name":""},
  {"lat":33.884271,"lon":-117.583012,"city":"Corona","state":"CA","address":"200 North Lincoln Avenue","name":""},
  {"lat":28.635204,"lon":-96.622021,"city":"Port Lavaca","state":"TX","address":"2100 Texas 35","name":""},
  {"lat":34.182822,"lon":-118.912824,"city":"Thousand Oaks","state":"CA","address":"1516 Newbury Road","name":""},
  {"lat":46.234134,"lon":-119.221556,"city":"Richland","state":"WA","address":"1751 Fowler Street","name":""},
  {"lat":37.680077,"lon":-96.988409,"city":"Augusta","state":"KS","address":"712 WEST 7TH AVE","name":""},
  {"lat":30.860138,"lon":-87.77777,"city":"Bay Minette","state":"AL","address":"1402 U.S. 31","name":""},
  {"lat":39.24642,"lon":-114.869123,"city":"Ely","state":"NV","address":"770 Avenue O","name":""},
  {"lat":40.55359,"lon":-74.435378,"city":"Piscataway","state":"NJ","address":"1012 Stelton Road","name":""},
  {"lat":29.529641,"lon":-98.562853,"city":"San-Antonio","state":"TX","address":"9400 Wurzbach Road","name":""},
  {"lat":35.764044,"lon":-78.743578,"city":"Raleigh","state":"NC","address":"1401 Buck Jones Road","name":""},
  {"lat":37.759537,"lon":-77.467287,"city":"Ashland","state":"VA","address":"101 North Cottage Green Drive","name":""},
  {"lat":41.943224,"lon":-91.671769,"city":"Cedar Rapids","state":"IA","address":"3325 Southgate Court Southwest","name":""},
  {"lat":34.933287,"lon":-110.13525,"city":"Holbrook","state":"AZ","address":"2514 Navajo Boulevard","name":""},
  {"lat":33.974861,"lon":-117.339272,"city":"Riverside","state":"CA","address":"1260 University Avenue","name":""},
  {"lat":30.342982,"lon":-97.699118,"city":"Austin","state":"TX","address":"8010 I-35 North","name":""},
  {"lat":31.999688,"lon":-81.125201,"city":"Savannah","state":"GA","address":"60 West Montgomery Cross Road","name":""},
  {"lat":33.959981,"lon":-81.093531,"city":"West Columbia","state":"SC","address":"650 Cherokee Lane","name":""},
  {"lat":42.211728,"lon":-83.226067,"city":"Southgate","state":"MI","address":"18777 Northline Road","name":""},
  {"lat":42.08431,"lon":-87.867178,"city":"Glenview","state":"IL","address":"1535 MILWAUKEE AVE","name":""},
  {"lat":41.991468,"lon":-72.583645,"city":"Enfield","state":"CT","address":"11 Hazard Avenue","name":""},
  {"lat":34.254857,"lon":-110.028705,"city":"Show Low","state":"AZ","address":"1290 East Deuce of Clubs","name":""},
  {"lat":35.306845,"lon":-80.845753,"city":"Charlotte","state":"NC","address":"4930 Sunset Road","name":""},
  {"lat":35.917751,"lon":-84.08819,"city":"Knoxville","state":"TN","address":"258 Harry Lane Boulevard","name":""},
  {"lat":35.6114,"lon":-121.14098,"city":"San Simeon","state":"CA","address":"9070 Castillo Drive","name":""},
  {"lat":32.648178,"lon":-96.706171,"city":"Hutchins","state":"TX","address":"110 SOUTH I-45","name":""},
  {"lat":42.678662,"lon":-73.781537,"city":"Albany","state":"NY","address":"100 Watervliet Avenue","name":""},
  {"lat":38.163789,"lon":-79.010801,"city":"Staunton","state":"VA","address":"96 Baker Lane","name":""},
  {"lat":43.80683,"lon":-111.817945,"city":"Rexburg","state":"ID","address":"1360 South 12th West","name":""},
  {"lat":38.437706,"lon":-82.019008,"city":"Hurricane","state":"WV","address":"419 Hurricane Creek Road","name":""},
  {"lat":43.595075,"lon":-116.392696,"city":"Meridian","state":"ID","address":"1047 SOUTH PROGRESS AVE","name":""},
  {"lat":32.829472,"lon":-97.311946,"city":"Fort Worth","state":"TX","address":"4850 NORTH FREEWAY","name":""},
  {"lat":29.658096,"lon":-82.420467,"city":"Gainesville","state":"FL","address":"7413 West Newberry Road","name":""},
  {"lat":38.593115,"lon":-121.288938,"city":"Rancho Cordova","state":"CA","address":"10694 Olson Drive","name":""},
  {"lat":38.657119,"lon":-120.966816,"city":"Cameron Park","state":"CA","address":"3444 Coach Lane","name":""},
  {"lat":29.527601,"lon":-98.556966,"city":"San-Antonio","state":"TX","address":"9447 Interstate 10","name":""},
  {"lat":40.454176,"lon":-122.291151,"city":"Anderson","state":"CA","address":"2861 MCMURRY DRIVE","name":""},
  {"lat":26.053175,"lon":-80.129835,"city":"Dania Beach","state":"FL","address":"825 East Dania Beach Boulevard","name":""},
  {"lat":30.084457,"lon":-90.450989,"city":"LaPlace","state":"LA","address":"3900 Hwy. 51","name":""},
  {"lat":33.533758,"lon":-101.845789,"city":"Lubbock","state":"TX","address":"909 66th Street","name":""},
  {"lat":31.574746,"lon":-94.674038,"city":"Nacogdoches","state":"TX","address":"3400 South Street","name":""},
  {"lat":38.573647,"lon":-121.550585,"city":"West Sacramento","state":"CA","address":"1254 Halyard Drive","name":""},
  {"lat":45.394958,"lon":-122.746175,"city":"Tigard","state":"OR","address":"17959 Southwest McEwan Road","name":""},
  {"lat":34.245036,"lon":-119.193274,"city":"Ventura","state":"CA","address":"3075 Johnson Drive","name":""},
  {"lat":37.395387,"lon":-122.027533,"city":"Sunnyvale","state":"CA","address":"806 WEST AHWANEE AVE","name":""},
  {"lat":41.137428,"lon":-81.799454,"city":"Medina","state":"OH","address":"3122 Eastpointe Drive","name":""},
  {"lat":33.038531,"lon":-80.152958,"city":"Summerville","state":"SC","address":"110 Holiday Drive","name":""},
  {"lat":38.58201,"lon":-77.325111,"city":"Dumfries","state":"VA","address":"17133 Dumfries Road","name":""},
  {"lat":32.135042,"lon":-110.929642,"city":"Tucson","state":"AZ","address":"2803 East Valencia Road","name":""},
  {"lat":47.433021,"lon":-122.274495,"city":"SeaTac","state":"WA","address":"18900 47th Avenue South","name":""},
  {"lat":36.915843,"lon":-121.786557,"city":"Watsonville","state":"CA","address":"125 Silver Leaf Drive","name":""},
  {"lat":46.833162,"lon":-100.771656,"city":"Bismarck","state":"ND","address":"2433 State Street","name":""},
  {"lat":42.913958,"lon":-112.46853,"city":"Pocatello","state":"ID","address":"133 West Burnside Avenue","name":""},
  {"lat":32.782713,"lon":-108.264916,"city":"Silver City","state":"NM","address":"1040 E HWY 180","name":""},
  {"lat":39.317582,"lon":-84.496523,"city":"Fairfield","state":"OH","address":"9651 Seward Road","name":""},
  {"lat":36.562827,"lon":-119.613636,"city":"Selma","state":"CA","address":"1765 Young Street","name":""},
  {"lat":44.502574,"lon":-73.180257,"city":"Colchester","state":"VT","address":"74 South Park Drive","name":""},
  {"lat":43.562085,"lon":-89.779285,"city":"Baraboo","state":"WI","address":"10892 Moon Road","name":""},
  {"lat":32.769713,"lon":-96.625726,"city":"Mesquite","state":"TX","address":"121 GRAND JUNCTION BLVD","name":""},
  {"lat":30.253779,"lon":-92.012436,"city":"Lafayette","state":"LA","address":"2216 NE Evangeline Throughway","name":""},
  {"lat":41.969897,"lon":-88.717129,"city":"Sycamore","state":"IL","address":"1860 DeKalb Avenue","name":""},
  {"lat":34.045086,"lon":-118.161707,"city":"Monterey Park","state":"CA","address":"1560 Monterey Pass Road","name":""},
  {"lat":33.20924,"lon":-96.635576,"city":"McKinney","state":"TX","address":"2125 West White Avenue","name":""},
  {"lat":32.410134,"lon":-96.871234,"city":"Waxahachie","state":"TX","address":"200 NORTH I-35E","name":""},
  {"lat":34.263284,"lon":-84.759191,"city":"White","state":"GA","address":"2335 Highway 411","name":""},
  {"lat":34.035962,"lon":-118.037683,"city":"South El Monte","state":"CA","address":"1228 Durfee Avenue","name":""},
  {"lat":28.336181,"lon":-81.5148,"city":"Kissimmee","state":"FL","address":"5733 W. Irlo Bronson Memorial Hwy.","name":""},
  {"lat":28.952615,"lon":-98.495523,"city":"Pleasanton","state":"TX","address":"1167 W. OAKLAWN","name":""},
  {"lat":39.978322,"lon":-83.146868,"city":"Columbus","state":"OH","address":"1309 West Saint James Lutheran Lane","name":""},
  {"lat":46.146813,"lon":-122.896347,"city":"Kelso","state":"WA","address":"106 North Minor Road","name":""},
  {"lat":47.570811,"lon":-122.66035,"city":"Bremerton","state":"WA","address":"3400 11th Street","name":""},
  {"lat":33.762918,"lon":-96.585995,"city":"Denison","state":"TX","address":"615 North Highway 75","name":""},
  {"lat":26.934968,"lon":-82.318375,"city":"Sarasota","state":"FL","address":"2540 South McCall Road","name":""},
  {"lat":26.28422,"lon":-98.164676,"city":"Edinburg","state":"TX","address":"1806 South Closner Boulevard","name":""},
  {"lat":32.549272,"lon":-117.043252,"city":"San Diego","state":"CA","address":"160 Calle Primera","name":""},
  {"lat":43.680409,"lon":-111.908394,"city":"Rigby","state":"ID","address":"425 FARNSWORTH WAY","name":""},
  {"lat":29.205768,"lon":-82.186243,"city":"Ocala","state":"FL","address":"3810 Northwest Blitchton Road","name":""},
  {"lat":33.714563,"lon":-84.270427,"city":"Decatur","state":"GA","address":"2572 CANDLER RD","name":""},
  {"lat":36.596812,"lon":-87.287205,"city":"Clarksville","state":"TN","address":"3080 WILMA RUDOLPH BLVD","name":""},
  {"lat":34.107842,"lon":-117.296842,"city":"San Bernardino","state":"CA","address":"607 West 5th Street","name":""},
  {"lat":34.102805,"lon":-118.332877,"city":"Los Angeles","state":"CA","address":"1738 Whitley Avenue","name":""},
  {"lat":34.181545,"lon":-93.072293,"city":"Arkadelphia","state":"AR","address":"106 Crystal Palace Drive","name":""},
  {"lat":33.479455,"lon":-112.031204,"city":"Phoenix","state":"AZ","address":"2333 East Thomas Road","name":""},
  {"lat":39.331055,"lon":-101.727308,"city":"Goodland","state":"KS","address":"2420 COMMERCE RD.","name":""},
  {"lat":27.804264,"lon":-97.485174,"city":"Corpus Christi","state":"TX","address":"6301 Interstate 37","name":""},
  {"lat":32.794756,"lon":-96.692682,"city":"Dallas","state":"TX","address":"8559 East R L Thornton Freeway","name":""},
  {"lat":38.990752,"lon":-95.230058,"city":"Lawrence","state":"KS","address":"1130 North 3rd Street","name":""},
  {"lat":42.533713,"lon":-71.741633,"city":"Leominster","state":"MA","address":"48 Commercial Road","name":""},
  {"lat":34.257476,"lon":-88.686257,"city":"Tupelo","state":"MS","address":"767 East Main Street","name":""},
  {"lat":37.2908,"lon":-80.0969,"city":"Salem","state":"VA","address":"301 Wildwood Road","name":""},
  {"lat":30.716881,"lon":-85.183372,"city":"Marianna","state":"FL","address":"2086 Florida 71","name":""},
  {"lat":34.786484,"lon":-96.669485,"city":"Ada","state":"OK","address":"1100 North Mississippi Avenue","name":""},
  {"lat":46.915934,"lon":-114.037233,"city":"Missoula","state":"MT","address":"3035 Expo Parkway","name":""},
  {"lat":45.660742,"lon":-118.805491,"city":"Pendleton","state":"OR","address":"620 Southwest Tutuilla Creek Road","name":""},
  {"lat":36.635327,"lon":-82.121719,"city":"Bristol","state":"VA","address":"21561 CLEAR CREEK RD","name":""},
  {"lat":32.576247,"lon":-97.322544,"city":"Burleson","state":"TX","address":"12450 South Freeway","name":""},
  {"lat":30.609451,"lon":-96.310598,"city":"College Station","state":"TX","address":"2327 Texas Avenue South","name":""},
  {"lat":43.124789,"lon":-89.311103,"city":"Madison","state":"WI","address":"4202 East Towne Boulevard","name":""},
  {"lat":34.467316,"lon":-114.35262,"city":"Lake Havasu City","state":"AZ","address":"1300 McCulloch Boulevard North","name":""},
  {"lat":32.460969,"lon":-86.384283,"city":"Prattville","state":"AL","address":"798 Business Park Drive","name":""},
  {"lat":31.405786,"lon":-103.483933,"city":"Pecos","state":"TX","address":"4002 South Cedar Street","name":""},
  {"lat":41.436083,"lon":-81.875232,"city":"North Olmsted","state":"OH","address":"22989 Lorain Road","name":""},
  {"lat":30.064624,"lon":-99.122465,"city":"Kerrville","state":"TX","address":"1810 SIDNEY BAKER ST","name":""},
  {"lat":26.235669,"lon":-98.17925,"city":"Pharr","state":"TX","address":"4701 North Cage Boulevard","name":""},
  {"lat":31.788784,"lon":-106.407049,"city":"El Paso","state":"TX","address":"6363 Montana Avenue","name":""},
  {"lat":33.662772,"lon":-117.301699,"city":"Lake Elsinore","state":"CA","address":"31610 Auto Center Drive","name":""},
  {"lat":29.887428,"lon":-90.333661,"city":"Luling","state":"LA","address":"12177 Highway 90","name":""},
  {"lat":31.745822,"lon":-106.331649,"city":"El Paso","state":"TX","address":"11049 Gateway Boulevard West","name":""},
  {"lat":29.288205,"lon":-94.854831,"city":"Galveston","state":"TX","address":"7404 Avenue J","name":""},
  {"lat":40.802637,"lon":-124.169847,"city":"Eureka","state":"CA","address":"129 4th Street","name":""},
  {"lat":26.585575,"lon":-80.066203,"city":"Lantana","state":"FL","address":"1310 W Lantana Rd.","name":""},
  {"lat":41.584957,"lon":-90.575065,"city":"Davenport","state":"IA","address":"101 W. 65 ST","name":""},
  {"lat":39.106705,"lon":-76.721441,"city":"Odenton","state":"MD","address":"1630 ANNAPOLIS RD","name":""},
  {"lat":36.981535,"lon":-122.022588,"city":"Santa Cruz","state":"CA","address":"1015 Ocean Street","name":""},
  {"lat":41.66053,"lon":-93.49774,"city":"Altoona","state":"IA","address":"3225 Adventureland Drive","name":""},
  {"lat":35.193268,"lon":-101.786433,"city":"Amarillo","state":"TX","address":"4301 I-40 East","name":""},
  {"lat":32.109834,"lon":-81.230685,"city":"Pooler","state":"GA","address":"1016 EAST U.S. HWY 80","name":""},
  {"lat":36.835295,"lon":-76.14119,"city":"Virginia Beach","state":"VA","address":"4760 Euclid Road","name":""},
  {"lat":35.393237,"lon":-97.491951,"city":"Oklahoma City","state":"OK","address":"1101 East Interstate 240 Service Road","name":""},
  {"lat":44.255771,"lon":-121.183702,"city":"Redmond","state":"OR","address":"2247 S HIGHWAY 97","name":""},
  {"lat":35.180127,"lon":-80.883566,"city":"Charlotte","state":"NC","address":"4825 Wallingford Street","name":""},
  {"lat":45.5298,"lon":-122.660129,"city":"Portland","state":"OR","address":"518 Northeast Holladay Street","name":""},
  {"lat":33.133378,"lon":-117.330108,"city":"Carlsbad","state":"CA","address":"5010 Avenida Encinas","name":""},
  {"lat":27.548518,"lon":-99.505098,"city":"Laredo","state":"TX","address":"5310 SAN BERNARDO AVE","name":""},
  {"lat":32.443942,"lon":-94.7211,"city":"Longview","state":"TX","address":"110 South Access Road","name":""},
  {"lat":40.193008,"lon":-75.074335,"city":"Warminster","state":"PA","address":"265 East Street Road","name":""},
  {"lat":36.157841,"lon":-115.11589,"city":"Las Vegas","state":"NV","address":"2512 E Fremont St, Las Vegas, NV 89104, USA","name":""},
  {"lat":31.971042,"lon":-102.143836,"city":"Midland","state":"TX","address":"1800 Beal Parkway","name":""},
  {"lat":32.349449,"lon":-90.880735,"city":"Vicksburg","state":"MS","address":"1313 Walnut Street","name":""},
  {"lat":32.915772,"lon":-97.013531,"city":"Irving","state":"TX","address":"7800 Heathrow Drive","name":""},
  {"lat":33.149089,"lon":-107.246527,"city":"Truth or Consequences","state":"NM","address":"2151 N. DATE STREET","name":""},
  {"lat":34.281441,"lon":-118.760696,"city":"Simi Valley","state":"CA","address":"2566 Erringer Road","name":""},
  {"lat":45.977945,"lon":-123.926556,"city":"Seaside","state":"OR","address":"2369 South Roosevelt Drive","name":""},
  {"lat":34.883539,"lon":-82.357767,"city":"Greenville","state":"SC","address":"2015 Wade Hampton Boulevard","name":""},
  {"lat":32.162479,"lon":-110.919971,"city":"Tucson","state":"AZ","address":"4950 S OUTLET CENTER DR","name":""},
  {"lat":32.970242,"lon":-82.808338,"city":"Sandersville","state":"GA","address":"725 South Harris Street","name":""},
  {"lat":36.798747,"lon":-90.450203,"city":"Poplar Bluff","state":"MO","address":"4101 U.S. 67","name":""},
  {"lat":38.922815,"lon":-121.060076,"city":"Auburn","state":"CA","address":"1819 Auburn Ravine Road","name":""},
  {"lat":45.793666,"lon":-87.923457,"city":"Norway","state":"MI","address":"W6002 US Route 2","name":""},
  {"lat":29.836693,"lon":-94.37945,"city":"Winnie","state":"TX","address":"46318 Interstate 10","name":""},
  {"lat":45.011597,"lon":-93.18422,"city":"Roseville","state":"MN","address":"2300 Cleveland Avenue North","name":""},
  {"lat":30.448127,"lon":-91.24091,"city":"Port Allen","state":"LA","address":"2740 North Westport Drive","name":""},
  {"lat":34.527614,"lon":-101.797293,"city":"Tulia","state":"TX","address":"1591 Interstate 27","name":""},