{"key":"murphy_usa","displayName":"Murphy USA","category":"gas_station","useLocationName":false,"locations":[
  {"lat":33.82055,"lon":-92.437625,"city":"Fordyce","state":"AR","address":"913 Upton Drive","name":""},
  {"lat":34.586949,"lon":-94.225698,"city":"Mena","state":"AR","address":"602 Hwy 71N","name":""},
  {"lat":36.358389,"lon":-82.396505,"city":"Johnson City","state":"TN","address":"3109 Browns Mill Rd.","name":""},
  {"lat":32.227578,"lon":-92.707913,"city":"Jonesboro","state":"LA","address":"182 Old Winnfield Rd","name":""},
  {"lat":31.950122,"lon":-92.654542,"city":"Winnfield","state":"LA","address":"5934 Hwy 167 N","name":""},
  {"lat":28.963448,"lon":-81.967018,"city":"Summerfield","state":"FL","address":"17840 SE 112th Court Rd","name":""},
  {"lat":33.107,"lon":-82.025717,"city":"Waynesboro","state":"GA","address":"1500 A North Liberty Street","name":""},
  {"lat":31.557712,"lon":-87.875177,"city":"Jackson","state":"AL","address":"115 Walker Springs Rd.","name":""},
  {"lat":32.727343,"lon":-89.54691,"city":"Carthage","state":"MS","address":"905 Hwy 16 W.","name":""},
  {"lat":37.067512,"lon":-84.621467,"city":"Somerset","state":"KY","address":"80 Washington Dr.","name":""},
  {"lat":39.18321,"lon":-89.667482,"city":"Litchfield","state":"IL","address":"1201 W. Ferndon St.","name":""},
  {"lat":41.373735,"lon":-93.557807,"city":"Indianola","state":"IA","address":"1502 N. Jefferson Street","name":""},
  {"lat":34.438966,"lon":-85.759793,"city":"Fort Payne","state":"AL","address":"1915 Glenn Blvd. SW","name":""},
  {"lat":38.987361,"lon":-90.980668,"city":"Troy","state":"MO","address":"105 E. Hwy 47","name":""},
  {"lat":29.499598,"lon":-98.703136,"city":"San Antonio","state":"TX","address":"6711 Leslie Road","name":""},
  {"lat":36.700642,"lon":-93.370263,"city":"Branson West","state":"MO","address":"13B, 18419 State Hwy 13","name":""},
  {"lat":25.87875,"lon":-80.357506,"city":"Medley","state":"FL","address":"11600 NW South River Drive","name":""},
  {"lat":31.688221,"lon":-106.263214,"city":"El Paso","state":"TX","address":"12158 Eastlake Blvd.","name":""},
  {"lat":33.562984,"lon":-101.887367,"city":"Lubbock","state":"TX","address":"3403 Indiana Avenue","name":""},
  {"lat":31.876856,"lon":-106.423431,"city":"El Paso","state":"TX","address":"9420 Diana Dr","name":""},
  {"lat":32.721569,"lon":-97.44178,"city":"Fort Worth","state":"TX","address":"3401 Joyce Dr","name":""},
  {"lat":32.72002,"lon":-96.682487,"city":"Dallas","state":"TX","address":"500 S Buckner Blvd","name":""},
  {"lat":32.768349,"lon":-96.623459,"city":"Mesquite","state":"TX","address":"1712 W. Scyene Road","name":""},
  {"lat":31.334515,"lon":-94.719857,"city":"Lufkin","state":"TX","address":"204 S Timberland Dr","name":""},
  {"lat":32.660072,"lon":-97.133995,"city":"Arlington","state":"TX","address":"5375 S Cooper St","name":""},
  {"lat":33.519226,"lon":-101.921867,"city":"Lubbock","state":"TX","address":"5113 82nd St.","name":""},
  {"lat":38.892311,"lon":-104.752663,"city":"Colorado Springs","state":"CO","address":"4085 Beverly St","name":""},
  {"lat":31.919079,"lon":-102.291214,"city":"Odessa","state":"TX","address":"8000 Hwy 191","name":""},
  {"lat":34.005445,"lon":-81.119874,"city":"West Columbia","state":"SC","address":"2925 Sunset Blvd.","name":""},
  {"lat":25.91275,"lon":-80.211418,"city":"Miami","state":"FL","address":"15055 NW 7th Ave","name":""},
  {"lat":39.740511,"lon":-104.810532,"city":"Aurora","state":"CO","address":"15291 E Colfax Ave","name":""},
  {"lat":32.854404,"lon":-97.186928,"city":"Hurst","state":"TX","address":"2175 Precinct Line Rd","name":""},
  {"lat":39.594529,"lon":-104.848658,"city":"Englewood","state":"CO","address":"12022 E Arapahoe Rd","name":""},
  {"lat":25.47813,"lon":-80.443687,"city":"Homestead","state":"FL","address":"2355 NE 8th St","name":""},
  {"lat":39.914377,"lon":-104.940955,"city":"Thornton","state":"CO","address":"3905 E 120th Ave","name":""},
  {"lat":25.581253,"lon":-80.396202,"city":"Miami","state":"FL","address":"12685 SW 200th Street","name":""},
  {"lat":39.601933,"lon":-104.716805,"city":"Aurora","state":"CO","address":"23290 East Smoky Hill Rd","name":""},
  {"lat":39.677355,"lon":-104.865083,"city":"Aurora","state":"CO","address":"2160 S. Havana St","name":""},
  {"lat":32.983749,"lon":-96.803833,"city":"Dallas","state":"TX","address":"6021 Campbell Rd.","name":""},
  {"lat":28.38788,"lon":-80.754616,"city":"Cocoa","state":"FL","address":"1680 Clearlake Rd","name":""},
  {"lat":33.043396,"lon":-96.97583,"city":"Lewisville","state":"TX","address":"960 East S.H. 121 Bus.","name":""},
  {"lat":35.13033,"lon":-106.53281,"city":"Albuquerque","state":"NM","address":"9700 Montgomery Blvd","name":""},
  {"lat":32.910007,"lon":-96.701035,"city":"Dallas","state":"TX","address":"11939 Plano Rd","name":""},
  {"lat":32.852345,"lon":-97.109108,"city":"Bedford","state":"TX","address":"3501 Harwood Rd","name":""},
  {"lat":26.16954,"lon":-80.28688,"city":"Sunrise","state":"FL","address":"10160 W Oakland Park Blvd","name":""},
  {"lat":35.454071,"lon":-82.522926,"city":"Arden","state":"NC","address":"120 Airport Road","name":""},
  {"lat":30.19008,"lon":-85.6629,"city":"Panama City","state":"FL","address":"206 W 23rd Street","name":""},
  {"lat":32.34636,"lon":-95.294613,"city":"Tyler","state":"TX","address":"401 S. Beckham Ave","name":""},
  {"lat":31.726652,"lon":-106.268364,"city":"El Paso","state":"TX","address":"12295 Pellicano","name":""},
  {"lat":28.719506,"lon":-100.476027,"city":"Eagle Pass","state":"TX","address":"2090 N Veterans Blvd","name":""},
  {"lat":26.19486,"lon":-80.203262,"city":"North Lauderdale","state":"FL","address":"5480 N State Rd 7","name":""},
  {"lat":34.078046,"lon":-80.943503,"city":"Columbia","state":"SC","address":"7711 Two Notch Rd","name":""},
  {"lat":32.002243,"lon":-102.119705,"city":"Midland","state":"TX","address":"1219 N. Midkiff Rd.","name":""},
  {"lat":39.739727,"lon":-105.110626,"city":"Lakewood","state":"CO","address":"10044 W Colfax Ave","name":""},
  {"lat":39.987392,"lon":-104.753923,"city":"Brighton","state":"CO","address":"4951 East Bridge Street","name":""},
  {"lat":39.885536,"lon":-104.941017,"city":"Thornton","state":"CO","address":"3905 E 104th Ave","name":""},
  {"lat":33.980183,"lon":-80.961479,"city":"Columbia","state":"SC","address":"6430 Garners Ferry Rd","name":""},
  {"lat":25.898819,"lon":-80.244118,"city":"Opa-locka","state":"FL","address":"13730 NW 27th Avenue","name":""},
  {"lat":30.432131,"lon":-91.080238,"city":"Baton Rouge","state":"LA","address":"9679 Airline Hwy","name":""},
  {"lat":32.675976,"lon":-97.093002,"city":"Arlington","state":"TX","address":"4412 S. Collins Street","name":""},
  {"lat":39.7398,"lon":-104.814453,"city":"Aurora","state":"CO","address":"14900 E Colfax Ave","name":""},
  {"lat":39.678265,"lon":-104.930794,"city":"Denver","state":"CO","address":"4990 E Evans Ave","name":""},
  {"lat":34.036163,"lon":-81.003204,"city":"Columbia","state":"SC","address":"3000 Two Notch Rd","name":""},
  {"lat":33.562492,"lon":-101.942574,"city":"Lubbock","state":"TX","address":"3401 West Loop 289","name":""},
  {"lat":32.959351,"lon":-96.665154,"city":"Garland","state":"TX","address":"2476 Arapaho Rd.","name":""},
  {"lat":32.836152,"lon":-96.830857,"city":"Dallas","state":"TX","address":"6410 Lemmon Avenue","name":""},
  {"lat":27.613129,"lon":-99.522079,"city":"Laredo","state":"TX","address":"13501 FM 1472","name":""},
  {"lat":33.213375,"lon":-97.091217,"city":"Denton","state":"TX","address":"101 N. Loop 288","name":""},
  {"lat":33.223537,"lon":-96.977112,"city":"Cross Roads","state":"TX","address":"4858 FM 720 W","name":""},
  {"lat":34.03101,"lon":-81.087303,"city":"Columbia","state":"SC","address":"201 Bush River Rd","name":""},
  {"lat":39.637861,"lon":-104.737067,"city":"Aurora","state":"CO","address":"21500 E Quincy Ave","name":""},
  {"lat":39.613201,"lon":-104.988037,"city":"Littleton","state":"CO","address":"181 W Littleton Rd","name":""},
  {"lat":32.811131,"lon":-96.633698,"city":"Mesquite","state":"TX","address":"2110 N Town East Blvd","name":""},
  {"lat":32.862816,"lon":-96.892953,"city":"Dallas","state":"TX","address":"2275 W. Northwest Highway","name":""},
  {"lat":32.88036,"lon":-96.991051,"city":"Irving","state":"TX","address":"5140 N. Beltline Road","name":""},
  {"lat":32.793266,"lon":-96.612717,"city":"Mesquite","state":"TX","address":"1101 U.S. 80 Frontage Road","name":""},
  {"lat":35.271702,"lon":-81.496597,"city":"Shelby","state":"NC","address":"1800 E. Dixon Blvd","name":""},
  {"lat":33.577457,"lon":-101.842773,"city":"Lubbock","state":"TX","address":"705 19th Street","name":""},
  {"lat":33.979967,"lon":-81.112178,"city":"West Columbia","state":"SC","address":"2818 Augusta Rd","name":""},
  {"lat":35.2411,"lon":-106.657494,"city":"Rio Rancho","state":"NM","address":"4150 Southern Blvd SE","name":""},
  {"lat":35.188575,"lon":-106.614545,"city":"Albuquerque","state":"NM","address":"201 Alameda Blvd. NW","name":""},
  {"lat":35.074989,"lon":-106.723015,"city":"Albuquerque","state":"NM","address":"221 Unser Blvd SW","name":""},
  {"lat":39.825787,"lon":-104.772346,"city":"Denver","state":"CO","address":"7101 Tower Rd.","name":""},
  {"lat":33.994164,"lon":-81.225136,"city":"Lexington","state":"SC","address":"5579 Sunset Blvd","name":""},
  {"lat":39.862194,"lon":-105.164871,"city":"Arvada","state":"CO","address":"9135 Howell Street","name":""},
  {"lat":33.974247,"lon":-81.156855,"city":"Lexington","state":"SC","address":"4404 Augusta Rd","name":""},
  {"lat":34.149321,"lon":-80.911034,"city":"Columbia","state":"SC","address":"4546 Hardscrabble Rd","name":""},
  {"lat":39.543396,"lon":-104.771873,"city":"Parker","state":"CO","address":"9560 Twenty Mile Rd.","name":""},
  {"lat":39.784097,"lon":-104.773753,"city":"Denver","state":"CO","address":"18261 Green Valley Ranch","name":""},
  {"lat":33.987222,"lon":-81.245603,"city":"Lexington","state":"SC","address":"500 W Main St","name":""},
  {"lat":32.542789,"lon":-94.739057,"city":"Longview","state":"TX","address":"301 E. Loop 281","name":""},
  {"lat":32.75849,"lon":-97.778802,"city":"Weatherford","state":"TX","address":"1112 Fort Worth Highway","name":""},
  {"lat":33.635091,"lon":-78.956583,"city":"Surfside Beach","state":"SC","address":"199 Maryport Dr.","name":""},
  {"lat":31.698946,"lon":-106.241722,"city":"El Paso","state":"TX","address":"13000 Eastlake Blvd.","name":""},
  {"lat":33.219292,"lon":-96.769135,"city":"Prosper","state":"TX","address":"2331 E. University Drive","name":""},
  {"lat":32.868019,"lon":-97.171714,"city":"Hurst","state":"TX","address":"360 Grapevine Highway","name":""},
  {"lat":33.15213,"lon":-96.767082,"city":"Frisco","state":"TX","address":"9050 Coit Road","name":""},
  {"lat":32.708095,"lon":-97.116913,"city":"Arlington","state":"TX","address":"900 West Pioneer Pkwy.","name":""},
  {"lat":34.09549,"lon":-81.157913,"city":"Irmo","state":"SC","address":"7302 Broad River Road","name":""},
  {"lat":39.799356,"lon":-104.883485,"city":"Denver","state":"CO","address":"5640 N. Central Park Blvd","name":""},
  {"lat":25.605338,"lon":-80.351562,"city":"Miami","state":"FL","address":"17700 S Dixie Highway","name":""},
  {"lat":25.926957,"lon":-80.180764,"city":"North Miami Beach","state":"FL","address":"990 N. Miami Beach Blvd","name":""},
  {"lat":32.893807,"lon":-97.100388,"city":"Grapevine","state":"TX","address":"2100 Hall-Johnson","name":""},
  {"lat":32.888533,"lon":-105.959781,"city":"Alamogordo","state":"NM","address":"221 S. White Sands Boulevard","name":""},
  {"lat":27.63817,"lon":-80.440033,"city":"Vero Beach","state":"FL","address":"5175 20th Street","name":""},
  {"lat":29.093017,"lon":-82.244045,"city":"Ocala","state":"FL","address":"7573 SW Hwy 200","name":""},
  {"lat":26.492322,"lon":-81.942861,"city":"Fort Myers Beach","state":"FL","address":"17061 San Carlos Blvd","name":""},
  {"lat":30.152567,"lon":-85.590614,"city":"Callaway","state":"FL","address":"280 N. Tyndall Parkway","name":""},
  {"lat":30.471648,"lon":-90.956024,"city":"Denham Springs","state":"LA","address":"910 South Range Ave.","name":""},
  {"lat":33.945146,"lon":-80.873752,"city":"Hopkins","state":"SC","address":"116 Bunch Lane","name":""},
  {"lat":30.450133,"lon":-86.63903,"city":"Fort Walton Beach","state":"FL","address":"910 Beal Parkway N","name":""},
  {"lat":41.680245,"lon":-88.203945,"city":"Naperville","state":"IL","address":"2804 Hassert Blvd","name":""},
  {"lat":35.770421,"lon":-83.988797,"city":"Alcoa","state":"TN","address":"1051 Hunters Crossing","name":""},
  {"lat":35.450188,"lon":-97.421891,"city":"Midwest City","state":"OK","address":"5655 S.E. 15th Street","name":""},
  {"lat":34.831821,"lon":-87.620649,"city":"Florence","state":"AL","address":"3001 Florence Blvd","name":""},
  {"lat":32.96456,"lon":-96.64261,"city":"Garland","state":"TX","address":"5362 N Garland Ave","name":""},
  {"lat":35.65279,"lon":-105.99728,"city":"Santa Fe","state":"NM","address":"3155 Cerrillos Rd.","name":""},
  {"lat":30.393051,"lon":-91.038735,"city":"Baton Rouge","state":"LA","address":"12912 Jefferson Highway","name":""},
  {"lat":38.93742,"lon":-104.755057,"city":"Colorado Springs","state":"CO","address":"4010 Lee Vance Dr.","name":""},
  {"lat":33.186773,"lon":-87.525516,"city":"Tuscaloosa","state":"AL","address":"2401 McFarland Blvd East","name":""},
  {"lat":30.451577,"lon":-91.10333,"city":"Baton Rouge","state":"LA","address":"8144 Florida Boulevard","name":""},
  {"lat":33.227043,"lon":-96.794975,"city":"Prosper","state":"TX","address":"791 S. Preston Road","name":""},
  {"lat":35.094177,"lon":-106.550389,"city":"Albuquerque","state":"NM","address":"1358 Wyoming Blvd. NE","name":""},
  {"lat":39.599773,"lon":-105.109421,"city":"Littleton","state":"CO","address":"6455 S Kipling Way","name":""},
  {"lat":42.180134,"lon":-88.08027,"city":"Lake Zurich","state":"IL","address":"1035 South Rand Road","name":""},
  {"lat":27.996577,"lon":-82.502109,"city":"Tampa","state":"FL","address":"3605 W. Hillsborough Ave.","name":""},
  {"lat":30.676477,"lon":-88.169185,"city":"Mobile","state":"AL","address":"4640 Airport Blvd.","name":""},
  {"lat":33.457382,"lon":-86.965108,"city":"Hueytown","state":"AL","address":"918 Allison Bonnett Memorial Dr.","name":""},
  {"lat":29.549764,"lon":-98.408452,"city":"San Antonio","state":"TX","address":"12007 Perrin-Beitel Rd","name":""},
  {"lat":29.615516,"lon":-95.643856,"city":"Sugar Land","state":"TX","address":"7520 Highway 90 A.","name":""},
  {"lat":39.826972,"lon":-105.025508,"city":"Westminster","state":"CO","address":"7199 Federal Blvd.","name":""},
  {"lat":35.211825,"lon":-106.655206,"city":"Albuquerque","state":"NM","address":"3751 State Hwy. 528 NW","name":""},
  {"lat":41.60655,"lon":-88.12245,"city":"Romeoville","state":"IL","address":"495 S Weber Road","name":""},
  {"lat":40.421706,"lon":-104.765804,"city":"Greeley","state":"CO","address":"5141 10th St.","name":""},
  {"lat":38.462004,"lon":-90.525399,"city":"High Ridge","state":"MO","address":"2725 Ridge Point Dr.","name":""},
  {"lat":34.670453,"lon":-92.37611,"city":"Little Rock","state":"AR","address":"8800 Baseline Rd.","name":""},
  {"lat":25.950251,"lon":-80.245217,"city":"Miami Gardens","state":"FL","address":"19281 NW 27th Ave.","name":""},
  {"lat":32.406858,"lon":-80.635479,"city":"Beaufort","state":"SC","address":"256 Sea Island Parkway","name":""},
  {"lat":30.59201,"lon":-88.168555,"city":"Mobile","state":"AL","address":"5383 USHY 90 W","name":""},
  {"lat":35.245978,"lon":-79.023772,"city":"Cameron","state":"NC","address":"2708 NC 24-87","name":""},
  {"lat":34.608509,"lon":-98.422831,"city":"Lawton","state":"OK","address":"2306 West Gore Blvd.","name":""},
  {"lat":32.864462,"lon":-96.665273,"city":"Dallas","state":"TX","address":"12505 E. Northwest Hwy","name":""},
  {"lat":33.057198,"lon":-96.769934,"city":"Plano","state":"TX","address":"6100 Coit Rd.","name":""},
  {"lat":29.881003,"lon":-97.91221,"city":"San Marcos","state":"TX","address":"1201 Highway 80","name":""},
  {"lat":29.667962,"lon":-95.46217,"city":"Houston","state":"TX","address":"10431 S. Post Oak Rd.","name":""},
  {"lat":32.762221,"lon":-97.167739,"city":"Fort Worth","state":"TX","address":"1200 Eastchase Parkway","name":""},
  {"lat":34.639188,"lon":-79.702272,"city":"Bennettsville","state":"SC","address":"336 HWY 9 West","name":""},
  {"lat":31.982049,"lon":-81.175621,"city":"Savannah","state":"GA","address":"14080 Abercorn St","name":""},
  {"lat":40.16004,"lon":-104.968608,"city":"Firestone","state":"CO","address":"4615 City Centre Road","name":""},
  {"lat":39.675251,"lon":-104.87085,"city":"Aurora","state":"CO","address":"2290 S. Parker Rd.","name":""},
  {"lat":39.85652,"lon":-104.912016,"city":"Commerce City","state":"CO","address":"8799 Brighton Rd.","name":""},
  {"lat":26.185712,"lon":-98.20583,"city":"Pharr","state":"TX","address":"1107 S. Jackson Rd.","name":""},
  {"lat":35.003539,"lon":-78.900049,"city":"Fayetteville","state":"NC","address":"2840 Gillespie St.","name":""},
  {"lat":30.637991,"lon":-88.139073,"city":"Mobile","state":"AL","address":"3945 Government Blvd","name":""},
  {"lat":37.728959,"lon":-85.883715,"city":"Elizabethtown","state":"KY","address":"1605 N. Dixie Hwy","name":""},
  {"lat":32.713644,"lon":-97.281473,"city":"Fort Worth","state":"TX","address":"3015 East Berry St.","name":""},
  {"lat":26.337082,"lon":-98.155876,"city":"Edinburg","state":"TX","address":"101 E Monte Cristo Rd","name":""},
  {"lat":41.191466,"lon":-87.848921,"city":"Bourbonnais","state":"IL","address":"2094 North IL Route 50","name":""},
  {"lat":40.072641,"lon":-86.474953,"city":"Lebanon","state":"IN","address":"2472 N. Lebanon St.","name":""},
  {"lat":29.909656,"lon":-95.725482,"city":"Cypress","state":"TX","address":"8778 Fry Rd.","name":""},
  {"lat":36.068067,"lon":-80.325664,"city":"Winston-Salem","state":"NC","address":"3820 Oxford Station Way","name":""},
  {"lat":40.007732,"lon":-105.10363,"city":"Lafayette","state":"CO","address":"805 N Hwy 287","name":""},
  {"lat":41.219031,"lon":-96.118735,"city":"Omaha","state":"NE","address":"4111 S. 132nd. St.","name":""},
  {"lat":31.76829,"lon":-106.297569,"city":"El Paso","state":"TX","address":"11391 Montwood Dr","name":""},
  {"lat":34.473475,"lon":-84.462231,"city":"Jasper","state":"GA","address":"1011 Noah Drive","name":""},
  {"lat":30.391683,"lon":-91.163024,"city":"Baton Rouge","state":"LA","address":"510 W. Lee Drive","name":""},
  {"lat":40.614505,"lon":-111.982589,"city":"West Jordan","state":"UT","address":"3853 W Campus View Drive","name":""},
  {"lat":29.644382,"lon":-95.577206,"city":"Stafford","state":"TX","address":"12250 Southwest Freeway","name":""},
  {"lat":31.797506,"lon":-106.230245,"city":"El Paso","state":"TX","address":"3591 Zaragoza Road","name":""},
  {"lat":33.004472,"lon":-96.767046,"city":"Plano","state":"TX","address":"430 Coit Road","name":""},
  {"lat":32.662434,"lon":-97.417263,"city":"Fort Worth","state":"TX","address":"7001 Oakmont Blvd","name":""},
  {"lat":34.293583,"lon":-83.847809,"city":"Gainesville","state":"GA","address":"377 Shallowford Road","name":""},
  {"lat":34.257532,"lon":-84.461623,"city":"Canton","state":"GA","address":"1556 Riverstone Parkway","name":""},
  {"lat":40.391091,"lon":-111.916227,"city":"Saratoga Springs","state":"UT","address":"1534 North Commerce Drive","name":""},
  {"lat":39.026706,"lon":-94.851217,"city":"Shawnee","state":"KS","address":"22770 W. 56th St.","name":""},
  {"lat":41.595081,"lon":-88.027058,"city":"Lockport","state":"IL","address":"16030 South Farrell Rd.","name":""},
  {"lat":34.77968,"lon":-92.267819,"city":"North Little Rock","state":"AR","address":"111 West Pershing Blvd.","name":""},
  {"lat":39.359827,"lon":-104.620255,"city":"Elizabeth","state":"CO","address":"2336 Legacy Circle","name":""},
  {"lat":41.52109,"lon":-88.14418,"city":"Joliet","state":"IL","address":"2504 W. Jefferson","name":""},
  {"lat":38.887679,"lon":-94.835549,"city":"Olathe","state":"KS","address":"481 N. K-7 Highway","name":""},
  {"lat":27.675488,"lon":-97.364845,"city":"Corpus Christi","state":"TX","address":"6625 Saratoga Blvd.","name":""},
  {"lat":32.272812,"lon":-81.225704,"city":"Rincon","state":"GA","address":"102 Lisa Street","name":""},
  {"lat":38.351038,"lon":-77.053209,"city":"King George","state":"VA","address":"16492 Consumer Row","name":""},
  {"lat":39.065634,"lon":-104.848568,"city":"Monument","state":"CO","address":"15931 Jackson Creek Parkway","name":""},
  {"lat":32.784645,"lon":-97.380377,"city":"Fort Worth","state":"TX","address":"2228 Jacksboro Highway","name":""},
  {"lat":36.269379,"lon":-115.11755,"city":"North Las Vegas","state":"NV","address":"6035 Losee Road","name":""},
  {"lat":30.232129,"lon":-92.063129,"city":"Lafayette","state":"LA","address":"900 Ambassador Caffery Pkwy","name":""},
  {"lat":33.723674,"lon":-84.169298,"city":"Decatur","state":"GA","address":"6076 Covington HWY","name":""},
  {"lat":40.506858,"lon":-111.976158,"city":"Riverton","state":"UT","address":"13443 South Hamilton view Rd","name":""},
  {"lat":36.238701,"lon":-115.22619,"city":"Las Vegas","state":"NV","address":"6009 West Craig Road","name":""},
  {"lat":36.239967,"lon":-115.170417,"city":"North Las Vegas","state":"NV","address":"1970 W Craig Road","name":""},
  {"lat":40.846703,"lon":-96.604937,"city":"Lincoln","state":"NE","address":"3301 N. 85th St.","name":""},
  {"lat":40.368652,"lon":-111.764787,"city":"Pleasant Grove","state":"UT","address":"1679 W State Street","name":""},
  {"lat":32.814826,"lon":-97.439505,"city":"Lake Worth","state":"TX","address":"6781 Lake Worth Blvd","name":""},
  {"lat":36.261968,"lon":-115.189505,"city":"North Las Vegas","state":"NV","address":"3742 W. Ann Road","name":""},
  {"lat":30.541448,"lon":-91.190837,"city":"Baton Rouge","state":"LA","address":"10634 Scenic Hwy","name":""},
  {"lat":40.639965,"lon":-112.023855,"city":"Kearns","state":"UT","address":"6135 S. 5600 W.","name":""},
  {"lat":41.317852,"lon":-96.065352,"city":"Omaha","state":"NE","address":"9810 Redick Ave","name":""},
  {"lat":29.554171,"lon":-98.309531,"city":"Universal City","state":"TX","address":"1930 Pat Booker Road","name":""},
  {"lat":35.969769,"lon":-77.81002,"city":"Rocky Mount","state":"NC","address":"953 N Wesleyan Blvd","name":""},
  {"lat":40.202521,"lon":-105.10298,"city":"Longmont","state":"CO","address":"2375 Main Street","name":""},
  {"lat":37.662548,"lon":-97.553591,"city":"Goddard","state":"KS","address":"18501 West Kellogg Blvd","name":""},
  {"lat":39.593044,"lon":-104.860901,"city":"Centennial","state":"CO","address":"11005 E Briarwood Ave.","name":""},
  {"lat":29.714202,"lon":-95.315253,"city":"Houston","state":"TX","address":"2401 S.Wayside Drive","name":""},
  {"lat":34.754239,"lon":-92.413672,"city":"Little Rock","state":"AR","address":"12600 Chenal Parkway","name":""},
  {"lat":30.682549,"lon":-88.123871,"city":"Mobile","state":"AL","address":"150 Springdale Blvd","name":""},
  {"lat":36.95692,"lon":-82.605578,"city":"Norton","state":"VA","address":"675 Hawthorne Drive NE","name":""},
  {"lat":39.972734,"lon":-104.822618,"city":"Brighton","state":"CO","address":"79 E. Bromley Lane","name":""},
  {"lat":33.634351,"lon":-84.293499,"city":"Ellenwood","state":"GA","address":"2920 Anvil Block Blvd","name":""},
  {"lat":30.514757,"lon":-91.025571,"city":"Greenwell Springs","state":"LA","address":"14744 Greenwell Springs Rd.","name":""},
  {"lat":33.680796,"lon":-84.417087,"city":"East Point","state":"GA","address":"864 Cleveland Avenue","name":""},
  {"lat":30.443369,"lon":-90.081701,"city":"Covington","state":"LA","address":"820 N. Hwy 190","name":""},
  {"lat":26.274042,"lon":-98.151181,"city":"Edinburg","state":"TX","address":"2762 S.Interstate69C","name":""},
  {"lat":35.229443,"lon":-89.523443,"city":"Oakland","state":"TN","address":"6715 US Highway 64","name":""},
  {"lat":29.338025,"lon":-98.552847,"city":"San Antonio","state":"TX","address":"1427 Palo Alto Road","name":""},
  {"lat":34.800803,"lon":-92.436235,"city":"Little Rock","state":"AR","address":"14701 Cantrell Road","name":""},
  {"lat":30.444978,"lon":-90.455987,"city":"Ponchatoula","state":"LA","address":"1225 U.S. Highway 51","name":""},
  {"lat":29.565381,"lon":-98.2583,"city":"Schertz","state":"TX","address":"853 FM 3009","name":""},
  {"lat":32.96597,"lon":-96.341246,"city":"Royse City","state":"TX","address":"901 S. Erby Campbell Boulevard","name":""},
  {"lat":32.967402,"lon":-97.415328,"city":"Haslet","state":"TX","address":"2501 Avondale-Haslet Rd","name":""},
  {"lat":37.510526,"lon":-77.77281,"city":"Powhatan","state":"VA","address":"1860 Stavemill Crossing Ln","name":""},
  {"lat":32.968226,"lon":-80.204229,"city":"Summerville","state":"SC","address":"10655 Dorchester Rd","name":""},
  {"lat":40.000808,"lon":-104.990441,"city":"Broomfield","state":"CO","address":"405 State Hwy 7","name":""},
  {"lat":30.862269,"lon":-83.945353,"city":"Thomasville","state":"GA","address":"11471 Highway 319 N","name":""},
  {"lat":32.993177,"lon":-96.572103,"city":"Sachse","state":"TX","address":"8020 Woodbridge Parkway","name":""},
  {"lat":25.823482,"lon":-80.248696,"city":"Miami","state":"FL","address":"3196 NW 54th St","name":""},
  {"lat":37.462582,"lon":-79.118487,"city":"Madison Heights","state":"VA","address":"4201 South Amherst Highway","name":""},
  {"lat":32.47018,"lon":-83.743143,"city":"Perry","state":"GA","address":"1429 Sam Nunn Blvd","name":""},
  {"lat":38.369903,"lon":-77.767881,"city":"Locust Grove","state":"VA","address":"34490 Twin Drive","name":""},
  {"lat":35.949621,"lon":-78.926155,"city":"Durham","state":"NC","address":"1039 Martin Luther King Jr Pkwy","name":""},
  {"lat":30.685853,"lon":-91.465856,"city":"New Roads","state":"LA","address":"455 Hospital Road","name":""},
  {"lat":35.366292,"lon":-80.667227,"city":"Concord","state":"NC","address":"3985 Concord Parkway S","name":""},
  {"lat":34.188854,"lon":-79.8251,"city":"Florence","state":"SC","address":"111 N. Beltline Dr","name":""},
  {"lat":30.476999,"lon":-87.307333,"city":"Pensacola","state":"FL","address":"6701 Pine Forest Road","name":""},
  {"lat":32.741123,"lon":-103.159271,"city":"Hobbs","state":"NM","address":"1825 W Joe Harvey Blvd","name":""},
  {"lat":35.696133,"lon":-79.789306,"city":"Asheboro","state":"NC","address":"1280 East Dixie Drive","name":""},
  {"lat":36.267026,"lon":-76.967679,"city":"Ahoskie","state":"NC","address":"2140 U.S. 13 South","name":""},
  {"lat":39.956695,"lon":-104.985035,"city":"Thornton","state":"CO","address":"14375 Lincoln St.","name":""},
  {"lat":38.28554,"lon":-77.436076,"city":"Fredericksburg","state":"VA","address":"450 Kings Hwy","name":""},
  {"lat":35.619231,"lon":-91.252475,"city":"Newport","state":"AR","address":"1417 Hwy 367 North","name":""},
  {"lat":32.57594,"lon":-97.333998,"city":"Crowley","state":"TX","address":"841 W Rendon Crowley Rd","name":""},
  {"lat":29.712447,"lon":-82.355476,"city":"Gainesville","state":"FL","address":"6323 NW 23rd Street","name":""},
  {"lat":30.394513,"lon":-88.992327,"city":"Biloxi","state":"MS","address":"190 Eisenhower Dr.","name":""},
  {"lat":35.072608,"lon":-106.585692,"city":"Albuquerque","state":"NM","address":"5400 Zuni Rd. SE","name":""},
  {"lat":35.718508,"lon":-78.655476,"city":"Raleigh","state":"NC","address":"4520 Fayetteville Rd","name":""},
  {"lat":39.974057,"lon":-105.089463,"city":"Lafayette","state":"CO","address":"2346 South Highway 287","name":""},
  {"lat":33.089474,"lon":-96.61935,"city":"Lucas","state":"TX","address":"601 S. Angel Pkwy","name":""},
  {"lat":29.468175,"lon":-98.359034,"city":"San Antonio","state":"TX","address":"4406 N. Foster Rd.","name":""},
  {"lat":26.527371,"lon":-81.865417,"city":"Fort Myers","state":"FL","address":"14801 Ben C Pratt","name":""},
  {"lat":35.728584,"lon":-81.701523,"city":"Morganton","state":"NC","address":"655 Fleming Dr.","name":""},
  {"lat":27.610652,"lon":-99.466607,"city":"Laredo","state":"TX","address":"10714 International Blvd.","name":""},
  {"lat":33.758758,"lon":-78.858043,"city":"Myrtle Beach","state":"SC","address":"577 International Dr.","name":""},
  {"lat":34.194123,"lon":-97.143755,"city":"Ardmore","state":"OK","address":"1721 N. Commerce St.","name":""},
  {"lat":33.980527,"lon":-78.374078,"city":"Shallotte","state":"NC","address":"4557 Main St.","name":""},
  {"lat":29.4864,"lon":-98.6705,"city":"San Antonio","state":"TX","address":"9530 Culebra Rd.","name":""},
  {"lat":35.172669,"lon":-89.868258,"city":"Memphis","state":"TN","address":"5856 Summer Avenue","name":""},
  {"lat":39.081125,"lon":-78.147281,"city":"Winchester","state":"VA","address":"111 Farrow Rd.","name":""},
  {"lat":38.981899,"lon":-84.651341,"city":"Florence","state":"KY","address":"8228 US Hwy 42","name":""},
  {"lat":35.111473,"lon":-106.604647,"city":"Albuquerque","state":"NM","address":"2709 Carlisle","name":""},
  {"lat":35.619307,"lon":-105.225867,"city":"Las Vegas","state":"NM","address":"2607 7th Street","name":""},
  {"lat":36.194034,"lon":-86.293029,"city":"Lebanon","state":"TN","address":"603 S. Cumberland St.","name":""},
  {"lat":30.515802,"lon":-86.46278,"city":"Niceville","state":"FL","address":"1202 E. John Sims Pkwy","name":""},
  {"lat":34.489435,"lon":-82.674183,"city":"Anderson","state":"SC","address":"628 Hwy 28 Bypass","name":""},
  {"lat":26.242513,"lon":-98.440483,"city":"Penitas","state":"TX","address":"1900 East Expressway 83","name":""},
  {"lat":36.733671,"lon":-78.912134,"city":"South Boston","state":"VA","address":"3506 Old Halifax Rd.","name":""},
  {"lat":35.488722,"lon":-81.245317,"city":"Lincolnton","state":"NC","address":"471 N. Generals Blvd","name":""},
  {"lat":30.375043,"lon":-86.287615,"city":"Santa Rosa Beach","state":"FL","address":"6595 US Hwy 98 W","name":""},
  {"lat":30.247892,"lon":-81.753845,"city":"Jacksonville","state":"FL","address":"6706 103rd St.","name":""},
  {"lat":35.771033,"lon":-86.91812,"city":"Spring Hill","state":"TN","address":"3028 Bellshire Village Dr.","name":""},
  {"lat":36.696699,"lon":-86.570786,"city":"Franklin","state":"KY","address":"1495 Nashville Rd.","name":""},
  {"lat":34.985511,"lon":-81.210251,"city":"York","state":"SC","address":"295 Cooperative Way","name":""},
  {"lat":39.777015,"lon":-105.057875,"city":"Lakeside","state":"CO","address":"5601 W 44th Ave.","name":""},
  {"lat":30.210535,"lon":-90.921806,"city":"Gonzales","state":"LA","address":"209 W. Hwy 30","name":""},
  {"lat":34.534669,"lon":-83.535759,"city":"Cornelia","state":"GA","address":"111 VFW Post Rd.","name":""},
  {"lat":27.935304,"lon":-81.973489,"city":"Mulberry","state":"FL","address":"6801 N. Church Ave.","name":""},
  {"lat":30.005576,"lon":-95.285256,"city":"Humble","state":"TX","address":"9445 F.M. 1960 Bypass West","name":""},
  {"lat":27.672451,"lon":-97.299176,"city":"Corpus Christi","state":"TX","address":"1302 Flour Bluff Dr.","name":""},
  {"lat":32.532196,"lon":-96.815338,"city":"Red Oak","state":"TX","address":"124 East Ovilla","name":""},
  {"lat":33.591709,"lon":-101.932685,"city":"Lubbock","state":"TX","address":"5519 4th St","name":""},
  {"lat":30.179599,"lon":-85.801543,"city":"Panama City Beach","state":"FL","address":"9950 Hutchinson Blvd.","name":""},
  {"lat":28.138978,"lon":-80.582523,"city":"Melbourne","state":"FL","address":"1040 East Eau Gallie Blvd","name":""},
  {"lat":30.268197,"lon":-87.594794,"city":"Orange Beach","state":"AL","address":"25241 Perdido Beach Blvd. - O","name":""},
  {"lat":35.189628,"lon":-101.883463,"city":"Amarillo","state":"TX","address":"2109 South Western St.","name":""},
  {"lat":34.014164,"lon":-81.160703,"city":"Lexington","state":"SC","address":"4448 Sunset Blvd.","name":""},
  {"lat":35.86768,"lon":-86.387729,"city":"Murfreesboro","state":"TN","address":"1695 Memorial Blvd.","name":""},
  {"lat":35.650539,"lon":-82.031931,"city":"Marion","state":"NC","address":"2757 Sugar Hill Rd.","name":""},
  {"lat":33.889794,"lon":-79.75525,"city":"Lake City","state":"SC","address":"295 W. Loop Rd.","name":""},
  {"lat":28.012479,"lon":-81.731412,"city":"Winter Haven","state":"FL","address":"801 3rd St SW","name":""},
  {"lat":29.352303,"lon":-98.452577,"city":"San Antonio","state":"TX","address":"2519 S.E Military Dr.","name":""},
  {"lat":35.167865,"lon":-90.198055,"city":"West Memphis","state":"AR","address":"646 Service Rd.","name":""},
  {"lat":29.916233,"lon":-95.486897,"city":"Houston","state":"TX","address":"13350 Tomball Parkway","name":""},
  {"lat":38.411763,"lon":-82.531699,"city":"South Point","state":"OH","address":"389 County Rd. 120 South","name":""},
  {"lat":38.067608,"lon":-83.954425,"city":"Mt. Sterling","state":"KY","address":"520 Indian Mound Rd.","name":""},
  {"lat":35.049199,"lon":-89.806703,"city":"Memphis","state":"TN","address":"7705 Winchester Rd.","name":""},
  {"lat":27.51196,"lon":-81.494736,"city":"Sebring","state":"FL","address":"3293 US Hwy. 27 N.","name":""},
  {"lat":34.553692,"lon":-82.681831,"city":"Anderson","state":"SC","address":"3725 Clemson Blvd","name":""},
  {"lat":30.51332,"lon":-97.702061,"city":"Round Rock","state":"TX","address":"1600 Round Rock Ave.","name":""},
  {"lat":30.458964,"lon":-84.35646,"city":"Tallahassee","state":"FL","address":"3891 W. Tennessee St.","name":""},
  {"lat":30.428583,"lon":-86.638878,"city":"Fort Walton Beach","state":"FL","address":"604 Beal Pkwy N","name":""},
  {"lat":30.089742,"lon":-95.642042,"city":"Tomball","state":"TX","address":"14510 FM 2920","name":""},
  {"lat":30.436337,"lon":-87.277506,"city":"Pensacola","state":"FL","address":"4544 Mobile Hwy","name":""},
  {"lat":33.563121,"lon":-81.766341,"city":"Aiken","state":"SC","address":"3575 Richland Ave. W.","name":""},
  {"lat":35.390641,"lon":-86.237593,"city":"Tullahoma","state":"TN","address":"2040 N. Jackson St.","name":""},
  {"lat":33.589259,"lon":-79.008569,"city":"Garden City","state":"SC","address":"2700 South Hwy 17 Business","name":""},
  {"lat":34.152222,"lon":-84.251475,"city":"Alpharetta","state":"GA","address":"5415 Atlanta Hwy.","name":""},
  {"lat":29.690469,"lon":-95.20662,"city":"Pasadena","state":"TX","address":"510 Southmore Ave.","name":""},
  {"lat":33.531251,"lon":-86.718199,"city":"Birmingham","state":"AL","address":"7740 Crestwood Blvd.","name":""},
  {"lat":30.286705,"lon":-81.503577,"city":"Jacksonville","state":"FL","address":"11930 Beach Blvd.","name":""},
  {"lat":30.413109,"lon":-86.654243,"city":"Mary Esther","state":"FL","address":"193 Mary Esther Blvd.","name":""},
  {"lat":28.99169,"lon":-80.908104,"city":"Edgewater","state":"FL","address":"100 N Ridgewood Ave","name":""},
  {"lat":32.020477,"lon":-102.081139,"city":"Midland","state":"TX","address":"2301 N Big Springs St","name":""},
  {"lat":33.548676,"lon":-101.874763,"city":"Lubbock","state":"TX","address":"2703 50th St","name":""},
  {"lat":36.177694,"lon":-86.513207,"city":"Mount Juliet","state":"TN","address":"355 Pleasant Grove #1100","name":""},
  {"lat":29.499144,"lon":-82.870368,"city":"Chiefland","state":"FL","address":"2126 N. Young Blvd","name":""},
  {"lat":36.511273,"lon":-82.518238,"city":"Kingsport","state":"TN","address":"3100 Fort Henry Dr.","name":""},
  {"lat":30.518461,"lon":-97.651135,"city":"Round Rock","state":"TX","address":"2211 E. Palm Valley Blvd.","name":""},
  {"lat":35.316371,"lon":-106.575531,"city":"Bernalillo","state":"NM","address":"600 NM 528","name":""},
  {"lat":29.561613,"lon":-95.561555,"city":"Missouri City","state":"TX","address":"6414 Hwy. 6","name":""},
  {"lat":29.013886,"lon":-80.964655,"city":"New Smyrna Beach","state":"FL","address":"2355 State Rd. 44","name":""},
  {"lat":30.603705,"lon":-87.115656,"city":"Pace","state":"FL","address":"4988 US. Hwy. 90","name":""},
  {"lat":35.594253,"lon":-78.779204,"city":"Fuquay-Varina","state":"NC","address":"732 Judd Pkwy NE","name":""},
  {"lat":33.949966,"lon":-81.099648,"city":"West Columbia","state":"SC","address":"2250 Airport Blvd","name":""},
  {"lat":39.76936,"lon":-104.791779,"city":"Aurora","state":"CO","address":"3001 N Airport Blvd","name":""},
  {"lat":31.868502,"lon":-102.380936,"city":"Odessa","state":"TX","address":"2701 Andrews Hwy","name":""},
  {"lat":32.599415,"lon":-97.146477,"city":"Mansfield","state":"TX","address":"2000 N US 287 FR NB","name":""},
  {"lat":33.843936,"lon":-87.251549,"city":"Jasper","state":"AL","address":"2001 Hwy 78 E","name":""},
  {"lat":32.499477,"lon":-94.751381,"city":"Longview","state":"TX","address":"813 West Marshall Ave","name":""},
  {"lat":26.165989,"lon":-97.677673,"city":"Harlingen","state":"TX","address":"710 N Ed Carey Dr","name":""},
  {"lat":39.963257,"lon":-105.164383,"city":"Louisville","state":"CO","address":"525 S McCaslin Blvd","name":""},
  {"lat":28.551499,"lon":-81.502953,"city":"Orlando","state":"FL","address":"8600 W. Colonial Dr.","name":""},
  {"lat":33.638886,"lon":-78.989455,"city":"Surfside Beach","state":"SC","address":"8737 Hwy. 17 Bypass","name":""},
  {"lat":33.879328,"lon":-98.539326,"city":"Wichita Falls","state":"TX","address":"3117 Lawrence Rd","name":""},
  {"lat":28.927129,"lon":-82.032474,"city":"Oxford","state":"FL","address":"4279 E. CR 466","name":""},
  {"lat":34.248743,"lon":-80.64107,"city":"Camden","state":"SC","address":"3 Bay Lane","name":""},
  {"lat":29.811407,"lon":-95.428813,"city":"Houston","state":"TX","address":"1527 North Loop West","name":""},
  {"lat":30.379479,"lon":-88.525993,"city":"Pascagoula","state":"MS","address":"3303 Denny Avenue","name":""},
  {"lat":33.609414,"lon":-86.804206,"city":"Fultondale","state":"AL","address":"1341 Walker Chapel Rd","name":""},
  {"lat":28.873192,"lon":-96.997204,"city":"Victoria","state":"TX","address":"8508 N. Navarro St","name":""},
  {"lat":32.665352,"lon":-97.345909,"city":"Fort Worth","state":"TX","address":"5601 Crowley Rd","name":""},
  {"lat":30.882726,"lon":-83.285565,"city":"Valdosta","state":"GA","address":"3300 Inner Perimeter Rd","name":""},
  {"lat":34.009783,"lon":-85.989935,"city":"Gadsden","state":"AL","address":"215 E. Meighan Blvd","name":""},
  {"lat":39.480508,"lon":-104.757461,"city":"Parker","state":"CO","address":"13001 Copperhead Trail","name":""},
  {"lat":30.174982,"lon":-85.684219,"city":"Panama City","state":"FL","address":"1405 15th St","name":""},
  {"lat":30.06474,"lon":-95.439767,"city":"Spring","state":"TX","address":"1626 Louetta Rd.","name":""},
  {"lat":36.243493,"lon":-86.757328,"city":"Nashville","state":"TN","address":"3434 Doverside Dr","name":""},
  {"lat":36.085968,"lon":-83.937627,"city":"Knoxville","state":"TN","address":"7555 Fork Station Way","name":""},
  {"lat":31.450783,"lon":-83.427399,"city":"Tifton","state":"GA","address":"813 W. 7th Street","name":""},
  {"lat":30.526416,"lon":-97.810332,"city":"Cedar Park","state":"TX","address":"1454 E. Whitestone Blvd","name":""},
  {"lat":32.361431,"lon":-106.748471,"city":"Las Cruces","state":"NM","address":"3480 Northrise Dr.","name":""},
  {"lat":31.875599,"lon":-102.347328,"city":"Odessa","state":"TX","address":"2626 N Grandview","name":""},
  {"lat":33.977517,"lon":-81.191341,"city":"Lexington","state":"SC","address":"4873 Augusta Rd.","name":""},
  {"lat":32.647724,"lon":-97.396431,"city":"Fort Worth","state":"TX","address":"4701 Alta Mesa Blvd","name":""},
  {"lat":35.620274,"lon":-106.027937,"city":"Santa Fe","state":"NM","address":"5301 Las Soleras Dr","name":""},
  {"lat":33.443306,"lon":-104.523785,"city":"Roswell","state":"NM","address":"3624 N. Main St","name":""},
  {"lat":32.395649,"lon":-104.222019,"city":"Carlsbad","state":"NM","address":"2301 S. Canal St","name":""},
  {"lat":34.255517,"lon":-88.740556,"city":"Tupelo","state":"MS","address":"2255 W. Main St.","name":""},
  {"lat":37.990055,"lon":-84.209801,"city":"Winchester","state":"KY","address":"120 Codella Dr","name":""},
  {"lat":31.883491,"lon":-106.576454,"city":"El Paso","state":"TX","address":"7800 Paseo del Notre Drive","name":""},
  {"lat":32.092703,"lon":-81.274051,"city":"Pooler","state":"GA","address":"1555 Pooler Pkwy","name":""},
  {"lat":32.063778,"lon":-84.201342,"city":"Americus","state":"GA","address":"1698 E. Lamar","name":""},
  {"lat":31.577694,"lon":-84.089487,"city":"Albany","state":"GA","address":"252 Cordele Rd.","name":""},
  {"lat":33.519756,"lon":-101.870392,"city":"Lubbock","state":"TX","address":"8202 University Ave","name":""},
  {"lat":39.038546,"lon":-95.762426,"city":"Topeka","state":"KS","address":"1531 Wanamaker Rd","name":""},
  {"lat":27.011465,"lon":-82.140072,"city":"Port Charlotte","state":"FL","address":"19020 Murdock Circle","name":""},
  {"lat":28.47313,"lon":-81.290568,"city":"Orlando","state":"FL","address":"6150 S. Goldenrod Rd.","name":""},
  {"lat":26.682588,"lon":-81.897736,"city":"Fort Myers","state":"FL","address":"520 Pine Island Rd.","name":""},
  {"lat":27.606076,"lon":-81.514824,"city":"Avon Park","state":"FL","address":"993 US 27 North","name":""},
  {"lat":31.482723,"lon":-87.329669,"city":"Monroeville","state":"AL","address":"3303 South Alabama Ave","name":""},
  {"lat":33.976093,"lon":-81.025063,"city":"Columbia","state":"SC","address":"711 Bluff Road","name":""},
  {"lat":35.008044,"lon":-79.172612,"city":"Raeford","state":"NC","address":"4625 Fayetteville Rd","name":""},
  {"lat":25.86784,"lon":-80.242989,"city":"Miami","state":"FL","address":"10220 NW 27th Ave","name":""},
  {"lat":34.982608,"lon":-81.090187,"city":"Rock Hill","state":"SC","address":"105 Secession Way","name":""},
  {"lat":35.037588,"lon":-106.71257,"city":"Albuquerque","state":"NM","address":"2730 Sunshine West Plaza Dr.","name":""},
  {"lat":39.764203,"lon":-104.771609,"city":"Aurora","state":"CO","address":"3470 Tower Rd","name":""},
  {"lat":40.454539,"lon":-105.078251,"city":"Loveland","state":"CO","address":"120 W. 64th St.","name":""},
  {"lat":33.778366,"lon":-78.987116,"city":"Conway","state":"SC","address":"150 Middle Ridge Rd.","name":""},
  {"lat":36.594955,"lon":-79.427375,"city":"Danville","state":"VA","address":"474 Mount Cross Rd.","name":""},
  {"lat":25.829462,"lon":-80.288986,"city":"Hialeah","state":"FL","address":"398 W 9th St","name":""},
  {"lat":30.647775,"lon":-91.146332,"city":"Zachary","state":"LA","address":"5523 Main St","name":""},
  {"lat":29.059442,"lon":-81.30383,"city":"DeLand","state":"FL","address":"1691 N. Woodland Blvd","name":""},
  {"lat":37.05079,"lon":-88.56656,"city":"Paducah","state":"KY","address":"3330 Irvin Cobb-Drive","name":""},
  {"lat":30.409171,"lon":-88.75772,"city":"Ocean Springs","state":"MS","address":"4021 Bienville Blvd","name":""},
  {"lat":33.478813,"lon":-82.196932,"city":"Grovetown","state":"GA","address":"4009 Gateway Blvd","name":""},
  {"lat":33.931724,"lon":-83.310554,"city":"Athens","state":"GA","address":"4400 Lexington Rd","name":""},
  {"lat":29.115615,"lon":-82.025109,"city":"Ocala","state":"FL","address":"17 Cedar Radial Pass","name":""},
  {"lat":35.561649,"lon":-77.062097,"city":"Washington","state":"NC","address":"1426 Carolina Ave.","name":""},
  {"lat":36.280542,"lon":-78.606232,"city":"Oxford","state":"NC","address":"1017 Lewis ST","name":""},
  {"lat":33.859724,"lon":-79.089807,"city":"Conway","state":"SC","address":"2735 Church St","name":""},
  {"lat":33.943967,"lon":-78.029155,"city":"Southport","state":"NC","address":"1670 N. Howe","name":""},
  {"lat":35.254218,"lon":-80.454124,"city":"Locust","state":"NC","address":"158 James Ave.","name":""},
  {"lat":36.084484,"lon":-78.318068,"city":"Louisburg","state":"NC","address":"800 Retail Way","name":""},
  {"lat":34.753717,"lon":-77.459878,"city":"Jacksonville","state":"NC","address":"168 Hickory Rd","name":""},
  {"lat":32.618823,"lon":-83.673586,"city":"Warner Robins","state":"GA","address":"2718 Watson Blvd.","name":""},
  {"lat":32.196758,"lon":-81.197744,"city":"Port Wentworth","state":"GA","address":"100 Magellan Blvd","name":""},
  {"lat":33.50713,"lon":-82.091794,"city":"Augusta","state":"GA","address":"224 Bobby Jones Expressway Suite 1","name":""},
  {"lat":31.64603,"lon":-94.653953,"city":"Nacogdoches","state":"TX","address":"4422 North Street","name":""},
  {"lat":35.429282,"lon":-78.062878,"city":"Goldsboro","state":"NC","address":"103 NC 581 Highway N","name":""},
  {"lat":35.734299,"lon":-79.426181,"city":"Siler City","state":"NC","address":"107 New Chatham Road","name":""},
  {"lat":35.872049,"lon":-83.568517,"city":"Sevierville","state":"TN","address":"310 Winfield-Dunn Pkwy.","name":""},
  {"lat":34.186884,"lon":-79.34146,"city":"Mullins","state":"SC","address":"2691 E. Hwy. 76","name":""},
  {"lat":35.444637,"lon":-79.129172,"city":"Sanford","state":"NC","address":"3288 S NC 87 Hwy.","name":""},
  {"lat":36.077941,"lon":-94.205073,"city":"Fayetteville","state":"AR","address":"3189 W. Wedington Dr.","name":""},
  {"lat":36.149441,"lon":-81.204762,"city":"Wilkesboro","state":"NC","address":"2005 W US Hwy 421","name":""},
  {"lat":30.398544,"lon":-87.27712,"city":"Pensacola","state":"FL","address":"690 N Navy Blvd.","name":""},
  {"lat":33.99741,"lon":-86.095849,"city":"Attalla","state":"AL","address":"930 Gilbert Ferry Rd SE","name":""},
  {"lat":36.335606,"lon":-94.194799,"city":"Bentonville","state":"AR","address":"1211 SE Walton Blvd","name":""},
  {"lat":34.814381,"lon":-106.750011,"city":"Los Lunas","state":"NM","address":"1419 Main St. SW","name":""},
  {"lat":35.998913,"lon":-79.792933,"city":"Greensboro","state":"NC","address":"100 Elmsley Meadow Lane","name":""},
  {"lat":32.964734,"lon":-80.044761,"city":"North Charleston","state":"SC","address":"8599 Rivers Ave.","name":""},
  {"lat":35.032983,"lon":-85.180393,"city":"Chattanooga","state":"TN","address":"6398 Lee Hwy","name":""},
  {"lat":36.722535,"lon":-88.62664,"city":"Mayfield","state":"KY","address":"1202 Paris Rd.","name":""},
  {"lat":35.611265,"lon":-78.553916,"city":"Garner","state":"NC","address":"4993 Veterans Parkway","name":""},
  {"lat":31.873646,"lon":-90.405547,"city":"Hazlehurst","state":"MS","address":"115 Market Place","name":""},
  {"lat":31.709781,"lon":-89.149194,"city":"Laurel","state":"MS","address":"1598 Highway 15 North","name":""},
  {"lat":31.1471,"lon":-87.066826,"city":"Brewton","state":"AL","address":"2576 Douglas Ave.","name":""},
  {"lat":38.149715,"lon":-92.617984,"city":"Osage Beach","state":"MO","address":"4294 Osage Beach Parkway","name":""},
  {"lat":32.302939,"lon":-90.889159,"city":"Vicksburg","state":"MS","address":"4103 Pemberton Square Blvd.","name":""},
  {"lat":32.399152,"lon":-90.140274,"city":"Jackson","state":"MS","address":"6394 Ridgewood Rd.","name":""},
  {"lat":32.460061,"lon":-86.408156,"city":"Prattville","state":"AL","address":"2189 Cobbs Ford Rd","name":""},
  {"lat":33.119746,"lon":-96.109095,"city":"Greenville","state":"TX","address":"5001 Wesley Street","name":""},
  {"lat":35.92616,"lon":-79.985762,"city":"High Point","state":"NC","address":"2700 South Main Street","name":""},
  {"lat":36.515031,"lon":-84.507874,"city":"Oneida","state":"TN","address":"19743 Alberta St.","name":""},
  {"lat":34.141613,"lon":-80.940842,"city":"Columbia","state":"SC","address":"210 Ricky Lane","name":""},
  {"lat":34.041857,"lon":-81.096495,"city":"Columbia","state":"SC","address":"2350 Broad River Rd","name":""},
  {"lat":32.293773,"lon":-106.786519,"city":"Las Cruces","state":"NM","address":"1290 South Valley Drive","name":""},
  {"lat":29.626855,"lon":-90.761938,"city":"Houma","state":"LA","address":"1841 Martin Luther King Jr. Blvd.","name":""},
  {"lat":36.059626,"lon":-90.519846,"city":"Paragould","state":"AR","address":"2516 West Kings Hwy","name":""},
  {"lat":30.393741,"lon":-88.660314,"city":"Gautier","state":"MS","address":"3110 Highway 90","name":""},
  {"lat":35.518907,"lon":-78.31374,"city":"Smithfield","state":"NC","address":"1234 Brightleaf Rd","name":""},
  {"lat":34.962906,"lon":-89.884264,"city":"Olive Branch","state":"MS","address":"5970 Goodman Rd.","name":""},
  {"lat":34.733717,"lon":-80.799056,"city":"Lancaster","state":"SC","address":"1260 Hwy 9 Bypass W","name":""},
  {"lat":35.449837,"lon":-81.004832,"city":"Denver","state":"NC","address":"7120 NC Highway 73","name":""},
  {"lat":34.679368,"lon":-88.561001,"city":"Booneville","state":"MS","address":"1205 N Second St.","name":""},
  {"lat":32.665454,"lon":-97.205584,"city":"Arlington","state":"TX","address":"5071 Little School Rd","name":""},
  {"lat":33.91306,"lon":-81.225743,"city":"Lexington","state":"SC","address":"108 Knoll Station Dr.","name":""},
  {"lat":35.825791,"lon":-90.669279,"city":"Jonesboro","state":"AR","address":"1601 Stadium Blvd","name":""},
  {"lat":36.275358,"lon":-80.84246,"city":"Elkin","state":"NC","address":"491 C. C. Camp Rd.","name":""},
  {"lat":35.217521,"lon":-86.100847,"city":"Winchester","state":"TN","address":"2601 Decherd Blvd","name":""},
  {"lat":35.657164,"lon":-80.464247,"city":"Salisbury","state":"NC","address":"1010 Freeland Drive","name":""},
  {"lat":32.863371,"lon":-83.613526,"city":"Macon","state":"GA","address":"1402 Gray Hwy.","name":""},
  {"lat":30.8257,"lon":-83.316392,"city":"Valdosta","state":"GA","address":"277 Norman Dr.","name":""},
  {"lat":34.436515,"lon":-79.37047,"city":"Dillon","state":"SC","address":"613 Radford Blvd","name":""},
  {"lat":36.348885,"lon":-84.15816,"city":"LaFollette","state":"TN","address":"2135 Jacksboro Pike","name":""},
  {"lat":35.119855,"lon":-81.082247,"city":"Clover","state":"SC","address":"138 Hwy 274","name":""},
  {"lat":35.92933,"lon":-89.869762,"city":"Blytheville","state":"AR","address":"3714 East Main St.","name":""},
  {"lat":36.176083,"lon":-94.210903,"city":"Springdale","state":"AR","address":"7250 West Sunset Ln Suite #A","name":""},
  {"lat":31.17214,"lon":-83.760968,"city":"Moultrie","state":"GA","address":"505 Veterans Pkwy S.","name":""},
  {"lat":36.284142,"lon":-88.308397,"city":"Paris","state":"TN","address":"1110 Mineral Wells Ave.","name":""},
  {"lat":30.537698,"lon":-90.956087,"city":"Denham Springs","state":"LA","address":"32336 LA Highway 16","name":""},
  {"lat":35.262042,"lon":-77.648646,"city":"Kinston","state":"NC","address":"4201 W. Vernon Ave.","name":""},
  {"lat":35.175125,"lon":-78.969362,"city":"Spring Lake","state":"NC","address":"621 Lillington Hwy","name":""},
  {"lat":35.834551,"lon":-77.066118,"city":"Williamston","state":"NC","address":"1509 Washington St.","name":""},
  {"lat":35.829228,"lon":-78.296446,"city":"Zebulon","state":"NC","address":"801 East Gannon Ave","name":""},
  {"lat":35.88344,"lon":-77.547895,"city":"Tarboro","state":"NC","address":"100 River Oaks Drive","name":""},
  {"lat":35.777071,"lon":-81.393898,"city":"Granite Falls","state":"NC","address":"4820 Hickory Blvd","name":""},
  {"lat":31.351705,"lon":-89.234644,"city":"Petal","state":"MS","address":"11 Tyner Road","name":""},
  {"lat":35.970457,"lon":-77.937534,"city":"Nashville","state":"NC","address":"1151 Eastern Ave.","name":""},
  {"lat":30.231977,"lon":-90.907006,"city":"Gonzales","state":"LA","address":"130 South Airline Hwy","name":""},
  {"lat":30.47958,"lon":-90.863748,"city":"Walker","state":"LA","address":"28777 Walker Road South","name":""},
  {"lat":35.356354,"lon":-89.895759,"city":"Millington","state":"TN","address":"8441 Hwy 51 N","name":""},
  {"lat":30.515657,"lon":-89.66077,"city":"Picayune","state":"MS","address":"233 Frontage Rd","name":""},
  {"lat":35.734158,"lon":-81.364754,"city":"Hickory","state":"NC","address":"140 Hwy 321 NW","name":""},
  {"lat":30.189971,"lon":-85.700961,"city":"Panama City","state":"FL","address":"3100 23rd St W","name":""},
  {"lat":30.412688,"lon":-86.605084,"city":"Fort Walton Beach","state":"FL","address":"10 Eglin Pkwy NE","name":""},
  {"lat":29.606153,"lon":-90.74556,"city":"Houma","state":"LA","address":"1506 Martin Luther King Blvd","name":""},
  {"lat":32.516872,"lon":-93.714752,"city":"Bossier City","state":"LA","address":"100 Benton Spur Rd","name":""},
  {"lat":30.68526,"lon":-88.20715,"city":"Mobile","state":"AL","address":"7081 Airport Blvd","name":""},
  {"lat":33.443451,"lon":-94.100182,"city":"Texarkana","state":"TX","address":"4001 New Boston Road","name":""},
  {"lat":33.100485,"lon":-96.732978,"city":"Allen","state":"TX","address":"105 S. Custer Rd","name":""},
  {"lat":34.747135,"lon":-86.775106,"city":"Madison","state":"AL","address":"8641 Hwy 72","name":""},
  {"lat":38.947878,"lon":-104.803486,"city":"Colorado Springs","state":"CO","address":"8050 N Academy Blvd","name":""},
  {"lat":36.755896,"lon":-90.408791,"city":"Poplar Bluff","state":"MO","address":"303 South Westwood","name":""},
  {"lat":36.847163,"lon":-86.917818,"city":"Russellville","state":"KY","address":"110 Sam Walton Dr","name":""},
  {"lat":34.975383,"lon":-81.876801,"city":"Spartanburg","state":"SC","address":"100 Dawn Redwood Dr","name":""},
  {"lat":36.395957,"lon":-81.480566,"city":"West Jefferson","state":"NC","address":"1453 Mount Jefferson Rd","name":""},
  {"lat":36.124947,"lon":-97.05024,"city":"Stillwater","state":"OK","address":"115 N Perkins","name":""},
  {"lat":35.605079,"lon":-95.962217,"city":"Okmulgee","state":"OK","address":"1750 S Wood Dr","name":""},
  {"lat":37.363772,"lon":-89.633311,"city":"Jackson","state":"MO","address":"3039 E Jackson Blvd","name":""},
  {"lat":38.238255,"lon":-104.662659,"city":"Pueblo","state":"CO","address":"1707 S Pueblo Blvd","name":""},
  {"lat":30.192258,"lon":-85.800063,"city":"Panama City Beach","state":"FL","address":"9901 Panama City Beach Pkwy","name":""},
  {"lat":35.103293,"lon":-78.959488,"city":"Fayetteville","state":"NC","address":"5707 Bragg Blvd","name":""},
  {"lat":39.696962,"lon":-104.811341,"city":"Aurora","state":"CO","address":"15147 Mississippi Ave","name":""},
  {"lat":39.610096,"lon":-105.147014,"city":"Littleton","state":"CO","address":"13184 West Ida Ave","name":""},
  {"lat":40.386658,"lon":-104.715879,"city":"Greeley","state":"CO","address":"3035 S 23rd Ave","name":""},
  {"lat":26.166979,"lon":-98.007446,"city":"Weslaco","state":"TX","address":"601 N Westgate Dr","name":""},
  {"lat":35.090435,"lon":-78.982719,"city":"Fayetteville","state":"NC","address":"5708 Yadkin Rd","name":""},
  {"lat":41.827974,"lon":-89.475036,"city":"Dixon","state":"IL","address":"1620 S. Galena Ave","name":""},
  {"lat":29.05805,"lon":-82.27797,"city":"Ocala","state":"FL","address":"9558 SW Hwy 200","name":""},
  {"lat":33.482566,"lon":-82.501978,"city":"Thomson","state":"GA","address":"2211 Harrison Rd NE","name":""},
  {"lat":27.92386,"lon":-97.17616,"city":"Aransas Pass","state":"TX","address":"2601 W Wheeler Ave","name":""},
  {"lat":30.14065,"lon":-96.395409,"city":"Brenham","state":"TX","address":"2615 Hwy 36 S","name":""},
  {"lat":30.186708,"lon":-85.761368,"city":"Panama City Beach","state":"FL","address":"12 Navy Blvd","name":""},
  {"lat":35.152989,"lon":-85.248305,"city":"Hixson","state":"TN","address":"5716 Hwy 153","name":""},
  {"lat":37.15023,"lon":-92.26213,"city":"Mountain Grove","state":"MO","address":"2106 N Main Ave","name":""},
  {"lat":29.951802,"lon":-90.179615,"city":"Harahan","state":"LA","address":"5108 Jefferson Hwy","name":""},
  {"lat":32.571215,"lon":-85.499308,"city":"Auburn","state":"AL","address":"1717-A S College St","name":""},
  {"lat":35.329166,"lon":-94.409179,"city":"Fort Smith","state":"AR","address":"5501 S 24th St","name":""},
  {"lat":35.821236,"lon":-90.685234,"city":"Jonesboro","state":"AR","address":"1807 E Highland Dr","name":""},
  {"lat":32.509201,"lon":-92.156591,"city":"West Monroe","state":"LA","address":"1027 Glenwood Dr","name":""},
  {"lat":31.67295,"lon":-106.284737,"city":"Socorro","state":"TX","address":"9941 North Loop Dr","name":""},
  {"lat":34.163925,"lon":-79.758949,"city":"Florence","state":"SC","address":"411 Pamplico Hwy","name":""},
  {"lat":31.837817,"lon":-106.56075,"city":"El Paso","state":"TX","address":"7424 North Mesa","name":""},
  {"lat":33.743839,"lon":-87.042154,"city":"Sumiton","state":"AL","address":"670 Hwy 78","name":""},
  {"lat":33.460548,"lon":-94.038445,"city":"Texarkana","state":"AR","address":"411 Arkansas Blvd","name":""},
  {"lat":34.62211,"lon":-92.49424,"city":"Bryant","state":"AR","address":"403 Bryant Ave","name":""},
  {"lat":35.225989,"lon":-97.423056,"city":"Norman","state":"OK","address":"609 12th Ave NE","name":""},
  {"lat":35.221998,"lon":-97.484384,"city":"Norman","state":"OK","address":"363 N Interstate Dr","name":""},
  {"lat":36.267165,"lon":-93.138277,"city":"Harrison","state":"AR","address":"179 N WalMart Dr","name":""},
  {"lat":31.962452,"lon":-83.761703,"city":"Cordele","state":"GA","address":"1305 16th Ave E","name":""},
  {"lat":33.00244,"lon":-95.55337,"city":"Wylie","state":"TX","address":"1005 South State Hwy","name":""},
  {"lat":39.9119,"lon":-104.977402,"city":"Northglenn","state":"CO","address":"11870 Washington St","name":""},
  {"lat":40.377625,"lon":-104.734917,"city":"Evans","state":"CO","address":"3641 35th Ave","name":""},
  {"lat":33.597614,"lon":-96.192268,"city":"Bonham","state":"TX","address":"2101 N Hwy 121","name":""},
  {"lat":32.005337,"lon":-97.0951,"city":"Hillsboro","state":"TX","address":"316 I-35 Hwy SE","name":""},
  {"lat":30.905663,"lon":-94.015175,"city":"Jasper","state":"TX","address":"804 W Gibson St","name":""},
  {"lat":33.662281,"lon":-95.506897,"city":"Paris","state":"TX","address":"3805 Lamar Ave","name":""},
  {"lat":32.377445,"lon":-97.393272,"city":"Cleburne","state":"TX","address":"2002 N Main St","name":""},
  {"lat":33.837589,"lon":-78.669434,"city":"North Myrtle Beach","state":"SC","address":"1001 Hwy 17 N","name":""},
  {"lat":35.154427,"lon":-79.41806,"city":"Aberdeen","state":"NC","address":"11174 US Hwy 15 501","name":""},
  {"lat":33.39624,"lon":-104.536423,"city":"Roswell","state":"NM","address":"1001 W 2nd St","name":""},
  {"lat":29.92162,"lon":-82.128327,"city":"Starke","state":"FL","address":"14550 US HWY 301 S","name":""},
  {"lat":30.884668,"lon":-87.788918,"city":"Bay Minette","state":"AL","address":"1000 W. 7th","name":""},
  {"lat":35.190498,"lon":-101.794968,"city":"Amarillo","state":"TX","address":"2109 S Grand St","name":""},
  {"lat":32.688095,"lon":-95.481415,"city":"Mineola","state":"TX","address":"131 NE Loop 564","name":""},
  {"lat":32.432724,"lon":-87.014,"city":"Selma","state":"AL","address":"1501 1/2 Hwy 14 E","name":""},
  {"lat":34.935051,"lon":-82.002647,"city":"Spartanburg","state":"SC","address":"7801 Warren Abernathy Hwy","name":""},
  {"lat":34.05494,"lon":-81.161095,"city":"Columbia","state":"SC","address":"6119 St Andrews Rd","name":""},
  {"lat":41.654369,"lon":-88.562019,"city":"Plano","state":"IL","address":"6700 Lakeside Rd","name":""},
  {"lat":31.60092,"lon":-97.107201,"city":"Bellmead","state":"TX","address":"1519 N I-35 Frontage Rd","name":""},
  {"lat":30.72345,"lon":-86.569748,"city":"Crestview","state":"FL","address":"3702 S Ferdon Blvd","name":""},
  {"lat":25.840385,"lon":-80.314613,"city":"Miami","state":"FL","address":"7362 NW 72nd Ave","name":""},
  {"lat":35.342316,"lon":-80.176033,"city":"Albemarle","state":"NC","address":"721 Leonard Ave","name":""},
  {"lat":37.755005,"lon":-87.061418,"city":"Owensboro","state":"KY","address":"3159 Hwy 54","name":""},
  {"lat":32.179733,"lon":-83.180273,"city":"Eastman","state":"GA","address":"1545 Indian Dr","name":""},
  {"lat":34.556511,"lon":-86.995872,"city":"Decatur","state":"AL","address":"2800 B Spring Ave SW","name":""},
  {"lat":35.249409,"lon":-91.688026,"city":"Searcy","state":"AR","address":"3509 E Race","name":""},
  {"lat":31.12007,"lon":-97.871281,"city":"Copperas Cove","state":"TX","address":"2712 E Hwy 190","name":""},
  {"lat":28.814936,"lon":-96.966568,"city":"Victoria","state":"TX","address":"3407 N Delmar Dr","name":""},
  {"lat":34.77813,"lon":-77.390641,"city":"Jacksonville","state":"NC","address":"2054 N Marine Blvd","name":""},
  {"lat":40.377097,"lon":-104.694395,"city":"Evans","state":"CO","address":"1012 37th Street","name":""},
  {"lat":34.978939,"lon":-92.037399,"city":"Cabot","state":"AR","address":"208 Rockwood Dr","name":""},
  {"lat":29.98353,"lon":-91.816795,"city":"New Iberia","state":"LA","address":"1209 E Admiral Doyle Dr","name":""},
  {"lat":36.856953,"lon":-84.846603,"city":"Monticello","state":"KY","address":"36 Cumberland Crossing","name":""},
  {"lat":35.76229,"lon":-89.54375,"city":"Ripley","state":"TN","address":"630 Hwy 51 N","name":""},
  {"lat":32.331173,"lon":-96.622429,"city":"Ennis","state":"TX","address":"609 E Knox St","name":""},
  {"lat":35.03014,"lon":-79.053055,"city":"Fayetteville","state":"NC","address":"7719 Raeford Rd","name":""},
  {"lat":30.179792,"lon":-92.004311,"city":"Lafayette","state":"LA","address":"2420 W Pinhook Rd","name":""},
  {"lat":26.181622,"lon":-97.716248,"city":"Harlingen","state":"TX","address":"1805 W Lincoln","name":""},
  {"lat":26.304049,"lon":-98.180717,"city":"Edinburg","state":"TX","address":"1720 W University Dr","name":""},
  {"lat":32.0299,"lon":-102.148239,"city":"Midland","state":"TX","address":"4517-B N Midland Dr","name":""},
  {"lat":30.194977,"lon":-93.179298,"city":"Lake Charles","state":"LA","address":"3425 Gerstner Memorial","name":""},
  {"lat":40.836133,"lon":-81.327882,"city":"Canton","state":"OH","address":"3220 Atlantic Blvd NE","name":""},
  {"lat":28.855706,"lon":-82.394112,"city":"Inverness","state":"FL","address":"2419 E Gulf to Lake Hwy W","name":""},
  {"lat":32.738949,"lon":-96.304222,"city":"Terrell","state":"TX","address":"1850 Moore Ave","name":""},
  {"lat":33.52943,"lon":-101.904327,"city":"Lubbock","state":"TX","address":"4221 S Loop 289","name":""},
  {"lat":32.210308,"lon":-95.832314,"city":"Athens","state":"TX","address":"1401 E Tyler","name":""},
  {"lat":26.69245,"lon":-80.11087,"city":"West Palm Beach","state":"FL","address":"1010 N Military Trl","name":""},
  {"lat":29.582165,"lon":-90.693588,"city":"Houma","state":"LA","address":"953 Grand Caillou Road","name":""},
  {"lat":36.239243,"lon":-91.595917,"city":"Ash Flat","state":"AR","address":"105 US Hwy 62","name":""},
  {"lat":33.228691,"lon":-97.59436,"city":"Decatur","state":"TX","address":"806 S Hwy 287","name":""},
  {"lat":33.95211,"lon":-98.528122,"city":"Wichita Falls","state":"TX","address":"2311 Airport Dr","name":""},
  {"lat":32.541603,"lon":-92.623055,"city":"Ruston","state":"LA","address":"1207 N Service Rd E","name":""},
  {"lat":34.493362,"lon":-87.727333,"city":"Russellville","state":"AL","address":"13669 Hwy 43","name":""},
  {"lat":35.261776,"lon":-81.22393,"city":"Gastonia","state":"NC","address":"237 N Myrtle School Rd","name":""},
  {"lat":36.181534,"lon":-94.51281,"city":"Siloam Springs","state":"AR","address":"2895 Hwy 412 E","name":""},
  {"lat":33.636002,"lon":-91.801933,"city":"Monticello","state":"AR","address":"425 US Hwy 425 N","name":""},
  {"lat":37.020798,"lon":-85.937782,"city":"Glasgow","state":"KY","address":"2345 Happy Valley Rd","name":""},
  {"lat":31.78451,"lon":-82.365128,"city":"Baxley","state":"GA","address":"978 W Parker Street","name":""},
  {"lat":30.77577,"lon":-81.620323,"city":"St. Marys","state":"GA","address":"6438 Hwy 40 East","name":""},
  {"lat":38.208515,"lon":-85.264102,"city":"Shelbyville","state":"KY","address":"520 Taylorsville Road","name":""},
  {"lat":32.818512,"lon":-86.608994,"city":"Clanton","state":"AL","address":"1411 7th Street South","name":""},
  {"lat":35.881059,"lon":-84.660683,"city":"Rockwood","state":"TN","address":"1100 N Gateway Ave","name":""},
  {"lat":42.239145,"lon":-88.819153,"city":"Belvidere","state":"IL","address":"2005 Gateway Center Dr","name":""},
  {"lat":43.051636,"lon":-83.298401,"city":"Lapeer","state":"MI","address":"579 E Genesee St","name":""},
  {"lat":44.253486,"lon":-84.226052,"city":"West Branch","state":"MI","address":"2762 Cook Road","name":""},
  {"lat":34.164471,"lon":-99.31516,"city":"Vernon","state":"TX","address":"701 Hillcrest Dr","name":""},
  {"lat":35.55176,"lon":-88.80884,"city":"Jackson","state":"TN","address":"2159 S. Highland Ave","name":""},
  {"lat":32.352549,"lon":-95.344487,"city":"Tyler","state":"TX","address":"3804 Hwy. 64 West","name":""},
  {"lat":32.067596,"lon":-96.508089,"city":"Corsicana","state":"TX","address":"3831 West Hwy. 31","name":""},
  {"lat":33.68231,"lon":-93.613091,"city":"Hope","state":"AR","address":"2402 N. Hervey","name":""},
  {"lat":33.594446,"lon":-102.36243,"city":"Levelland","state":"TX","address":"401 East Hwy. 114","name":""},
  {"lat":34.172526,"lon":-92.005976,"city":"Pine Bluff","state":"AR","address":"5601 South Olive Street","name":""},
  {"lat":35.930095,"lon":-85.487089,"city":"Sparta","state":"TN","address":"149 Sam Walton Dr","name":""},
  {"lat":36.250704,"lon":-90.963265,"city":"Pocahontas","state":"AR","address":"1413 Hwy 67 S.","name":""},
  {"lat":37.06074,"lon":-93.302394,"city":"Nixa","state":"MO","address":"1106 N. Massey Blvd","name":""},
  {"lat":34.1947,"lon":-101.750961,"city":"Plainview","state":"TX","address":"4001 W. 15th","name":""},
  {"lat":32.648249,"lon":-96.535744,"city":"Seagoville","state":"TX","address":"200 North Hwy. 175","name":""},
  {"lat":29.938688,"lon":-93.938356,"city":"Port Arthur","state":"TX","address":"4995 Twin City Hwy.","name":""},
  {"lat":37.924802,"lon":-90.773918,"city":"Potosi","state":"MO","address":"2 Memorial Drive","name":""},
  {"lat":36.91345,"lon":-93.904049,"city":"Monett","state":"MO","address":"879 E. US Hwy 60","name":""},
  {"lat":32.284275,"lon":-90.045944,"city":"Pearl","state":"MS","address":"5528 Hwy. 80 East","name":""},
  {"lat":34.838534,"lon":-102.405878,"city":"Hereford","state":"TX","address":"625 N 25 Mile Ave","name":""},
  {"lat":27.768389,"lon":-98.041195,"city":"Alice","state":"TX","address":"2911 E. Main St.","name":""},
  {"lat":30.25626,"lon":-94.21571,"city":"Lumberton","state":"TX","address":"90 North LHS Drive","name":""},
  {"lat":33.276439,"lon":-93.214141,"city":"Magnolia","state":"AR","address":"58 Hwy. 79 Bypass N.","name":""},
  {"lat":30.304519,"lon":-89.384388,"city":"Waveland","state":"MS","address":"458 Hwy. 90","name":""},
  {"lat":35.448976,"lon":-94.802189,"city":"Sallisaw","state":"OK","address":"1006 W. Ruth Avenue","name":""},
  {"lat":32.387283,"lon":-93.817115,"city":"Shreveport","state":"LA","address":"9570 Mansfield Road","name":""},
  {"lat":30.382959,"lon":-87.683792,"city":"Foley","state":"AL","address":"2180 S. McKenzie St","name":""},
  {"lat":33.439887,"lon":-86.081775,"city":"Talladega","state":"AL","address":"210 Haynes Street","name":""},
  {"lat":33.588172,"lon":-86.701365,"city":"Birmingham","state":"AL","address":"121 Roebuck Plaza Drive","name":""},
  {"lat":30.763026,"lon":-88.227378,"city":"Semmes","state":"AL","address":"7855-A Moffett Road","name":""},
  {"lat":34.521134,"lon":-85.314202,"city":"Trion","state":"GA","address":"13425 Hwy. 27","name":""},
  {"lat":33.116705,"lon":-83.262348,"city":"Milledgeville","state":"GA","address":"2586 North Columbia Street","name":""},
  {"lat":33.16415,"lon":-85.36621,"city":"Roanoke","state":"AL","address":"4214 Hwy. 431","name":""},
  {"lat":34.763393,"lon":-86.593399,"city":"Huntsville","state":"AL","address":"2150 Sparkman Dr. NW","name":""},
  {"lat":34.791464,"lon":-84.997236,"city":"Dalton","state":"GA","address":"885 Shugart Road","name":""},
  {"lat":31.751961,"lon":-106.342562,"city":"El Paso","state":"TX","address":"10655 Gateway Blvd. West","name":""},
  {"lat":29.94413,"lon":-93.99279,"city":"Port Arthur","state":"TX","address":"8595 Memorial Blvd","name":""},
  {"lat":29.970716,"lon":-92.095148,"city":"Abbeville","state":"LA","address":"3007 Veterans Memorial Dr., Hwy. 14","name":""},
  {"lat":33.443149,"lon":-88.850672,"city":"Starkville","state":"MS","address":"1012 Hwy. 12 W.","name":""},
  {"lat":32.908403,"lon":-96.578314,"city":"Rowlett","state":"TX","address":"2505 Lakeview Parkway","name":""},
  {"lat":29.423731,"lon":-95.230133,"city":"Alvin","state":"TX","address":"1580 E. Hwy. 6","name":""},
  {"lat":33.957901,"lon":-80.389747,"city":"Sumter","state":"SC","address":"2350 Wal-Mart Blvd.","name":""},
  {"lat":31.241882,"lon":-89.813326,"city":"Columbia","state":"MS","address":"955 Hwy. 98 Bypass","name":""},
  {"lat":35.513167,"lon":-86.45485,"city":"Shelbyville","state":"TN","address":"1890 North Main Street","name":""},
  {"lat":32.39347,"lon":-94.8637,"city":"Kilgore","state":"TX","address":"1209 Southport Road","name":""},
  {"lat":33.273046,"lon":-84.293893,"city":"Griffin","state":"GA","address":"1469 North Expressway","name":""},
  {"lat":35.656324,"lon":-88.410609,"city":"Lexington","state":"TN","address":"559 W. Church Street","name":""},
  {"lat":34.9818,"lon":-78.964203,"city":"Hope Mills","state":"NC","address":"3050 N. Main St","name":""},
  {"lat":31.998301,"lon":-81.257301,"city":"Savannah","state":"GA","address":"6004 Ogeechee Rd.","name":""},
  {"lat":34.351484,"lon":-82.905554,"city":"Hartwell","state":"GA","address":"1570 Anderson Highway","name":""},
  {"lat":33.648452,"lon":-86.824544,"city":"Gardendale","state":"AL","address":"916 Odum Road","name":""},
  {"lat":32.635639,"lon":-85.422333,"city":"Opelika","state":"AL","address":"2950 Pepperell Parkway","name":""},
  {"lat":34.342815,"lon":-86.502562,"city":"Arab","state":"AL","address":"1468 Brindlee Mountain Parkway","name":""},
  {"lat":29.39658,"lon":-100.90418,"city":"Del Rio","state":"TX","address":"2427 Veterans BLVD","name":""},
  {"lat":35.45893,"lon":-85.046483,"city":"Dayton","state":"TN","address":"130 Sam Walton Drive","name":""},
  {"lat":35.99109,"lon":-95.797879,"city":"Broken Arrow","state":"OK","address":"6312 S. Elm Place","name":""},
  {"lat":30.557872,"lon":-84.593587,"city":"Quincy","state":"FL","address":"1880 Pat Thomas Parkway","name":""},
  {"lat":29.996495,"lon":-95.483806,"city":"Houston","state":"TX","address":"3500 FM 1960 W.","name":""},
  {"lat":29.26317,"lon":-94.833588,"city":"Galveston","state":"TX","address":"6810 Seawall Blvd","name":""},
  {"lat":29.87738,"lon":-95.650018,"city":"Houston","state":"TX","address":"6914 Lakeview Haven Drive","name":""},
  {"lat":25.85742,"lon":-80.323391,"city":"Hialeah Gardens","state":"FL","address":"9203 NW 77th Avenue","name":""},
  {"lat":30.427483,"lon":-84.216104,"city":"Tallahassee","state":"FL","address":"3501 Apalachee Parkway","name":""},
  {"lat":31.6853,"lon":-96.454954,"city":"Mexia","state":"TX","address":"1410 E. Milam","name":""},
  {"lat":35.227189,"lon":-89.847107,"city":"Bartlett","state":"TN","address":"6506 Memphis Arlington Rd","name":""},
  {"lat":37.127677,"lon":-93.461103,"city":"Republic","state":"MO","address":"1140 US HWY 60 E","name":""},
  {"lat":31.68805,"lon":-88.631724,"city":"Waynesboro","state":"MS","address":"1350-A Azalea Drive","name":""},
  {"lat":30.389475,"lon":-87.065259,"city":"Gulf Breeze","state":"FL","address":"3789 Gulf Breeze Parkway","name":""},
  {"lat":31.17771,"lon":-85.402727,"city":"Dothan","state":"AL","address":"3370 S. Oates","name":""},
  {"lat":39.737647,"lon":-94.801789,"city":"St. Joseph","state":"MO","address":"3018 S. Belt Hwy","name":""},
  {"lat":29.906127,"lon":-90.370474,"city":"Boutte","state":"LA","address":"12953 Hwy 90","name":""},
  {"lat":41.644749,"lon":-93.503732,"city":"Altoona","state":"IA","address":"3405 8th St. SW","name":""},
  {"lat":41.948058,"lon":-91.716755,"city":"Cedar Rapids","state":"IA","address":"3030 Edgewood Road SW","name":""},
  {"lat":30.323827,"lon":-82.966513,"city":"Live Oak","state":"FL","address":"7000 US Hwy. 129 N.","name":""},
  {"lat":32.339135,"lon":-97.412747,"city":"Cleburne","state":"TX","address":"1614 W. Henderson","name":""},
  {"lat":31.951207,"lon":-95.264315,"city":"Jacksonville","state":"TX","address":"1315 S. Jackson Street","name":""},
  {"lat":35.110062,"lon":-84.006274,"city":"Murphy","state":"NC","address":"2336 US Hwy 19","name":""},
  {"lat":34.454338,"lon":-86.947588,"city":"Hartselle","state":"AL","address":"1213 US Hwy 31 NW","name":""},
  {"lat":31.868115,"lon":-89.745088,"city":"Magee","state":"MS","address":"1623 Simpson Hwy 49","name":""},
  {"lat":30.752954,"lon":-85.549735,"city":"Chipley","state":"FL","address":"1623 Main St","name":""},
  {"lat":32.29015,"lon":-90.267417,"city":"Jackson","state":"MS","address":"2709 Greenway Drive","name":""},
  {"lat":29.59019,"lon":-98.355976,"city":"San Antonio","state":"TX","address":"16501 Nacogdoches Rd","name":""},
  {"lat":36.626315,"lon":-88.315374,"city":"Murray","state":"KY","address":"807 N. 12th Street","name":""},
  {"lat":34.681784,"lon":-86.740301,"city":"Madison","state":"AL","address":"8600 Madison Blvd","name":""},
  {"lat":30.093171,"lon":-93.765993,"city":"West Orange","state":"TX","address":"3117 Edgar Brown Drive","name":""},
  {"lat":34.616822,"lon":-86.568878,"city":"Huntsville","state":"AL","address":"11610-A Memorial Parkway South","name":""},
  {"lat":36.063441,"lon":-89.395179,"city":"Dyersburg","state":"TN","address":"2640 Lake Road","name":""},
  {"lat":34.745368,"lon":-87.673543,"city":"Muscle Shoals","state":"AL","address":"311 West Avalon Ave","name":""},
  {"lat":30.503448,"lon":-90.493571,"city":"Hammond","state":"LA","address":"2805 West Thomas Street","name":""},
  {"lat":31.756849,"lon":-106.272562,"city":"El Paso","state":"TX","address":"1820 N. Zaragoza Road","name":""},
  {"lat":32.545109,"lon":-95.857228,"city":"Canton","state":"TX","address":"601 E. Hwy. 243","name":""},
  {"lat":33.967241,"lon":-88.457715,"city":"Amory","state":"MS","address":"1517 US Hwy 278E","name":""},
  {"lat":32.548292,"lon":-93.708832,"city":"Bossier City","state":"LA","address":"2552 Airline Drive","name":""},
  {"lat":31.214705,"lon":-81.484981,"city":"Brunswick","state":"GA","address":"136 Altama Connector","name":""},
  {"lat":33.785346,"lon":-78.769944,"city":"Myrtle Beach","state":"SC","address":"10826 Kings Road","name":""},
  {"lat":27.222991,"lon":-80.829471,"city":"Okeechobee","state":"FL","address":"2109 S. Parrot Avenue","name":""},
  {"lat":32.626788,"lon":-93.250252,"city":"Minden","state":"LA","address":"1383 Homer Road","name":""},
  {"lat":31.367621,"lon":-92.409135,"city":"Pineville","state":"LA","address":"3634 Monroe Hwy.","name":""},
  {"lat":31.778715,"lon":-85.938827,"city":"Troy","state":"AL","address":"1418 Hwy 231 S.","name":""},
  {"lat":32.331622,"lon":-96.134074,"city":"Gun Barrel City","state":"TX","address":"1190 West Main","name":""},
  {"lat":31.551844,"lon":-91.370931,"city":"Natchez","state":"MS","address":"304 Sergeant S. Prentiss Dr","name":""},
  {"lat":31.49073,"lon":-97.21225,"city":"Waco","state":"TX","address":"8515 Imperial DR","name":""},
  {"lat":36.357044,"lon":-92.340698,"city":"Mountain Home","state":"AR","address":"50 WalMart Drive","name":""},
  {"lat":31.445131,"lon":-83.542678,"city":"Tifton","state":"GA","address":"1852 US Hwy. 82 W.","name":""},
  {"lat":30.244986,"lon":-92.661092,"city":"Jennings","state":"LA","address":"323 West Interstate Dr.","name":""},
  {"lat":33.642966,"lon":-97.134117,"city":"Gainesville","state":"TX","address":"1525 N. Grand Avenue","name":""},
  {"lat":30.6593,"lon":-96.331112,"city":"Bryan","state":"TX","address":"2208 Briarcrest Drive","name":""},
  {"lat":33.106109,"lon":-95.596598,"city":"Sulphur Springs","state":"TX","address":"1760 S. Broadway Street","name":""},
  {"lat":27.89602,"lon":-97.305775,"city":"Portland","state":"TX","address":"2045 Hwy. 181","name":""},
  {"lat":29.211206,"lon":-82.06413,"city":"Ocala","state":"FL","address":"4986 East Silver Springs Blvd.","name":""},
  {"lat":35.77043,"lon":-95.372349,"city":"Muskogee","state":"OK","address":"1010 W. Shawnee St.","name":""},
  {"lat":34.220592,"lon":-85.132034,"city":"Rome","state":"GA","address":"741 Cartersville Hwy. SE","name":""},
  {"lat":33.79652,"lon":-83.743219,"city":"Monroe","state":"GA","address":"2040 Spring Street West","name":""},
  {"lat":34.301186,"lon":-78.722513,"city":"Whiteville","state":"NC","address":"102 Columbus Corners Dr.","name":""},
  {"lat":35.46845,"lon":-94.355306,"city":"Van Buren","state":"AR","address":"2210 Fayetteville Road","name":""},
  {"lat":31.800443,"lon":-94.192989,"city":"Center","state":"TX","address":"250 Rough Rider Drive","name":""},
  {"lat":30.60011,"lon":-97.418124,"city":"Taylor","state":"TX","address":"105 Carlos G. Parker Blvd.","name":""},
  {"lat":29.404153,"lon":-95.036385,"city":"La Marque","state":"TX","address":"6500 Interstate 45","name":""},
  {"lat":29.80887,"lon":-90.81616,"city":"Thibodaux","state":"LA","address":"412 N. Canal Blvd.","name":""},
  {"lat":30.162604,"lon":-85.591487,"city":"Callaway","state":"FL","address":"731 N. Tyndall Parkway","name":""},
  {"lat":38.779526,"lon":-93.736365,"city":"Warrensburg","state":"MO","address":"301 A. East Cooper Avenue","name":""},
  {"lat":32.229215,"lon":-101.469195,"city":"Big Spring","state":"TX","address":"201-A W. Marcy","name":""},
  {"lat":34.206224,"lon":-82.19124,"city":"Greenwood","state":"SC","address":"508A Bypass 72 NW","name":""},
  {"lat":32.764447,"lon":-96.895959,"city":"Dallas","state":"TX","address":"1545 N Cockrell Hill RD","name":""},
  {"lat":26.794228,"lon":-80.086097,"city":"Lake Park","state":"FL","address":"103 N. Congress Ave.","name":""},
  {"lat":30.527775,"lon":-87.274478,"city":"Pensacola","state":"FL","address":"8980 Pensacola Blvd.","name":""},
  {"lat":30.728585,"lon":-85.186079,"city":"Marianna","state":"FL","address":"2253 Hwy. 71S","name":""},
  {"lat":26.43576,"lon":-80.12261,"city":"Delray Beach","state":"FL","address":"16211 South Military Trail","name":""},
  {"lat":30.54194,"lon":-91.027855,"city":"Baton Rouge","state":"LA","address":"10250 Sullivan Rd.","name":""},
  {"lat":30.866294,"lon":-93.285923,"city":"DeRidder","state":"LA","address":"1123 N. Pine Street","name":""},
  {"lat":30.518766,"lon":-92.066106,"city":"Opelousas","state":"LA","address":"1615 Creswell Lane","name":""},
  {"lat":30.533309,"lon":-97.614098,"city":"Round Rock","state":"TX","address":"201 N Red Bud Ln.","name":""},
  {"lat":33.129219,"lon":-97.045116,"city":"Hickory Creek","state":"TX","address":"4200 FM 2181","name":""},
  {"lat":31.08257,"lon":-97.45897,"city":"Belton","state":"TX","address":"2670 North Main Street","name":""},
  {"lat":35.452444,"lon":-84.629374,"city":"Athens","state":"TN","address":"1813 Decatur Pike","name":""},
  {"lat":29.80806,"lon":-95.164472,"city":"Houston","state":"TX","address":"5745 E. Sam Houston Parkway N.","name":""},
  {"lat":30.180114,"lon":-82.675944,"city":"Lake City","state":"FL","address":"2659 W. US 90","name":""},
  {"lat":30.194924,"lon":-93.248419,"city":"Lake Charles","state":"LA","address":"3441 Nelson Road","name":""},
  {"lat":26.934009,"lon":-82.3105,"city":"Englewood","state":"FL","address":"2981 South McCall Rd.","name":""},
  {"lat":28.122057,"lon":-80.672679,"city":"Melbourne","state":"FL","address":"3006 Sarno Rd.","name":""},
  {"lat":28.554385,"lon":-80.844551,"city":"Titusville","state":"FL","address":"3350 Columbia Blvd.","name":""},
  {"lat":29.756856,"lon":-96.151164,"city":"Sealy","state":"TX","address":"216 Schmidt Rd.","name":""},
  {"lat":32.743531,"lon":-96.447741,"city":"Forney","state":"TX","address":"802-A East Highway 80","name":""},
  {"lat":32.90035,"lon":-96.461708,"city":"Rockwall","state":"TX","address":"776 East Interstate 30","name":""},
  {"lat":26.192089,"lon":-98.133628,"city":"Alamo","state":"TX","address":"626 N. Cesar Chavez Rd.","name":""},
  {"lat":33.600592,"lon":-85.834428,"city":"Oxford","state":"AL","address":"45 Plaza Ln.","name":""},
  {"lat":42.343275,"lon":-87.895779,"city":"Waukegan","state":"IL","address":"3850 Fountain Square Place","name":""},
  {"lat":42.670423,"lon":-83.008989,"city":"Shelby Township","state":"MI","address":"12223 23 Mile Road","name":""},
  {"lat":34.358721,"lon":-80.061143,"city":"Hartsville","state":"SC","address":"1100 S. 4th St.","name":""},
  {"lat":36.803154,"lon":-89.991945,"city":"Dexter","state":"MO","address":"2027 Highway Business 60 West","name":""},
  {"lat":31.265933,"lon":-85.442038,"city":"Dothan","state":"AL","address":"4454 Montgomery Hwy.","name":""},
  {"lat":29.441805,"lon":-98.640708,"city":"San Antonio","state":"TX","address":"7639 NW Loop 410","name":""},
  {"lat":30.387818,"lon":-86.448782,"city":"Destin","state":"FL","address":"15051 Emerald Coast Parkway","name":""},
  {"lat":35.139941,"lon":-80.733773,"city":"Charlotte","state":"NC","address":"2010 Galleria Blvd.","name":""},
  {"lat":44.275959,"lon":-83.504522,"city":"Tawas City","state":"MI","address":"611 East Lake St.","name":""},
  {"lat":33.235745,"lon":-86.803765,"city":"Alabaster","state":"AL","address":"560 Colonial Promenade Pkwy.","name":""},
  {"lat":30.014778,"lon":-95.592732,"city":"Tomball","state":"TX","address":"22611 State Hwy. 249","name":""},
  {"lat":29.603625,"lon":-98.277941,"city":"Schertz","state":"TX","address":"17601 Four Oaks Ln.","name":""},
  {"lat":30.331706,"lon":-90.985346,"city":"Prairieville","state":"LA","address":"17609 Airline Hwy.","name":""},
  {"lat":29.54683,"lon":-95.233247,"city":"Pearland","state":"TX","address":"3200 Dixie Farm Road","name":""},
  {"lat":29.64928,"lon":-95.16162,"city":"Pasadena","state":"TX","address":"5204 Fairmont Parkway","name":""},
  {"lat":31.73467,"lon":-95.616171,"city":"Palestine","state":"TX","address":"2217 S. Loop 256","name":""},
  {"lat":32.787475,"lon":-96.597866,"city":"Mesquite","state":"TX","address":"1807 Range Dr.","name":""},
  {"lat":32.5577,"lon":-94.350533,"city":"Marshall","state":"TX","address":"1605 East End Blvd.","name":""},
  {"lat":33.591899,"lon":-101.857376,"city":"Lubbock","state":"TX","address":"1809 Marsha Sharp Fwy","name":""},
  {"lat":32.754986,"lon":-97.711379,"city":"Hudson Oaks","state":"TX","address":"125 S. OakridgeDr.","name":""},
  {"lat":29.630502,"lon":-95.23461,"city":"Houston","state":"TX","address":"9612 Rowlett Rd.","name":""},
  {"lat":29.665264,"lon":-95.098877,"city":"La Porte","state":"TX","address":"4926 East Blvd.","name":""},
  {"lat":32.600498,"lon":-96.945426,"city":"Cedar Hill","state":"TX","address":"605 Uptown Blvd.","name":""},
  {"lat":32.645348,"lon":-97.116172,"city":"Arlington","state":"TX","address":"701 W. Sublett Rd.","name":""},
  {"lat":31.854273,"lon":-102.410891,"city":"Odessa","state":"TX","address":"2400 NW Loop 338","name":""},
  {"lat":29.782434,"lon":-95.802479,"city":"Katy","state":"TX","address":"25104 Market Place Dr.","name":""},
  {"lat":27.438868,"lon":-82.457881,"city":"Bradenton","state":"FL","address":"5760 Ranch Lake Blvd.","name":""},
  {"lat":28.475904,"lon":-81.397149,"city":"Orlando","state":"FL","address":"5736 S. Orange Blossom Trail","name":""},
  {"lat":32.647619,"lon":-96.944044,"city":"Dallas","state":"TX","address":"7035 W. Wheatland Rd.","name":""},
  {"lat":30.53413,"lon":-97.787888,"city":"Cedar Park","state":"TX","address":"2741 E. Whitestone Blvd.","name":""},
  {"lat":29.902513,"lon":-96.905036,"city":"La Grange","state":"TX","address":"1871 W State Hwy 71","name":""},
  {"lat":32.733051,"lon":-97.793505,"city":"Weatherford","state":"TX","address":"1832 S. Main","name":""},
  {"lat":36.006237,"lon":-84.025092,"city":"Knoxville","state":"TN","address":"6783 Clinton Highway","name":""},
  {"lat":34.862289,"lon":-83.999441,"city":"Blairsville","state":"GA","address":"2257B GA. .Hwy. 515","name":""},
  {"lat":43.177687,"lon":-85.290899,"city":"Greenville","state":"MI","address":"10780 West Carson City Rd","name":""},
  {"lat":29.818761,"lon":-94.898203,"city":"Baytown","state":"TX","address":"8800 N SH 146","name":""},
  {"lat":25.950885,"lon":-97.480216,"city":"Brownsville","state":"TX","address":"2215 Ruben M Torres Blvd.","name":""},
  {"lat":29.132849,"lon":-98.895983,"city":"Devine","state":"TX","address":"146 Oak Hill Drive","name":""},
  {"lat":26.286697,"lon":-97.992701,"city":"Elsa","state":"TX","address":"431 South Broadway Ave.","name":""},
  {"lat":32.592998,"lon":-96.821665,"city":"Lancaster","state":"TX","address":"170 N. Beckley","name":""},
  {"lat":31.299555,"lon":-94.729093,"city":"Lufkin","state":"TX","address":"2500-B Daniel McCall Dr","name":""},
  {"lat":29.77765,"lon":-98.726265,"city":"Boerne","state":"TX","address":"1379 S. Main","name":""},
  {"lat":31.728949,"lon":-98.983192,"city":"Brownwood","state":"TX","address":"403 W. Commerce","name":""},
  {"lat":28.701211,"lon":-100.482877,"city":"Eagle Pass","state":"TX","address":"490 S. Bibb","name":""},
  {"lat":28.939631,"lon":-98.512791,"city":"Pleasanton","state":"TX","address":"2145 W. Oaklawn","name":""},
  {"lat":32.448809,"lon":-93.867115,"city":"Shreveport","state":"LA","address":"6241 Westport Avenue","name":""},
  {"lat":26.174089,"lon":-97.989734,"city":"Weslaco","state":"TX","address":"215 E. Expressway 83","name":""},
  {"lat":27.490957,"lon":-97.854213,"city":"Kingsville","state":"TX","address":"1127 E. General Cavazos Blvd.","name":""},
  {"lat":38.482412,"lon":-77.973365,"city":"Culpeper","state":"VA","address":"16100 Ira Hoffman Lane","name":""},
  {"lat":31.680327,"lon":-106.199027,"city":"Horizon City","state":"TX","address":"165 S. Darrington Road","name":""},
  {"lat":34.576877,"lon":-83.760085,"city":"Cleveland","state":"GA","address":"302 Donald E Thurmond Pky","name":""},
  {"lat":37.352224,"lon":-77.482676,"city":"Chester","state":"VA","address":"11800 Iron Bridge Plaza","name":""},
  {"lat":33.055451,"lon":-96.695985,"city":"Plano","state":"TX","address":"6005 Central Expressway","name":""},
  {"lat":26.181504,"lon":-98.040333,"city":"Donna","state":"TX","address":"2001 Murphy Ave.","name":""},
  {"lat":33.468537,"lon":-82.070195,"city":"Augusta","state":"GA","address":"3334 Wrightsboro Rd","name":""},
  {"lat":30.468783,"lon":-97.789847,"city":"Austin","state":"TX","address":"9926 Lake Creek Pkwy","name":""},
  {"lat":37.27763,"lon":-78.399655,"city":"Farmville","state":"VA","address":"1804 Peery Drive","name":""},
  {"lat":35.764737,"lon":-91.613144,"city":"Batesville","state":"AR","address":"3162 Harrison","name":""},
  {"lat":39.158143,"lon":-78.171249,"city":"Winchester","state":"VA","address":"2302 South Pleasant Valley Road","name":""},
  {"lat":37.323886,"lon":-79.871849,"city":"Roanoke","state":"VA","address":"4530 Challenger Avenue","name":""},
  {"lat":37.399131,"lon":-76.526937,"city":"Gloucester Point","state":"VA","address":"6819 Waltons Lane","name":""},
  {"lat":38.680539,"lon":-84.596313,"city":"Dry Ridge","state":"KY","address":"10 Ferguson Blvd.","name":""},
  {"lat":26.367368,"lon":-98.794607,"city":"Rio Grande City","state":"TX","address":"4530 E. Hwy 83","name":""},
  {"lat":27.739746,"lon":-97.438911,"city":"Corpus Christi","state":"TX","address":"1801 S Padre Island Dr","name":""},
  {"lat":27.85394,"lon":-97.631266,"city":"Corpus Christi","state":"TX","address":"3837 IH 69 Access Rd.","name":""},
  {"lat":37.014812,"lon":-79.864988,"city":"Rocky Mount","state":"VA","address":"552 Old Franklin Turnpike","name":""},
  {"lat":31.522244,"lon":-97.167177,"city":"Waco","state":"TX","address":"200 S. New Road","name":""},
  {"lat":36.708884,"lon":-78.106878,"city":"South Hill","state":"VA","address":"1143 E Atlantic St","name":""},
  {"lat":32.8405,"lon":-96.598015,"city":"Garland","state":"TX","address":"525 West Interstate 30","name":""},
  {"lat":38.957315,"lon":-85.864809,"city":"Seymour","state":"IN","address":"1552 East Tipton","name":""},
  {"lat":41.666376,"lon":-86.890441,"city":"Michigan City","state":"IN","address":"250 E. Kieffer Road","name":""},
  {"lat":33.704493,"lon":-78.911736,"city":"Myrtle Beach","state":"SC","address":"865 Oak Forest Lane","name":""},
  {"lat":37.27287,"lon":-87.143414,"city":"Central City","state":"KY","address":"1723 W Everly Brothers Blvd","name":""},
  {"lat":35.225281,"lon":-80.891998,"city":"Charlotte","state":"NC","address":"2760 Ashley Road","name":""},
  {"lat":31.136922,"lon":-83.441361,"city":"Adel","state":"GA","address":"129 Alabama Rd","name":""},
  {"lat":35.714446,"lon":-78.845212,"city":"Apex","state":"NC","address":"3211 Apex Peakway","name":""},
  {"lat":34.913867,"lon":-76.938677,"city":"Havelock","state":"NC","address":"568 US 70 Hwy West","name":""},
  {"lat":35.078321,"lon":-80.652459,"city":"Indian Trail","state":"NC","address":"14049 E Independence Blvd","name":""},
  {"lat":41.513534,"lon":-87.957273,"city":"New Lenox","state":"IL","address":"431 E. Lincoln Hwy.","name":""},
  {"lat":38.395994,"lon":-85.3745,"city":"La Grange","state":"KY","address":"1021 New Moody Lane","name":""},
  {"lat":37.824959,"lon":-92.154843,"city":"St. Robert","state":"MO","address":"195 St Robert Boulevard","name":""},
  {"lat":36.881317,"lon":-76.429596,"city":"Suffolk","state":"VA","address":"6261 College Dr","name":""},
  {"lat":37.112137,"lon":-84.092161,"city":"London","state":"KY","address":"1823 W Hwy 192","name":""},
  {"lat":45.024014,"lon":-84.691533,"city":"Gaylord","state":"MI","address":"859 Edelweiss Parkway","name":""},
  {"lat":42.581707,"lon":-84.803792,"city":"Charlotte","state":"MI","address":"1686 Packard Hwy","name":""},
  {"lat":42.210558,"lon":-88.284803,"city":"Crystal Lake","state":"IL","address":"985 Central Park Dr.","name":""},
  {"lat":39.044994,"lon":-94.44116,"city":"Kansas City","state":"MO","address":"11701 East State Highway 40","name":""},
  {"lat":32.274841,"lon":-95.308186,"city":"Tyler","state":"TX","address":"187 W South Town Drive","name":""},
  {"lat":25.936672,"lon":-80.205203,"city":"Miami Gardens","state":"FL","address":"17680 NW 2nd Ave.","name":""},
  {"lat":42.464927,"lon":-87.866901,"city":"Zion","state":"IL","address":"4010 Route 173","name":""},
  {"lat":41.953746,"lon":-83.396784,"city":"Monroe","state":"MI","address":"2262 N. Telegraph Road","name":""},
  {"lat":36.414362,"lon":-89.078208,"city":"Union City","state":"TN","address":"1429 West Reelfoot Ave.","name":""},
  {"lat":26.070548,"lon":-97.223037,"city":"Port Isabel","state":"TX","address":"1405 Hwy 100","name":""},
  {"lat":29.828697,"lon":-95.377785,"city":"Houston","state":"TX","address":"45 E. Crosstimbers","name":""},
  {"lat":32.864275,"lon":-97.103859,"city":"Bedford","state":"TX","address":"4109 State Highway 121","name":""},
  {"lat":35.017661,"lon":-85.375831,"city":"Chattanooga","state":"TN","address":"3538 Cummings Highway","name":""},
  {"lat":32.205335,"lon":-98.238174,"city":"Stephenville","state":"TX","address":"151 Wolfe Nursery Road","name":""},
  {"lat":37.729564,"lon":-88.535136,"city":"Harrisburg","state":"IL","address":"611 Rollie Moore Dr.","name":""},
  {"lat":33.074609,"lon":-97.079305,"city":"Highland Village","state":"TX","address":"100 Marketplace Lane","name":""},
  {"lat":35.274009,"lon":-87.316969,"city":"Lawrenceburg","state":"TN","address":"2148 N. Locust Ave.","name":""},
  {"lat":35.092814,"lon":-85.331034,"city":"Chattanooga","state":"TN","address":"463 Signal Mountain Rd","name":""},
  {"lat":42.396623,"lon":-88.065885,"city":"Round Lake Beach","state":"IL","address":"2676 North Route 83","name":""},
  {"lat":41.548174,"lon":-88.201503,"city":"Shorewood","state":"IL","address":"1481 Brooke Forest Ave","name":""},
  {"lat":42.297818,"lon":-88.425326,"city":"Woodstock","state":"IL","address":"1265 Lake Avenue","name":""},
  {"lat":37.616054,"lon":-84.773331,"city":"Danville","state":"KY","address":"110 Walton Ave","name":""},
  {"lat":38.127571,"lon":-85.778859,"city":"Louisville","state":"KY","address":"185 Outer Loop","name":""},
  {"lat":30.105619,"lon":-95.234824,"city":"Porter","state":"TX","address":"23593 US Hwy 59","name":""},
  {"lat":33.092832,"lon":-96.108572,"city":"Greenville","state":"TX","address":"7701 Wesley Street","name":""},
  {"lat":34.745586,"lon":-89.457948,"city":"Holly Springs","state":"MS","address":"280 Alexander Dr.","name":""},
  {"lat":33.576318,"lon":-83.961946,"city":"Covington","state":"GA","address":"4230 Salem Rd","name":""},
  {"lat":34.495592,"lon":-87.279142,"city":"Moulton","state":"AL","address":"15441 Hwy 24","name":""},
  {"lat":31.979855,"lon":-102.111155,"city":"Midland","state":"TX","address":"3601 West Wall St","name":""},
  {"lat":37.858867,"lon":-87.566563,"city":"Henderson","state":"KY","address":"1135 Barret Blvd.","name":""},
  {"lat":30.458301,"lon":-88.894584,"city":"D'Iberville","state":"MS","address":"3599 Sangani Blvd","name":""},
  {"lat":30.104093,"lon":-97.333629,"city":"Bastrop","state":"TX","address":"490 Agnes St","name":""},
  {"lat":34.361693,"lon":-89.564203,"city":"Oxford","state":"MS","address":"2528 Jackson Ave","name":""},
  {"lat":32.352447,"lon":-90.023169,"city":"Flowood","state":"MS","address":"5339 Hwy 25","name":""},
  {"lat":30.139044,"lon":-81.7711,"city":"Orange Park","state":"FL","address":"909 Blanding Blvd","name":""},
  {"lat":36.065276,"lon":-95.743271,"city":"Broken Arrow","state":"OK","address":"3800 Hillside Drive","name":""},
  {"lat":37.041459,"lon":-76.381145,"city":"Hampton","state":"VA","address":"1965 Cunningham Drive","name":""},
  {"lat":39.241941,"lon":-94.460976,"city":"Kansas City","state":"MO","address":"8281 N Church Rd","name":""},
  {"lat":29.469635,"lon":-90.322892,"city":"Cut Off","state":"LA","address":"310 Hwy 3162","name":""},
  {"lat":32.327816,"lon":-86.23284,"city":"Montgomery","state":"AL","address":"3809 Eastern Blvd.","name":""},
  {"lat":33.562343,"lon":-86.520677,"city":"Leeds","state":"AL","address":"8559 Whitfield Ave","name":""},
  {"lat":33.908723,"lon":-84.490775,"city":"Marietta","state":"GA","address":"1787 Cobb Parkway South","name":""},
  {"lat":34.087684,"lon":-83.99126,"city":"Buford","state":"GA","address":"3853 Buford Drive","name":""},
  {"lat":31.277797,"lon":-92.453832,"city":"Alexandria","state":"LA","address":"2052 North Mall Drive","name":""},
  {"lat":33.773567,"lon":-84.602588,"city":"Lithia Springs","state":"GA","address":"1098 Thornton Rd","name":""},
  {"lat":30.71438,"lon":-94.955217,"city":"Livingston","state":"TX","address":"1616 W. Church St","name":""},
  {"lat":33.349517,"lon":-86.618415,"city":"Chelsea","state":"AL","address":"16073 Highway 280","name":""},
  {"lat":29.116741,"lon":-81.021809,"city":"Port Orange","state":"FL","address":"1596 Dunlawton Avenue","name":""},
  {"lat":33.36266,"lon":-87.000223,"city":"Bessemer","state":"AL","address":"756 Academy Drive","name":""},
  {"lat":35.218637,"lon":-93.164831,"city":"Dardanelle","state":"AR","address":"1126 N State Highway 7","name":""},
  {"lat":31.262156,"lon":-90.47213,"city":"McComb","state":"MS","address":"1608 Veterans Blvd. Lot 1","name":""},
  {"lat":35.928065,"lon":-81.527659,"city":"Lenoir","state":"NC","address":"915 Blowing Rock Blvd NW","name":""},
  {"lat":32.77225,"lon":-92.393844,"city":"Farmerville","state":"LA","address":"839 Sterlington Highway","name":""},
  {"lat":30.437045,"lon":-91.007114,"city":"Baton Rouge","state":"LA","address":"2211 ONeal LN","name":""},
  {"lat":31.118962,"lon":-93.271864,"city":"Leesville","state":"LA","address":"2208 South 5th St","name":""},
  {"lat":38.173816,"lon":-85.871551,"city":"Louisville","state":"KY","address":"7000 Raggard Road","name":""},
  {"lat":41.456238,"lon":-87.031489,"city":"Valparaiso","state":"IN","address":"2410 Morthland Drive","name":""},
  {"lat":39.72241,"lon":-90.270827,"city":"Jacksonville","state":"IL","address":"1951 W. Morton Avenue","name":""},
  {"lat":36.654564,"lon":-76.232031,"city":"Chesapeake","state":"VA","address":"205 Hillcrest Parkway","name":""},
  {"lat":29.787305,"lon":-95.46644,"city":"Houston","state":"TX","address":"1104 Silber Road","name":""},
  {"lat":26.628937,"lon":-80.08445,"city":"Palm Springs","state":"FL","address":"2745 10th Avenue North","name":""},
  {"lat":41.722108,"lon":-88.371653,"city":"Montgomery","state":"IL","address":"1927 US Route 30","name":""},
  {"lat":42.368334,"lon":-88.268859,"city":"Johnsburg","state":"IL","address":"2901 N. Richmond Road","name":""},
  {"lat":41.935246,"lon":-89.051077,"city":"Rochelle","state":"IL","address":"390 Coronado Drive","name":""},
  {"lat":34.87711,"lon":-84.322919,"city":"Blue Ridge","state":"GA","address":"445 Progress Circle","name":""},
  {"lat":29.856021,"lon":-97.667667,"city":"Lockhart","state":"TX","address":"1910 S. Colorado Street","name":""},
  {"lat":28.832539,"lon":-97.865247,"city":"Kenedy","state":"TX","address":"125 Business Park Drive","name":""},
  {"lat":37.366353,"lon":-78.838755,"city":"Appomattox","state":"VA","address":"423 Oakville Road","name":""},
  {"lat":33.240593,"lon":-92.666164,"city":"El Dorado","state":"AR","address":"2720 N. West Ave","name":""},
  {"lat":30.598809,"lon":-96.301758,"city":"College Station","state":"TX","address":"2220 Harvey Mitchell Parkway South","name":""},
  {"lat":36.472006,"lon":-86.676029,"city":"White House","state":"TN","address":"215 Wilkinson Lane","name":""},
  {"lat":36.299196,"lon":-96.463603,"city":"Cleveland","state":"OK","address":"600. S. Broadway Ave.","name":""},
  {"lat":31.805424,"lon":-106.260344,"city":"El Paso","state":"TX","address":"12801 Tierra Este Rd","name":""},
  {"lat":41.099135,"lon":-81.384082,"city":"Kent","state":"OH","address":"262 Tallmadge Rd","name":""},
  {"lat":29.535529,"lon":-95.520012,"city":"Missouri City","state":"TX","address":"9727 Highway 6","name":""},
  {"lat":41.275339,"lon":-80.774434,"city":"Cortland","state":"OH","address":"2021 Millennium Boulevard","name":""},
  {"lat":41.688065,"lon":-86.059712,"city":"Elkhart","state":"IN","address":"30898 Old US 20","name":""},
  {"lat":35.72074,"lon":-81.35083,"city":"Hickory","state":"NC","address":"575 Hwy 70 SW","name":""},
  {"lat":41.078507,"lon":-87.861447,"city":"Kankakee","state":"IL","address":"507 Riverstone Parkway","name":""},
  {"lat":30.291282,"lon":-91.912258,"city":"Breaux Bridge","state":"LA","address":"505 Latiolais Rd.","name":""},
  {"lat":30.561884,"lon":-90.95637,"city":"Denham Springs","state":"LA","address":"34057 Hwy 16","name":""},
  {"lat":33.778424,"lon":-86.431314,"city":"Springville","state":"AL","address":"138 Springville Station Blvd.","name":""},
  {"lat":30.522609,"lon":-87.85165,"city":"Fairhope","state":"AL","address":"20390 AL State Hwy. 181","name":""},
  {"lat":30.889585,"lon":-84.568494,"city":"Bainbridge","state":"GA","address":"502 E. Alice St.","name":""},
  {"lat":32.167385,"lon":-94.367876,"city":"Carthage","state":"TX","address":"1501 Walton Spur","name":""},
  {"lat":35.861961,"lon":-97.424347,"city":"Guthrie","state":"OK","address":"1608 South Division Street","name":""},
  {"lat":32.495167,"lon":-86.400982,"city":"Millbrook","state":"AL","address":"35 Kelley Blvd","name":""},
  {"lat":32.357242,"lon":-86.133924,"city":"Montgomery","state":"AL","address":"10620 Chantilly Parkway","name":""},
  {"lat":35.994998,"lon":-80.031145,"city":"High Point","state":"NC","address":"2726 North Main St.","name":""},
  {"lat":31.653688,"lon":-106.289408,"city":"Socorro","state":"TX","address":"10361 Alameda Ave","name":""},
  {"lat":35.724911,"lon":-81.210637,"city":"Conover","state":"NC","address":"1209 NC Hwy 16","name":""},
  {"lat":27.194188,"lon":-82.488982,"city":"Osprey","state":"FL","address":"3901 Holy Spirit Lane","name":""},
  {"lat":34.991166,"lon":-78.352468,"city":"Clinton","state":"NC","address":"1453 Sunset Ave.","name":""},
  {"lat":33.354658,"lon":-84.119238,"city":"Locust Grove","state":"GA","address":"4969 Bill Gardner Pkwy.","name":""},
  {"lat":40.523805,"lon":-104.988779,"city":"Timnath","state":"CO","address":"4551 Weitzel Rd.","name":""},
  {"lat":29.164223,"lon":-98.178945,"city":"Floresville","state":"TX","address":"305 10th St., Bldg. B","name":""},
  {"lat":39.929181,"lon":-104.907325,"city":"Thornton","state":"CO","address":"12820 Oneida Street","name":""},
  {"lat":39.914771,"lon":-105.046714,"city":"Broomfield","state":"CO","address":"4620 W. 121st Ave.","name":""},
  {"lat":30.125928,"lon":-95.458857,"city":"Spring","state":"TX","address":"1045 Sawdust Rd","name":""},