{"key":"national_historic_site","displayName":"National Historic Sites","category":"entertainment","useLocationName":true,"locations":[
  {"lat":40.42977467,"lon":-78.57431622,"city":"Gallitzin","state":"PA","address":"","name":"Allegheny Portage Railroad National Historic Site"},
  {"lat":38.04962,"lon":-102.32903,"city":"Granada","state":"CO","address":"","name":"Amache National Historic Site"},
  {"lat":32.19831758,"lon":-84.12988898,"city":"Andersonville","state":"GA","address":"","name":"Andersonville National Historic Site"},
  {"lat":36.15624509,"lon":-82.83709021,"city":"Greeneville","state":"TN","address":"","name":"Andrew Johnson National Historic Site"},
  {"lat":38.03977546,"lon":-103.4266499,"city":"La Junta","state":"CO","address":"","name":"Bent's Old Fort National Historic Site"},
  {"lat":30.3057966497568,"lon":-104.022553112857,"city":"Marfa","state":"TX","address":"","name":"Blackwell School National Historic Site"},
  {"lat":42.35908295,"lon":-71.06764181,"city":"Boston","state":"MA","address":"","name":"Boston African American National Historic Site"},
  {"lat":35.26815509,"lon":-82.45106258,"city":"Flat Rock","state":"NC","address":"","name":"Carl Sandburg Home National Historic Site"},
  {"lat":38.91089286,"lon":-77.02431104,"city":"Washington","state":"DC","address":"","name":"Carter G. Woodson Home National Historic Site"},
  {"lat":32.84577392,"lon":-79.82487582,"city":"Mount Pleasant","state":"SC","address":"","name":"Charles Pinckney National Historic Site"},
  {"lat":17.7468,"lon":-64.7022,"city":"Christiansted","state":"VI","address":"","name":"Christiansted National Historic Site"},
  {"lat":38.96762882,"lon":-77.14009689,"city":"Glen Echo","state":"MD","address":"","name":"Clara Barton National Historic Site"},
  {"lat":39.96195482,"lon":-75.1500062,"city":"Philadelphia","state":"PA","address":"","name":"Edgar Allan Poe National Historic Site"},
  {"lat":39.79577592,"lon":-77.26508101,"city":"Gettysburg","state":"PA","address":"","name":"Eisenhower National Historic Site"},
  {"lat":41.76208482,"lon":-73.89894026,"city":"Hyde Park","state":"NY","address":"","name":"Eleanor Roosevelt National Historic Site"},
  {"lat":37.82604456,"lon":-122.0271566,"city":"Danville","state":"CA","address":"","name":"Eugene O'Neill National Historic Site"},
  {"lat":40.79689857,"lon":-81.37579869,"city":"Canton","state":"OH","address":"","name":"First Ladies National Historic Site"},
  {"lat":38.89668819,"lon":-77.02577944,"city":"Washington","state":"DC","address":"","name":"Ford's Theatre National Historic Site"},
  {"lat":32.14925942,"lon":-109.451132,"city":"Bowie","state":"AZ","address":"","name":"Fort Bowie National Historic Site"},
  {"lat":30.59930381,"lon":-103.8961904,"city":"Fort Davis","state":"TX","address":"","name":"Fort Davis National Historic Site"},
  {"lat":42.20301694,"lon":-104.5459112,"city":"Fort Laramie","state":"WY","address":"","name":"Fort Laramie National Historic Site"},
  {"lat":38.18047491,"lon":-99.21836664,"city":"Larned","state":"KS","address":"","name":"Fort Larned National Historic Site"},
  {"lat":37.80837439,"lon":-122.473747,"city":"San Francisco","state":"CA","address":"","name":"Fort Point National Historic Site"},
  {"lat":35.93278602,"lon":-75.71496865,"city":"Manteo","state":"NC","address":"","name":"Fort Raleigh National Historic Site"},
  {"lat":37.84358849,"lon":-94.70429174,"city":"Fort Scott","state":"KS","address":"","name":"Fort Scott National Historic Site"},
  {"lat":35.38834746,"lon":-94.43129079,"city":"Fort Smith","state":"AR","address":"","name":"Fort Smith National Historic Site"},
  {"lat":38.86298458,"lon":-76.98508147,"city":"Washington","state":"DC","address":"","name":"Frederick Douglass National Historic Site"},
  {"lat":42.32424266,"lon":-71.13202567,"city":"Brookline","state":"MA","address":"","name":"Frederick Law Olmsted National Historic Site"},
  {"lat":39.77543423,"lon":-79.92504169,"city":"Point Marion","state":"PA","address":"","name":"Friendship Hill National Historic Site"},
  {"lat":39.93435005,"lon":-75.14398924,"city":"Philadelphia","state":"PA","address":"","name":"Gloria Dei Church National Historic Site"},
  {"lat":46.41358923,"lon":-112.7467024,"city":"Deer Lodge","state":"MT","address":"","name":"Grant-Kohrs Ranch National Historic Site"},
  {"lat":39.4175296,"lon":-76.58781182,"city":"Towson","state":"MD","address":"","name":"Hampton National Historic Site"},
  {"lat":38.92711967,"lon":-94.5162488,"city":"Independence","state":"MO","address":"","name":"Harry S Truman National Historic Site"},
  {"lat":41.66793558,"lon":-91.35232139,"city":"West Branch","state":"IA","address":"","name":"Herbert Hoover National Historic Site"},
  {"lat":41.76639758,"lon":-73.92516857,"city":"Hyde Park","state":"NY","address":"","name":"Home Of Franklin D Roosevelt National Historic Site"},
  {"lat":21.38817536,"lon":-158.0574991,"city":"Honolulu","state":"HI","address":"","name":"Honouliuli National Historic Site"},
  {"lat":40.20610637,"lon":-75.76766355,"city":"Elverson","state":"PA","address":"","name":"Hopewell Furnace National Historic Site"},
  {"lat":35.70727324,"lon":-109.5599515,"city":"Ganado","state":"AZ","address":"","name":"Hubbell Trading Post National Historic Site"},
  {"lat":41.66486549,"lon":-81.35086557,"city":"Mentor","state":"OH","address":"","name":"James A Garfield National Historic Site"},
  {"lat":42.34693694,"lon":-71.12323846,"city":"Brookline","state":"MA","address":"","name":"John Fitzgerald Kennedy National Historic Site"},
  {"lat":37.9828422,"lon":-122.1326097,"city":"Martinez","state":"CA","address":"","name":"John Muir National Historic Site"},
  {"lat":47.3540219,"lon":-101.3860533,"city":"Stanton","state":"ND","address":"","name":"Knife River Indian Villages National Historic Site"},
  {"lat":39.79715642,"lon":-89.64513397,"city":"Springfield","state":"IL","address":"","name":"Lincoln Home National Historic Site"},
  {"lat":34.7369465,"lon":-92.29987899,"city":"Little Rock","state":"AR","address":"","name":"Little Rock Central High School National Historic Site"},
  {"lat":42.37698854,"lon":-71.12636956,"city":"Cambridge","state":"MA","address":"","name":"Longfellow House Washington's Headquarters National Historic Site"},
  {"lat":40.7187683,"lon":-73.99001245,"city":"New York City","state":"NY","address":"","name":"Lower East Side Tenement Museum National Historic Site"},
  {"lat":37.54781499,"lon":-77.43746979,"city":"Richmond","state":"VA","address":"","name":"Maggie L Walker National Historic Site"},
  {"lat":36.72559195,"lon":-118.1547177,"city":"Independence","state":"CA","address":"","name":"Manzanar National Historic Site"},
  {"lat":42.36819596,"lon":-73.70834257,"city":"Kinderhook","state":"NY","address":"","name":"Martin Van Buren National Historic Site"},
  {"lat":38.90819107,"lon":-77.03096742,"city":"Washington","state":"DC","address":"","name":"Mary McLeod Bethune Council House National Historic Site"},
  {"lat":42.678,"lon":-114.2465,"city":"Jerome","state":"ID","address":"","name":"Minidoka National Historic Site"},
  {"lat":43.89558013,"lon":-102.0272131,"city":"Philip","state":"SD","address":"","name":"Minuteman Missile National Historic Site"},
  {"lat":39.69803,"lon":-90.96131,"city":"Barry","state":"IL","address":"","name":"New Philadelphia National Historic Site"},
  {"lat":39.39167606,"lon":-99.61680329,"city":"Nicodemus","state":"KS","address":"","name":"Nicodemus National Historic Site"},
  {"lat":34.14273587,"lon":-82.01636079,"city":"Ninety Six","state":"SC","address":"","name":"Ninety Six National Historic Site"},
  {"lat":33.66758356,"lon":-93.59641868,"city":"Hope","state":"AR","address":"","name":"President William Jefferson Clinton Birthplace Home National Historic Site"},
  {"lat":20.02772186,"lon":-155.8211629,"city":"Kawaihae","state":"HI","address":"","name":"Puʻukoholā Heiau National Historic Site"},
  {"lat":40.88579128,"lon":-73.49686438,"city":"Oyster Bay","state":"NY","address":"","name":"Sagamore Hill National Historic Site"},
  {"lat":40.89283511,"lon":-73.82577276,"city":"Mount Vernon","state":"NY","address":"","name":"Saint Paul's Church National Historic Site"},
  {"lat":18.46873857,"lon":-66.11848623,"city":"San Juan","state":"PR","address":"","name":"San Juan National Historic Site"},
  {"lat":38.56414189,"lon":-102.5169542,"city":"Chivington","state":"CO","address":"","name":"Sand Creek Massacre National Historic Site"},
  {"lat":42.46830664,"lon":-71.0076953,"city":"Saugus","state":"MA","address":"","name":"Saugus Iron Works National Historic Site"},
  {"lat":42.1086368,"lon":-72.57967415,"city":"Springfield","state":"MA","address":"","name":"Springfield Armory National Historic Site"},
  {"lat":41.40757521,"lon":-75.67037255,"city":"Scranton","state":"PA","address":"","name":"Steamtown National Historic Site"},
  {"lat":40.7386469,"lon":-73.98903703,"city":"New York City","state":"NY","address":"","name":"Theodore Roosevelt Birthplace National Historic Site"},
  {"lat":42.90146781,"lon":-78.87248411,"city":"Buffalo","state":"NY","address":"","name":"Theodore Roosevelt Inaugural National Historic Site"},
  {"lat":42.22570607,"lon":-73.86154864,"city":"Catskill","state":"NY","address":"","name":"Thomas Cole National Historic Site"},
  {"lat":38.52934443,"lon":-77.037813,"city":"Port Tobacco","state":"MD","address":"","name":"Thomas Stone National Historic Site"},
  {"lat":41.4893,"lon":-71.3121,"city":"Newport","state":"RI","address":"","name":"Touro Synagogue National Historic Site"},
  {"lat":32.45538671,"lon":-85.67983321,"city":"Tuskegee","state":"AL","address":"","name":"Tuskegee Airmen National Historic Site"},
  {"lat":32.42962115,"lon":-85.70488498,"city":"Tuskegee Institute","state":"AL","address":"","name":"Tuskegee Institute National Historic Site"},
  {"lat":38.55182374,"lon":-90.35169255,"city":"St. Louis","state":"MO","address":"","name":"Ulysses S Grant National Historic Site"},
  {"lat":41.79697937,"lon":-73.94205557,"city":"Hyde Park","state":"NY","address":"","name":"Vanderbilt Mansion National Historic Site"},
  {"lat":35.62083963,"lon":-99.70445143,"city":"Cheyenne","state":"OK","address":"","name":"Washita Battlefield National Historic Site"},
  {"lat":46.04119286,"lon":-118.4629388,"city":"Walla Walla","state":"WA","address":"","name":"Whitman Mission National Historic Site"},
  {"lat":39.11970352,"lon":-84.50758951,"city":"Cincinnati","state":"OH","address":"","name":"William Howard Taft National Historic Site"}]}