{"key":"national_memorial","displayName":"National Memorials","category":"entertainment","useLocationName":true,"locations":[
  {"lat":34.00389998,"lon":-91.30837178,"city":"Gillett","state":"AR","address":"","name":"Arkansas Post National Memorial"},
  {"lat":31.76729634,"lon":-106.4544011,"city":"El Paso","state":"TX","address":"","name":"Chamizal National Memorial"},
  {"lat":31.34900397,"lon":-110.2561574,"city":"Hereford","state":"AZ","address":"","name":"Coronado National Memorial"},
  {"lat":27.52272613,"lon":-82.64335416,"city":"Bradenton","state":"FL","address":"","name":"De Soto National Memorial"},
  {"lat":38.8869476647,"lon":-77.018737554,"city":"Washington","state":"DC","address":"","name":"Dwight D. Eisenhower Memorial"},
  {"lat":40.70731192,"lon":-74.01025636,"city":"New York City","state":"NY","address":"","name":"Federal Hall National Memorial"},
  {"lat":40.06061476,"lon":-78.89456905,"city":"Stoystown","state":"PA","address":"","name":"Flight 93 National Memorial"},
  {"lat":40.81332817,"lon":-73.96331542,"city":"New York City","state":"NY","address":"","name":"General Grant National Memorial"},
  {"lat":40.81871605,"lon":-73.94878487,"city":"New York City","state":"NY","address":"","name":"Hamilton Grange National Memorial"},
  {"lat":40.34584534,"lon":-78.77448601,"city":"South Fork","state":"PA","address":"","name":"Johnstown Flood National Memorial"},
  {"lat":38.11817004,"lon":-86.99656861,"city":"Lincoln City","state":"IN","address":"","name":"Lincoln Boyhood National Memorial"},
  {"lat":43.88037021,"lon":-103.4525186,"city":"Keystone","state":"SD","address":"","name":"Mount Rushmore National Memorial"},
  {"lat":35.473,"lon":-97.5171,"city":"Oklahoma City","state":"OK","address":"","name":"Oklahoma City National Memorial"},
  {"lat":21.3670699388,"lon":-157.938578898,"city":"Honolulu","state":"HI","address":"","name":"Pearl Harbor National Memorial"},
  {"lat":41.65449782,"lon":-82.8115794,"city":"Put-In-Bay","state":"OH","address":"","name":"Perry's Victory & International Peace Memorial"},
  {"lat":38.05685472,"lon":-122.0301603,"city":"Martinez","state":"CA","address":"","name":"Port Chicago Naval Magazine National Memorial"},
  {"lat":41.8298955,"lon":-71.41056665,"city":"Providence","state":"RI","address":"","name":"Roger Williams National Memorial"},
  {"lat":39.94345312,"lon":-75.14732045,"city":"Philadelphia","state":"PA","address":"","name":"Thaddeus Kosciuszko National Memorial"},
  {"lat":36.01637713,"lon":-75.66997163,"city":"Kill Devil Hills","state":"NC","address":"","name":"Wright Brothers National Memorial"}]}