{"key":"peets","displayName":"Peet's Coffee","category":"coffee","useLocationName":false,"locations":[
  {"lat":41.881569,"lon":-87.632714,"city":"Chicago","state":"IL","address":"10 S. Lasalle St","name":""},
  {"lat":37.775262,"lon":-122.41652,"city":"San Francisco","state":"CA","address":"1400 Mission St, Suite 130","name":""},
  {"lat":37.790619,"lon":-122.40252,"city":"San Francisco","state":"CA","address":"155 Montgomery St, 161","name":""},
  {"lat":37.780262,"lon":-122.47522,"city":"San Francisco","state":"CA","address":"5201 Geary Blvd","name":""},
  {"lat":38.899364,"lon":-77.039813,"city":"Washington","state":"DC","address":"1701 Pennsylvania Ave NW","name":""},
  {"lat":38.904056,"lon":-77.038131,"city":"Washington","state":"DC","address":"1101 17th St NW","name":""},
  {"lat":34.048756,"lon":-118.435619,"city":"Los Angeles","state":"CA","address":"1854 Westwood Blvd","name":""},
  {"lat":38.575992,"lon":-121.480137,"city":"Sacramento","state":"CA","address":"1050 20Th St, Suite 190","name":""},
  {"lat":37.870467,"lon":-122.301107,"city":"Berkeley","state":"CA","address":"1776 4th St","name":""},
  {"lat":37.789262,"lon":-122.40082,"city":"San Francisco","state":"CA","address":"595 Market St, Suite 143","name":""},
  {"lat":37.786619,"lon":-122.40502,"city":"San Francisco","state":"CA","address":"773 Market St.","name":""},
  {"lat":37.771262,"lon":-122.40512,"city":"San Francisco","state":"CA","address":"625 8th St","name":""},
  {"lat":37.764162,"lon":-122.2432,"city":"Alameda","state":"CA","address":"1365 Park St","name":""},
  {"lat":37.778562,"lon":-122.27682,"city":"Alameda","state":"CA","address":"1901 Webster St","name":""},
  {"lat":37.851062,"lon":-122.03382,"city":"Alamo","state":"CA","address":"215 Alamo Plaza, Suite E","name":""},
  {"lat":33.554455,"lon":-117.713019,"city":"Laguna Niguel","state":"CA","address":"23904 Aliso Creek Rd","name":""},
  {"lat":36.978606,"lon":-121.90732,"city":"Aptos","state":"CA","address":"50 Rancho Del Mar","name":""},
  {"lat":38.841064,"lon":-77.089213,"city":"Arlington","state":"VA","address":"4115 Campbell Ave","name":""},
  {"lat":38.986164,"lon":-77.537113,"city":"Ashburn","state":"VA","address":"42385 Ryan Rd","name":""},
  {"lat":37.544562,"lon":-122.29172,"city":"San Mateo","state":"CA","address":"1020 Park Place","name":""},
  {"lat":38.934764,"lon":-121.09112,"city":"Auburn","state":"CA","address":"2222 Grass Valley Hwy","name":""},
  {"lat":38.661165,"lon":-120.966945,"city":"Cameron Park","state":"CA","address":"3510 Palmer Dr","name":""},
  {"lat":37.518861,"lon":-122.27442,"city":"Belmont","state":"CA","address":"1200 El Camino Real","name":""},
  {"lat":39.068464,"lon":-77.484313,"city":"Ashburn","state":"VA","address":"19800 Belmont Chase Dr, Suite 100","name":""},
  {"lat":37.774066,"lon":-121.923438,"city":"San Ramon","state":"CA","address":"11000 Bollinger Canyon Rd, Suite A","name":""},
  {"lat":39.511565,"lon":-119.96352,"city":"Verdi","state":"NV","address":"2100 Garson Rd","name":""},
  {"lat":42.363469,"lon":-71.025712,"city":"Boston","state":"MA","address":"1 Harborside Dr","name":""},
  {"lat":37.808562,"lon":-122.41482,"city":"San Francisco","state":"CA","address":"160 Jefferson St","name":""},
  {"lat":37.800736,"lon":-122.408052,"city":"San Francisco","state":"CA","address":"Pier 39 Space 5-Q","name":""},
  {"lat":45.395274,"lon":-122.75192,"city":"Tigard","state":"OR","address":"7471 SW Bridgeport Rd, Building G","name":""},
  {"lat":37.578462,"lon":-122.34682,"city":"Burlingame","state":"CA","address":"1241 Burlingame Ave","name":""},
  {"lat":42.931167,"lon":-85.587271,"city":"Grand Rapids","state":"MI","address":"1745 Knollcrest Cir SE","name":""},
  {"lat":37.262047,"lon":-121.934124,"city":"San Jose","state":"CA","address":"2035 Camden Ave","name":""},
  {"lat":37.288161,"lon":-121.93342,"city":"Campbell","state":"CA","address":"1875 South Bascom Ave","name":""},
  {"lat":36.981529,"lon":-121.956083,"city":"Capitola","state":"CA","address":"819 Bay Ave, Suite A","name":""},
  {"lat":33.126854,"lon":-117.254119,"city":"Carlsbad","state":"CA","address":"2641 Gateway Rd Suite 103","name":""},
  {"lat":37.696962,"lon":-122.07412,"city":"Castro Valley","state":"CA","address":"20439 Redwood Rd","name":""},
  {"lat":38.876164,"lon":-77.442413,"city":"Chantilly","state":"VA","address":"14383 New Brook Dr","name":""},
  {"lat":37.419261,"lon":-122.11042,"city":"Palo Alto","state":"CA","address":"3904 Middlefield Rd","name":""},
  {"lat":39.611538,"lon":-76.00862,"city":"North East","state":"MD","address":"I-95 JFK Memorial Hwy Milepost 97","name":""},
  {"lat":37.800862,"lon":-122.43782,"city":"San Francisco","state":"CA","address":"2080 Chestnut St","name":""},
  {"lat":41.871769,"lon":-87.626414,"city":"Chicago","state":"IL","address":"41 East 8th St","name":""},
  {"lat":37.951362,"lon":-121.95642,"city":"Concord","state":"CA","address":"5458 Ygnacio Valley Rd, Suite 10","name":""},
  {"lat":37.765462,"lon":-122.45002,"city":"San Francisco","state":"CA","address":"919 Cole St","name":""},
  {"lat":37.851162,"lon":-122.25262,"city":"Berkeley","state":"CA","address":"3200 College Ave","name":""},
  {"lat":37.972962,"lon":-122.05792,"city":"Concord","state":"CA","address":"2095 Diamond Blvd","name":""},
  {"lat":33.606303,"lon":-117.875011,"city":"Newport Beach","state":"CA","address":"894 Avocado Ave","name":""},
  {"lat":37.925026,"lon":-122.51731,"city":"Corte Madera","state":"CA","address":"77 Casa Buena Dr","name":""},
  {"lat":33.630455,"lon":-117.911019,"city":"Costa Mesa","state":"CA","address":"424 E. 17th St","name":""},
  {"lat":38.331063,"lon":-122.71012,"city":"Cotati","state":"CA","address":"7764 Old Redwood Hwy","name":""},
  {"lat":37.778862,"lon":-121.96952,"city":"San Ramon","state":"CA","address":"3121 Crow Canyon Place, Suite C","name":""},
  {"lat":37.669266,"lon":-122.475049,"city":"Daly City","state":"CA","address":"153-B Serramonte Center","name":""},
  {"lat":37.818863,"lon":-121.997284,"city":"Danville","state":"CA","address":"435 Railroad Ave","name":""},
  {"lat":38.562463,"lon":-121.76562,"city":"Davis","state":"CA","address":"1411 W. Covell Blvd, #114 B","name":""},
  {"lat":38.906764,"lon":-77.005413,"city":"Washington","state":"DC","address":"1275 First St NE","name":""},
  {"lat":36.974061,"lon":-121.88832,"city":"Aptos","state":"CA","address":"783 Rio Del Mar Blvd","name":""},
  {"lat":32.874754,"lon":-97.014416,"city":"Dallas","state":"TX","address":"3200 E Airfield Dr","name":""},
  {"lat":37.799362,"lon":-122.21672,"city":"Oakland","state":"CA","address":"3401 Fruitvale Ave","name":""},
  {"lat":37.85862,"lon":-122.24412,"city":"Berkeley","state":"CA","address":"2916 Domingo Ave","name":""},
  {"lat":41.72903,"lon":-88.053076,"city":"Downers Grove","state":"IL","address":"5100 Main St","name":""},
  {"lat":38.544632,"lon":-121.74162,"city":"Davis","state":"CA","address":"231 E St","name":""},
  {"lat":37.977262,"lon":-122.03472,"city":"Concord","state":"CA","address":"2072 Salvio St","name":""},
  {"lat":37.708062,"lon":-121.87262,"city":"Dublin","state":"CA","address":"4620 Tassajara Rd, Suite C","name":""},
  {"lat":37.898748,"lon":-122.301988,"city":"El Cerrito","state":"CA","address":"9895 San Pablo Ave","name":""},
  {"lat":38.646263,"lon":-121.06772,"city":"El Dorado Hills","state":"CA","address":"1004 White Rock Rd Suite 100","name":""},
  {"lat":37.290561,"lon":-121.99202,"city":"San Jose","state":"CA","address":"1330 El Paseo De Saratoga","name":""},
  {"lat":33.903456,"lon":-118.395419,"city":"El Segundo","state":"CA","address":"820 S. Sepulveda, Suite A100","name":""},
  {"lat":38.421941,"lon":-121.401661,"city":"Elk Grove","state":"CA","address":"8234 Laguna Blvd, Suite 100","name":""},
  {"lat":38.409463,"lon":-121.41932,"city":"Elk Grove","state":"CA","address":"7127 Elk Grove Blvd, Suite 101","name":""},
  {"lat":37.794962,"lon":-122.39842,"city":"San Francisco","state":"CA","address":"Two Embarcadero Center, Suite R2113","name":""},
  {"lat":37.841377,"lon":-122.293538,"city":"Emeryville","state":"CA","address":"5959 Shellmound St, Cafe #2","name":""},
  {"lat":33.046154,"lon":-117.256919,"city":"Encinitas","state":"CA","address":"1486 Encinitas Boulevard","name":""},
  {"lat":42.046969,"lon":-87.679144,"city":"Evanston","state":"IL","address":"1622 Chicago Ave","name":""},
  {"lat":38.664263,"lon":-121.22462,"city":"Fair Oaks","state":"CA","address":"8909 Madison Ave Suite 400","name":""},
  {"lat":38.857564,"lon":-77.358013,"city":"Fairfax","state":"VA","address":"11947 Grand Commons Ave","name":""},
  {"lat":38.843164,"lon":-77.272113,"city":"Fairfax","state":"VA","address":"3985 Pickett Rd","name":""},
  {"lat":38.257627,"lon":-122.0642,"city":"Fairfield","state":"CA","address":"1380 Holiday Lane, Suite A","name":""},
  {"lat":37.773462,"lon":-122.43892,"city":"San Francisco","state":"CA","address":"310 Broderick St","name":""},
  {"lat":37.789662,"lon":-122.43422,"city":"San Francisco","state":"CA","address":"2197 Fillmore St","name":""},
  {"lat":38.669263,"lon":-121.15162,"city":"Folsom","state":"CA","address":"1290 E. Bidwell St, Suite 110","name":""},
  {"lat":44.631363,"lon":-123.075498,"city":"Albany","state":"OR","address":"2500 South Santiam Hwy","name":""},
  {"lat":45.488175,"lon":-122.79452,"city":"Beaverton","state":"OR","address":"11425 SW Beaverton-Hillsdale Hwy","name":""},
  {"lat":45.512746,"lon":-122.62372,"city":"Portland","state":"OR","address":"3805 SE Hawthorne Blvd","name":""},
  {"lat":42.215469,"lon":-121.75562,"city":"Klamath Falls","state":"OR","address":"2655 Shasta Way","name":""},
  {"lat":45.619575,"lon":-122.55612,"city":"","state":"OR","address":"11325 SE Mill Plain Blvd","name":""},
  {"lat":45.485475,"lon":-122.75602,"city":"Portland","state":"OR","address":"7700 SW Beaverton-Hillsdale Hwy","name":""},
  {"lat":45.381744,"lon":-122.75732,"city":"Tualatin","state":"OR","address":"19200 SW Martinazzi Ave","name":""},
  {"lat":45.518975,"lon":-122.84172,"city":"Beaverton","state":"OR","address":"15995 SW Walker Rd","name":""},
  {"lat":37.554262,"lon":-121.98182,"city":"Fremont","state":"CA","address":"2780 Mowry Ave","name":""},
  {"lat":33.514655,"lon":-117.755019,"city":"Laguna Beach","state":"CA","address":"30922 Coast Hwy","name":""},
  {"lat":33.785955,"lon":-116.407519,"city":"Rancho Mirage","state":"CA","address":"36101 Bob Hope Dr","name":""},
  {"lat":34.007056,"lon":-118.474194,"city":"Santa Monica","state":"CA","address":"2627 Lincoln Blvd","name":""},
  {"lat":34.145968,"lon":-118.257282,"city":"Glendale","state":"CA","address":"2211 Galleria Way","name":""},
  {"lat":38.743463,"lon":-121.19702,"city":"Granite Bay","state":"CA","address":"5550 Douglas Blvd Suite D-110","name":""},
  {"lat":37.945662,"lon":-122.52392,"city":"Greenbrae","state":"CA","address":"276 Bon Air Center","name":""},
  {"lat":38.900164,"lon":-77.047613,"city":"Washington","state":"DC","address":"2121 H St NW, #131","name":""},
  {"lat":37.468961,"lon":-122.43262,"city":"Half Moon Bay","state":"CA","address":"142 San Mateo Rd","name":""},
  {"lat":38.063562,"lon":-122.53312,"city":"Novato","state":"CA","address":"5800 Nave Dr Suite M","name":""},
  {"lat":45.427174,"lon":-122.49962,"city":"Happy Valley","state":"OR","address":"15918 SE Happy Valley Town Cnt","name":""},
  {"lat":42.372604,"lon":-71.120645,"city":"Cambridge","state":"MA","address":"100 Mount Auburn St","name":""},
  {"lat":34.151131,"lon":-118.075172,"city":"Pasadena","state":"CA","address":"3571-A East Foothill Blvd","name":""},
  {"lat":37.672162,"lon":-122.08422,"city":"Hayward","state":"CA","address":"878 B St","name":""},
  {"lat":38.01349,"lon":-122.273019,"city":"Hercules","state":"CA","address":"4040 San Pablo Ave, Suite A","name":""},
  {"lat":32.748537,"lon":-117.161819,"city":"San Diego","state":"CA","address":"350 University Ave, Suite D","name":""},
  {"lat":45.533675,"lon":-122.87532,"city":"Hillsboro","state":"OR","address":"10150 NE Cornell Rd","name":""},
  {"lat":37.337361,"lon":-122.06622,"city":"Cupertino","state":"CA","address":"22350 Homestead Rd","name":""},
  {"lat":29.657305,"lon":-95.273592,"city":"Houston","state":"TX","address":"7800 Airport Blvd","name":""},
  {"lat":29.657305,"lon":-95.273592,"city":"Houston","state":"TX","address":"7800 Airport Blvd","name":""},
  {"lat":29.986549,"lon":-95.339016,"city":"Houston","state":"TX","address":"2800 N Terminal Rd","name":""},
  {"lat":29.986549,"lon":-95.339016,"city":"Houston","state":"TX","address":"2800 N Terminal Rd","name":""},
  {"lat":33.684855,"lon":-117.81193,"city":"Irvine","state":"CA","address":"3972 Barranca Parkway, Suite F-2","name":""},
  {"lat":40.64514,"lon":-73.78671,"city":"Queens","state":"NY","address":"Van Wyck and JFK Expy","name":""},
  {"lat":40.64514,"lon":-73.78671,"city":"Queens","state":"NY","address":"Van Wyck and JFK Expy","name":""},
  {"lat":32.867539,"lon":-117.206719,"city":"San Diego","state":"CA","address":"8905 Town Centre Dr","name":""},
  {"lat":32.846754,"lon":-117.274719,"city":"La Jolla","state":"CA","address":"7910 Girard Ave, Unit B","name":""},
  {"lat":37.893262,"lon":-122.11792,"city":"Lafayette","state":"CA","address":"3518 Mount Diablo Blvd #E","name":""},
  {"lat":33.492255,"lon":-117.697193,"city":"Laguna Niguel","state":"CA","address":"32371 Golden Lantern, Bldg 6","name":""},
  {"lat":33.618255,"lon":-117.702819,"city":"Lake Forest","state":"CA","address":"23700 El Toro Rd Suite B","name":""},
  {"lat":45.416714,"lon":-122.66382,"city":"Lake Oswego","state":"OR","address":"345 First St, Suite #111","name":""},
  {"lat":37.810362,"lon":-122.24452,"city":"Oakland","state":"CA","address":"3258 Lakeshore Ave","name":""},
  {"lat":34.073756,"lon":-118.323319,"city":"Los Angeles","state":"CA","address":"124 N. Larchmont Blvd","name":""},
  {"lat":37.786562,"lon":-122.45042,"city":"San Francisco","state":"CA","address":"3419 California St","name":""},
  {"lat":33.944156,"lon":-118.390194,"city":"Los Angeles","state":"CA","address":"6040 Avion Dr","name":""},
  {"lat":42.447552,"lon":-71.22695,"city":"Lexington","state":"MA","address":"1749 Massachusetts Ave","name":""},
  {"lat":37.797862,"lon":-122.18222,"city":"Oakland","state":"CA","address":"4100 Redwood Rd","name":""},
  {"lat":37.681962,"lon":-121.76772,"city":"Livermore","state":"CA","address":"152 South Livermore Ave","name":""},
  {"lat":37.897962,"lon":-122.06192,"city":"Walnut Creek","state":"CA","address":"1343 Locust St","name":""},
  {"lat":37.961262,"lon":-121.74962,"city":"Brentwood","state":"CA","address":"5411 Lone Tree Way, Suite L-130","name":""},
  {"lat":37.378461,"lon":-122.11792,"city":"Los Altos","state":"CA","address":"367 State St","name":""},
  {"lat":37.234861,"lon":-121.96092,"city":"Los Gatos","state":"CA","address":"798-1 Blossom Hill Rd","name":""},
  {"lat":38.573463,"lon":-121.40242,"city":"Sacramento","state":"CA","address":"2580 Fair Oaks Blvd, Suite 2","name":""},
  {"lat":33.885555,"lon":-118.408819,"city":"Manhattan Beach","state":"CA","address":"328 Manhattan Beach Blvd","name":""},
  {"lat":33.980856,"lon":-118.437819,"city":"Marina Del Rey","state":"CA","address":"4706 Lincoln Blvd","name":""},
  {"lat":37.764764,"lon":-122.43184,"city":"San Francisco","state":"CA","address":"2257 Market St","name":""},
  {"lat":42.336469,"lon":-71.099612,"city":"Boston","state":"MA","address":"625 Huntington Ave","name":""},
  {"lat":37.449395,"lon":-122.185985,"city":"Menlo Park","state":"CA","address":"899 Santa Cruz Ave","name":""},
  {"lat":37.601562,"lon":-122.39282,"city":"Millbrae","state":"CA","address":"401 Broadway","name":""},
  {"lat":37.434561,"lon":-121.89812,"city":"Milpitas","state":"CA","address":"543 E. Calaveras Blvd","name":""},
  {"lat":37.626169,"lon":-122.427175,"city":"San Bruno","state":"CA","address":"22 Bayhill Shopping Ctr","name":""},
  {"lat":37.866662,"lon":-122.49952,"city":"Sausalito","state":"CA","address":"100 Harbor Dr","name":""},
  {"lat":34.0326,"lon":-118.495125,"city":"Santa Monica","state":"CA","address":"1401 Montana Ave","name":""},
  {"lat":37.826362,"lon":-122.20892,"city":"Oakland","state":"CA","address":"2066 Antioch Court","name":""},
  {"lat":36.59676,"lon":-121.8942,"city":"Monterey","state":"CA","address":"560 Munras Suite 10","name":""},
  {"lat":37.150861,"lon":-121.65642,"city":"Morgan Hill","state":"CA","address":"755 Cochrane Rd, Suite 100","name":""},
  {"lat":37.391613,"lon":-122.08112,"city":"Mountain View","state":"CA","address":"420 Castro St","name":""},
  {"lat":38.322963,"lon":-122.30592,"city":"Napa","state":"CA","address":"3678 Bel Aire Plaza","name":""},
  {"lat":41.785685,"lon":-88.137014,"city":"Naperville","state":"IL","address":"686 E Ogden Ave","name":""},
  {"lat":45.535275,"lon":-122.65062,"city":"Portland","state":"OR","address":"1441 N.E. Broadway","name":""},
  {"lat":37.769362,"lon":-122.23372,"city":"Alameda","state":"CA","address":"2531 Blanding Ave","name":""},
  {"lat":37.378361,"lon":-122.072,"city":"Mountain View","state":"CA","address":"1250 Grant Rd","name":""},
  {"lat":37.237661,"lon":-121.83222,"city":"San Jose","state":"CA","address":"6061 Snell Ave","name":""},
  {"lat":38.465463,"lon":-122.71922,"city":"Santa Rosa","state":"CA","address":"2500 Mendocino Ave","name":""},
  {"lat":38.004062,"lon":-122.54412,"city":"San Rafael","state":"CA","address":"5800 Northgate Mall, Suite 146","name":""},
  {"lat":38.106262,"lon":-122.57022,"city":"Novato","state":"CA","address":"7320 Redwood Blvd, Suite A","name":""},
  {"lat":38.368352,"lon":-121.96362,"city":"Vacaville","state":"CA","address":"1671 E. Monte Vista Rd, Suite 101","name":""},
  {"lat":37.726174,"lon":-122.1982,"city":"Oakland","state":"CA","address":"1 Airport Dr","name":""},
  {"lat":37.726174,"lon":-122.1982,"city":"Oakland","state":"CA","address":"1 Airport Dr","name":""},
  {"lat":37.781162,"lon":-122.42132,"city":"San Francisco","state":"CA","address":"601 Van Ness Ave","name":""},
  {"lat":33.734499,"lon":-117.760066,"city":"Irvine","state":"CA","address":"3927 Portola Parkway","name":""},
  {"lat":37.878662,"lon":-122.18082,"city":"Orinda","state":"CA","address":"63 Moraga Way","name":""},
  {"lat":37.441861,"lon":-122.15962,"city":"Palo Alto","state":"CA","address":"153 Homer Ave","name":""},
  {"lat":34.135456,"lon":-118.132519,"city":"Pasadena","state":"CA","address":"605 South Lake Ave","name":""},
  {"lat":45.589175,"lon":-122.59342,"city":"Portland","state":"OR","address":"7000 NE Airport Way","name":""},
  {"lat":45.589175,"lon":-122.59342,"city":"Portland","state":"OR","address":"7000 NE Airport Way","name":""},
  {"lat":38.233663,"lon":-122.63842,"city":"Petaluma","state":"CA","address":"5 Petaluma Boulevard South, Suite A","name":""},
  {"lat":33.435465,"lon":-112.008718,"city":"Phoenix","state":"AZ","address":"3400 E Sky Harbor Blvd","name":""},
  {"lat":33.435465,"lon":-112.008718,"city":"Phoenix","state":"AZ","address":"3400 E Sky Harbor Blvd","name":""},
  {"lat":33.435465,"lon":-112.008718,"city":"Phoenix","state":"AZ","address":"3400 E Sky Harbor Blvd","name":""},
  {"lat":37.825867,"lon":-122.253018,"city":"Oakland","state":"CA","address":"4050 Piedmont Ave","name":""},
  {"lat":37.995753,"lon":-122.286441,"city":"Pinole","state":"CA","address":"2712 Pinole Valley Rd","name":""},
  {"lat":37.945562,"lon":-122.06212,"city":"Pleasant Hill","state":"CA","address":"65 Crescent Dr, Suite A","name":""},
  {"lat":37.676662,"lon":-121.89662,"city":"Pleasanton","state":"CA","address":"5765 Valley Ave Suite 100","name":""},
  {"lat":37.659362,"lon":-121.87672,"city":"Pleasanton","state":"CA","address":"349 Main St","name":""},
  {"lat":32.721869,"lon":-117.245415,"city":"San Diego","state":"CA","address":"955 Catalina Blvd Suite 103","name":""},
  {"lat":37.796462,"lon":-122.42212,"city":"San Francisco","state":"CA","address":"2139 C Polk St","name":""},
  {"lat":34.275356,"lon":-118.571019,"city":"Porter Ranch","state":"CA","address":"20105 W. Rinaldi St","name":""},
  {"lat":37.766471,"lon":-122.410409,"city":"San Francisco","state":"CA","address":"2300 16th St, Suite 240","name":""},
  {"lat":38.924064,"lon":-121.05402,"city":"Auburn","state":"CA","address":"13384 Lincoln Way","name":""},
  {"lat":38.661165,"lon":-120.966945,"city":"Cameron Park","state":"CA","address":"3510 Palmer Dr","name":""},
  {"lat":38.597763,"lon":-121.34522,"city":"Carmichael","state":"CA","address":"5159 Fair Oaks Blvd","name":""},
  {"lat":38.655963,"lon":-121.06962,"city":"El Dorado Hills","state":"CA","address":"3935 Park Dr","name":""},
  {"lat":38.407264,"lon":-121.44844,"city":"Elk Grove","state":"CA","address":"4900 Elk Grove Blvd","name":""},
  {"lat":38.663804,"lon":-121.228338,"city":"Fair Oaks","state":"CA","address":"8870 Madison Ave","name":""},
  {"lat":38.688963,"lon":-121.12242,"city":"Folsom","state":"CA","address":"25025 Blue Ravine Rd","name":""},
  {"lat":38.548249,"lon":-121.394385,"city":"Sacramento","state":"CA","address":"8391 Folsom Blvd","name":""},
  {"lat":38.744635,"lon":-121.17332,"city":"Granite Bay","state":"CA","address":"6845 Douglas Blvd","name":""},
  {"lat":39.202464,"lon":-121.06542,"city":"Grass Valley","state":"CA","address":"692 Freeman Lane","name":""},
  {"lat":38.817539,"lon":-121.189636,"city":"Loomis","state":"CA","address":"6199 Horseshoe Bar Rd","name":""},
  {"lat":38.616872,"lon":-121.381938,"city":"Sacramento","state":"CA","address":"3518 Marconi Ave","name":""},
  {"lat":38.657563,"lon":-121.509199,"city":"Sacramento","state":"CA","address":"4650 Natomas Blvd","name":""},
  {"lat":37.333261,"lon":-119.65672,"city":"Oakhurst","state":"CA","address":"40041 Highway 49","name":""},
  {"lat":38.726963,"lon":-120.83572,"city":"Placerville","state":"CA","address":"166 Placerville Dr","name":""},
  {"lat":37.651962,"lon":-121.87842,"city":"Pleasanton","state":"CA","address":"5420 Sunol Blvd","name":""},
  {"lat":38.912605,"lon":-120.004294,"city":"South Lake Tahoe","state":"CA","address":"1040 Emerald Bay Rd","name":""},
  {"lat":39.60788,"lon":-119.69922,"city":"Sparks","state":"NV","address":"2389 Wingfield Hills Rd","name":""},
  {"lat":37.712462,"lon":-121.43252,"city":"Tracy","state":"CA","address":"2550 S Tracy Blvd","name":""},
  {"lat":38.677678,"lon":-121.777121,"city":"Woodland","state":"CA","address":"367 Main St","name":""},
  {"lat":33.021254,"lon":-117.073519,"city":"San Diego","state":"CA","address":"11922 Bernardo Plaza Dr","name":""},
  {"lat":47.666781,"lon":-122.10282,"city":"Redmond","state":"WA","address":"17887 Redmond Way Suite 130","name":""},
  {"lat":33.821554,"lon":-118.385194,"city":"Redondo Beach","state":"CA","address":"1418 S. Pacific Coast Hwy","name":""},
  {"lat":37.486461,"lon":-122.2332,"city":"Redwood City","state":"CA","address":"2600 Broadway","name":""},
  {"lat":39.505779,"lon":-119.775761,"city":"Reno","state":"NV","address":"2000 E.Plumb Lane","name":""},
  {"lat":37.332061,"lon":-121.91302,"city":"San Jose","state":"CA","address":"1295 The Alameda","name":""},
  {"lat":38.794323,"lon":-121.299222,"city":"Roseville","state":"CA","address":"4180 Thrive Dr, Suite 100","name":""},
  {"lat":38.729063,"lon":-121.27082,"city":"Roseville","state":"CA","address":"1200 Cirby Way, Suite A","name":""},
  {"lat":41.878637,"lon":-87.638761,"city":"Chicago","state":"IL","address":"222 South Riverside Plaza","name":""},
  {"lat":37.249561,"lon":-121.87632,"city":"San Jose","state":"CA","address":"1110 Blossom Hill Rd, Suite 20","name":""},
  {"lat":38.598632,"lon":-121.42322,"city":"Sacramento","state":"CA","address":"1749 Arden Way","name":""},
  {"lat":38.540563,"lon":-121.48212,"city":"Sacramento","state":"CA","address":"3700 Crocker Dr","name":""},
  {"lat":36.145959,"lon":-115.313189,"city":"Las Vegas","state":"NV","address":"10020 W Sahara Ave","name":""},
  {"lat":37.981362,"lon":-122.56572,"city":"San Anselmo","state":"CA","address":"896 Sir Francis Drake Blvd","name":""},
  {"lat":37.505632,"lon":-122.260091,"city":"San Carlos","state":"CA","address":"677 Laurel, Suite B","name":""},
  {"lat":33.462955,"lon":-117.598219,"city":"San Clemente","state":"CA","address":"801 Avenida Talega, Shop 2A","name":""},
  {"lat":37.721618,"lon":-122.47812,"city":"San Francisco","state":"CA","address":"1630 Holloway Ave","name":""},
  {"lat":37.382061,"lon":-121.89592,"city":"San Jose","state":"CA","address":"1088 E. Brokaw Rd, Suite 80","name":""},
  {"lat":37.723562,"lon":-122.15352,"city":"San Leandro","state":"CA","address":"1500 East 14th St","name":""},
  {"lat":37.565656,"lon":-122.322405,"city":"San Mateo","state":"CA","address":"255 E. 3rd Ave","name":""},
  {"lat":37.971062,"lon":-122.51782,"city":"San Rafael","state":"CA","address":"402 Third St","name":""},
  {"lat":37.762862,"lon":-121.96122,"city":"San Ramon","state":"CA","address":"166 Sunset Dr","name":""},
  {"lat":32.730354,"lon":-117.191619,"city":"San Diego","state":"CA","address":"3225 N Harbor Dr","name":""},
  {"lat":34.440256,"lon":-119.75142,"city":"Santa Barbara","state":"CA","address":"3905 State St R2","name":""},
  {"lat":37.394361,"lon":-121.94592,"city":"Santa Clara","state":"CA","address":"3932 Rivermark Plaza","name":""},
  {"lat":37.352061,"lon":-121.95992,"city":"Santa Clara","state":"CA","address":"2002 El Camino Real, Suite 20","name":""},
  {"lat":34.421849,"lon":-118.564803,"city":"Santa Clarita","state":"CA","address":"27047 Mcbean Parkway","name":""},
  {"lat":37.319611,"lon":-121.94892,"city":"San Jose","state":"CA","address":"377 Santana Row, Suite # 1130","name":""},
  {"lat":37.292661,"lon":-122.03162,"city":"Saratoga","state":"CA","address":"12148 Saratoga-Sunnyvale Rd","name":""},
  {"lat":37.045961,"lon":-122.0272,"city":"Scotts Valley","state":"CA","address":"214 Mt. Hermon Rd Suite E","name":""},
  {"lat":47.443868,"lon":-122.302232,"city":"Seattle","state":"WA","address":"17801 International Blvd","name":""},
  {"lat":33.785455,"lon":-118.073319,"city":"Seal Beach","state":"CA","address":"12203 Seal Beach Blvd","name":""},
  {"lat":37.614113,"lon":-122.388719,"city":"San Francisco","state":"CA","address":"100 Upper International Loop","name":""},
  {"lat":37.614113,"lon":-122.388719,"city":"San Francisco","state":"CA","address":"100 Upper International Loop","name":""},
  {"lat":37.614113,"lon":-122.388719,"city":"San Francisco","state":"CA","address":"100 Upper International Loop","name":""},
  {"lat":37.614113,"lon":-122.388719,"city":"San Francisco","state":"CA","address":"100 Upper International Loop","name":""},
  {"lat":41.911309,"lon":-87.654144,"city":"Chicago","state":"IL","address":"1000 W. North Ave","name":""},
  {"lat":37.365861,"lon":-121.9252,"city":"San Jose","state":"CA","address":"1701 Airport Blvd","name":""},
  {"lat":37.365861,"lon":-121.9252,"city":"San Jose","state":"CA","address":"1701 Airport Blvd","name":""},
  {"lat":37.733562,"lon":-122.48962,"city":"San Francisco","state":"CA","address":"1509 Sloat Blvd","name":""},
  {"lat":38.69507,"lon":-121.592885,"city":"Sacramento","state":"CA","address":"6851 Lindbergh Dr","name":""},
  {"lat":38.69507,"lon":-121.592885,"city":"Sacramento","state":"CA","address":"6851 Lindbergh Dr","name":""},
  {"lat":32.991854,"lon":-117.270319,"city":"Solana Beach","state":"CA","address":"125 Lomas Santa Fe Dr","name":""},
  {"lat":37.891621,"lon":-122.27922,"city":"Berkeley","state":"CA","address":"1825 Solano Ave","name":""},
  {"lat":38.290627,"lon":-122.45842,"city":"Sonoma","state":"CA","address":"591 Broadway","name":""},
  {"lat":37.654862,"lon":-122.407201,"city":"South San Francisco","state":"CA","address":"102 Grand Ave","name":""},
  {"lat":38.809864,"lon":-77.253613,"city":"Springfield","state":"VA","address":"8938 Burke Lake Rd","name":""},
  {"lat":37.431361,"lon":-122.1742,"city":"Stanford","state":"CA","address":"318 Campus Dr","name":""},
  {"lat":38.002462,"lon":-121.31752,"city":"Stockton","state":"CA","address":"5765 Pacific Ave Suite C-125","name":""},
  {"lat":37.727562,"lon":-122.47692,"city":"San Francisco","state":"CA","address":"3251 20th Ave","name":""},
  {"lat":34.143856,"lon":-118.399019,"city":"Studio City","state":"CA","address":"12215 Ventura Blvd, #101","name":""},
  {"lat":37.367861,"lon":-122.0332,"city":"Sunnyvale","state":"CA","address":"144 W. El Camino Real","name":""},
  {"lat":34.172648,"lon":-118.547035,"city":"Tarzana","state":"CA","address":"18973 Ventura Blvd","name":""},
  {"lat":37.86562,"lon":-122.25822,"city":"Berkeley","state":"CA","address":"2501 Telegraph Ave","name":""},
  {"lat":37.837304,"lon":-122.262518,"city":"Oakland","state":"CA","address":"5095 Telegraph Ave Suite #1","name":""},
  {"lat":38.768064,"lon":-121.26782,"city":"Roseville","state":"CA","address":"1198 Roseville Parkway, Suite 175","name":""},
  {"lat":37.928289,"lon":-122.514129,"city":"Corte Madera","state":"CA","address":"1512 Redwood Hwy, Space C037","name":""},
  {"lat":34.186256,"lon":-118.875619,"city":"Thousand Oaks","state":"CA","address":"595 Moorpark Rd, Suite B","name":""},
  {"lat":38.840664,"lon":-121.31362,"city":"Lincoln","state":"CA","address":"1200 Athens Ave","name":""},
  {"lat":37.899462,"lon":-122.50012,"city":"Tiburon","state":"CA","address":"1 Blackfield Dr, Suite A","name":""},
  {"lat":33.792155,"lon":-118.330819,"city":"Torrance","state":"CA","address":"2649 Pacific Coast Hwy","name":""},
  {"lat":32.961954,"lon":-117.154119,"city":"San Diego","state":"CA","address":"7845 Highland Village Pl, Ste C105","name":""},
  {"lat":37.438325,"lon":-122.160892,"city":"Palo Alto","state":"CA","address":"77 Town & Country","name":""},
  {"lat":37.936962,"lon":-122.024461,"city":"Concord","state":"CA","address":"785 Oak Grove Rd, Suite I","name":""},
  {"lat":33.749455,"lon":-117.809719,"city":"Tustin","state":"CA","address":"12932 Newport Ave","name":""},
  {"lat":38.916464,"lon":-77.226713,"city":"Vienna","state":"VA","address":"8150 Leesburg Pike","name":""},
  {"lat":33.650455,"lon":-117.837619,"city":"Irvine","state":"CA","address":"4213 Campus Dr Suite P-166A","name":""},
  {"lat":37.869162,"lon":-122.25952,"city":"Berkeley","state":"CA","address":"2495 Bancroft Way","name":""},
  {"lat":37.867076,"lon":-122.255672,"city":"Berkeley","state":"CA","address":"2610 Channing Way","name":""},
  {"lat":37.870775,"lon":-122.259716,"city":"Berkeley","state":"CA","address":"2 Sather Rd","name":""},
  {"lat":38.542463,"lon":-121.75962,"city":"Davis","state":"CA","address":"760 Orchard Rd","name":""},
  {"lat":38.538463,"lon":-121.752199,"city":"Davis","state":"CA","address":"420 Hutchison Dr","name":""},
  {"lat":42.390957,"lon":-72.526041,"city":"Amherst","state":"MA","address":"650 North Pleasant St","name":""},
  {"lat":43.076271,"lon":-89.399815,"city":"Madison","state":"WI","address":"800 Langdon St","name":""},
  {"lat":45.614775,"lon":-122.50222,"city":"Vancouver","state":"WA","address":"16501 Se Mill Plain Blvd, Suite 100","name":""},
  {"lat":34.264056,"lon":-119.21252,"city":"Ventura","state":"CA","address":"1171 S. Victoria Ave, Suite E","name":""},
  {"lat":37.880262,"lon":-122.26822,"city":"Berkeley","state":"CA","address":"2124 Vine St","name":""},
  {"lat":38.248829,"lon":-122.622964,"city":"Petaluma","state":"CA","address":"351 S. Mcdowell Blvd","name":""},
  {"lat":37.740363,"lon":-122.466749,"city":"San Francisco","state":"CA","address":"54 West Portal Ave","name":""},
  {"lat":35.046557,"lon":-85.31114,"city":"Chattanooga","state":"TN","address":"819 Chestnut St","name":""},
  {"lat":38.773764,"lon":-121.26942,"city":"Roseville","state":"CA","address":"1151 Galleria Blvd","name":""},
  {"lat":37.307661,"lon":-121.90012,"city":"San Jose","state":"CA","address":"1140 Lincoln Ave, Suite C","name":""},
  {"lat":42.105969,"lon":-87.735014,"city":"Winnetka","state":"IL","address":"817 Elm St","name":""},
  {"lat":41.889869,"lon":-87.624814,"city":"Chicago","state":"IL","address":"400 North Michigan Ave, Suite 120","name":""},
  {"lat":37.917862,"lon":-122.03662,"city":"Walnut Creek","state":"CA","address":"1835 Ygnacio Valley Rd","name":""},
  {"lat":33.889442,"lon":-117.814176,"city":"Yorba Linda","state":"CA","address":"18353 Imperial Highway","name":""}]}