{"key":"philz","displayName":"Philz Coffee","category":"coffee","useLocationName":false,"locations":[
  {"lat":37.293141,"lon":-121.992831,"city":"San Jose","state":"CA","address":"","name":""},
  {"lat":37.37729,"lon":-122.031438,"city":"Peninsula/south Bay","state":"CA","address":"","name":""},
  {"lat":37.454102,"lon":-122.182648,"city":"Menlo Park","state":"CA","address":"","name":""},
  {"lat":34.142823,"lon":-118.254569,"city":"Los Angeles","state":"CA","address":"","name":""},
  {"lat":37.879698,"lon":-122.297394,"city":"East Bay/marin","state":"CA","address":"","name":""},
  {"lat":33.914713,"lon":-117.888126,"city":"Brea","state":"CA","address":"","name":""},
  {"lat":37.169296,"lon":-121.646797,"city":"Morgan Hill","state":"CA","address":"","name":""},
  {"lat":37.677334,"lon":-121.874591,"city":"Pleasanton","state":"CA","address":"","name":""},
  {"lat":37.725962,"lon":-122.156802,"city":"San Leandro","state":"CA","address":"","name":""},
  {"lat":33.975668,"lon":-117.557867,"city":"Eastvale","state":"CA","address":"","name":""},
  {"lat":33.828823,"lon":-118.184767,"city":"Long Beach","state":"CA","address":"","name":""},
  {"lat":34.412856,"lon":-118.561592,"city":"Valencia","state":"CA","address":"","name":""},
  {"lat":37.6717,"lon":-122.46517,"city":"Colma","state":"CA","address":"","name":""},
  {"lat":37.695291,"lon":-122.077483,"city":"Castro Valley","state":"CA","address":"","name":""},
  {"lat":41.896574,"lon":-87.629325,"city":"Chicago","state":"IL","address":"","name":""},
  {"lat":38.532785,"lon":-121.495297,"city":"Sacramento","state":"CA","address":"","name":""},
  {"lat":41.910694,"lon":-87.636537,"city":"Chicago","state":"IL","address":"","name":""},
  {"lat":37.308036,"lon":-121.901117,"city":"San Jose","state":"CA","address":"","name":""},
  {"lat":33.606829,"lon":-117.690141,"city":"Mission Viejo","state":"CA","address":"","name":""},
  {"lat":33.834307,"lon":-118.351317,"city":"Los Angeles","state":"CA","address":"","name":""},
  {"lat":33.466588,"lon":-117.698228,"city":"Dana Point","state":"CA","address":"","name":""},
  {"lat":34.096273,"lon":-117.718492,"city":"Claremont","state":"CA","address":"","name":""},
  {"lat":33.579336,"lon":-117.726802,"city":"Aliso Viejo","state":"CA","address":"","name":""},
  {"lat":37.896863,"lon":-122.06365,"city":"East Bay/marin","state":"CA","address":"","name":""},
  {"lat":37.324254,"lon":-122.010523,"city":"Cupertino","state":"CA","address":"","name":""},
  {"lat":38.568983,"lon":-121.487094,"city":"Sacramento","state":"CA","address":"","name":""},
  {"lat":37.442234,"lon":-122.161634,"city":"Palo Alto","state":"CA","address":"","name":""},
  {"lat":37.33364,"lon":-121.885049,"city":"San Jose","state":"CA","address":"","name":""},
  {"lat":37.644094,"lon":-122.452253,"city":"South San Francisco","state":"CA","address":"","name":""},
  {"lat":32.869426,"lon":-117.231846,"city":"San Diego","state":"CA","address":"","name":""},
  {"lat":37.538677,"lon":-122.302032,"city":"San Mateo","state":"CA","address":"","name":""},
  {"lat":37.926855,"lon":-122.517752,"city":"East Bay/marin","state":"CA","address":"","name":""},
  {"lat":34.110454,"lon":-118.287662,"city":"Los Angeles","state":"CA","address":"","name":""},
  {"lat":34.046438,"lon":-118.259549,"city":"Los Angeles","state":"CA","address":"","name":""},
  {"lat":34.02428,"lon":-118.39396,"city":"Culver City","state":"CA","address":"","name":""},
  {"lat":37.383673,"lon":-121.896931,"city":"San Jose","state":"CA","address":"","name":""},
  {"lat":34.152388,"lon":-118.347885,"city":"Burbank","state":"CA","address":"","name":""},
  {"lat":34.112211,"lon":-117.533972,"city":"Rancho Cucamonga","state":"CA","address":"","name":""},
  {"lat":33.901984,"lon":-118.385431,"city":"Los Angeles","state":"CA","address":"","name":""},
  {"lat":32.951342,"lon":-117.232752,"city":"San Diego","state":"CA","address":"","name":""},
  {"lat":34.143227,"lon":-118.131793,"city":"Los Angeles","state":"CA","address":"","name":""},
  {"lat":38.543389,"lon":-121.741331,"city":"Sacramento Area","state":"CA","address":"","name":""},
  {"lat":37.235983,"lon":-121.963595,"city":"Los Gatos","state":"CA","address":"","name":""},
  {"lat":33.875086,"lon":-117.889186,"city":"Orange County","state":"CA","address":"","name":""},
  {"lat":37.577907,"lon":-122.348549,"city":"Burlingame","state":"CA","address":"","name":""},
  {"lat":33.97763,"lon":-118.04958,"city":"Whittier","state":"CA","address":"","name":""},
  {"lat":33.693894,"lon":-117.885032,"city":"Orange County","state":"CA","address":"","name":""},
  {"lat":34.06392,"lon":-118.3991,"city":"Beverly Hills","state":"CA","address":"","name":""},
  {"lat":37.566939,"lon":-122.323718,"city":"San Mateo","state":"CA","address":"","name":""},
  {"lat":37.28753,"lon":-121.931356,"city":"Campbell","state":"CA","address":"","name":""},
  {"lat":37.794217,"lon":-122.395666,"city":"San Francisco","state":"CA","address":"","name":""},
  {"lat":34.145832,"lon":-118.416346,"city":"Los Angeles","state":"CA","address":"","name":""},
  {"lat":37.797431,"lon":-122.421825,"city":"San Francisco","state":"CA","address":"","name":""},
  {"lat":37.891211,"lon":-122.123408,"city":"East Bay/marin","state":"CA","address":"","name":""},
  {"lat":37.79182,"lon":-122.398985,"city":"San Francisco","state":"CA","address":"","name":""},
  {"lat":33.761676,"lon":-118.137663,"city":"Los Angeles","state":"CA","address":"","name":""},
  {"lat":33.790134,"lon":-117.853443,"city":"Orange","state":"CA","address":"","name":""},
  {"lat":37.78875,"lon":-122.393216,"city":"San Francisco","state":"CA","address":"","name":""},
  {"lat":37.850682,"lon":-122.251707,"city":"East Bay/marin","state":"CA","address":"","name":""},
  {"lat":34.179835,"lon":-118.877146,"city":"Thousand Oaks","state":"CA","address":"","name":""},
  {"lat":37.76155,"lon":-121.96015,"city":"San Ramon","state":"CA","address":"","name":""},
  {"lat":41.903532,"lon":-87.669225,"city":"Chicago","state":"IL","address":"","name":""},
  {"lat":37.78801,"lon":-122.39871,"city":"San Francisco","state":"CA","address":"","name":""},
  {"lat":37.835681,"lon":-122.292625,"city":"Emeryville","state":"CA","address":"","name":""},
  {"lat":37.781315,"lon":-122.41659,"city":"San Francisco","state":"CA","address":"","name":""},
  {"lat":34.139999,"lon":-118.708026,"city":"Los Angeles","state":"CA","address":"","name":""},
  {"lat":37.775535,"lon":-122.393421,"city":"San Francisco","state":"CA","address":"","name":""},
  {"lat":41.799268,"lon":-87.590786,"city":"Chicago","state":"IL","address":"","name":""},
  {"lat":37.764865,"lon":-122.401404,"city":"San Francisco","state":"CA","address":"","name":""},
  {"lat":41.924787,"lon":-87.647401,"city":"Chicago","state":"IL","address":"","name":""},
  {"lat":42.046794,"lon":-87.688766,"city":"Evanston","state":"IL","address":"","name":""},
  {"lat":37.76812,"lon":-122.387877,"city":"San Francisco","state":"CA","address":"","name":""},
  {"lat":33.732696,"lon":-117.992282,"city":"Huntington Beach","state":"CA","address":"","name":""},
  {"lat":37.751264,"lon":-122.4383,"city":"San Francisco","state":"CA","address":"","name":""},
  {"lat":33.655035,"lon":-117.997918,"city":"Orange County","state":"CA","address":"","name":""},
  {"lat":37.322626,"lon":-122.034693,"city":"Cupertino","state":"CA","address":"","name":""},
  {"lat":37.486661,"lon":-122.228639,"city":"Redwood City","state":"CA","address":"","name":""},
  {"lat":37.723523,"lon":-122.453614,"city":"San Francisco","state":"CA","address":"","name":""},
  {"lat":34.09768,"lon":-118.329927,"city":"Los Angeles","state":"CA","address":"","name":""},
  {"lat":37.811187,"lon":-122.243932,"city":"Oakland","state":"CA","address":"","name":""},
  {"lat":37.55351,"lon":-121.980212,"city":"East Bay/marin","state":"CA","address":"","name":""},
  {"lat":37.76011,"lon":-122.434698,"city":"San Francisco","state":"CA","address":"","name":""},
  {"lat":33.038211,"lon":-117.293049,"city":"San Diego","state":"CA","address":"","name":""}
]}