{"key":"quiznos","displayName":"Quiznos","category":"restaurant","useLocationName":false,"locations":[
  {"lat":41.903868,"lon":-87.633669,"city":"Chicago","state":"IL","address":"164 W Division St","name":""},
  {"lat":53.59991,"lon":-113.48585,"city":"Edmonton","state":"AB","address":"Unit 607 - 137 Ave NW","name":""},
  {"lat":33.85404,"lon":-118.30123,"city":"Torrance","state":"CA","address":"1441 W Knox St","name":""},
  {"lat":53.184612,"lon":-105.759696,"city":"Prince Albert","state":"SK","address":"3110 2nd Ave W","name":""},
  {"lat":39.778179,"lon":-104.84725,"city":"Denver","state":"CO","address":"4505 Peoria St Unit 102","name":""},
  {"lat":52.172994,"lon":-106.655019,"city":"Saskatoon","state":"SK","address":"820B 51st St E","name":""},
  {"lat":45.692987,"lon":-122.659286,"city":"Vancouver","state":"WA","address":"1217 Northeast 99th Street Suite 103","name":""},
  {"lat":21.50139,"lon":-158.06535,"city":"Schofield Barracks","state":"HI","address":"1 Schofield Barracks","name":""},
  {"lat":43.450651,"lon":-79.703304,"city":"Oakville","state":"ON","address":"203 North Service Road West, Unit #2","name":""},
  {"lat":46.447541,"lon":-80.994675,"city":"Sudbury","state":"ON","address":"15B-2040 Algonquin Rd","name":""},
  {"lat":45.07945,"lon":-83.4507,"city":"Alpena","state":"MI","address":"320 Johnson St","name":""},
  {"lat":41.41855,"lon":-82.20151,"city":"Lorain","state":"OH","address":"1980 Cooper Foster Park Rd W","name":""},
  {"lat":37.511503,"lon":-121.947722,"city":"Fremont","state":"CA","address":"43937 Hugo Ter","name":""},
  {"lat":40.729692,"lon":-111.990043,"city":"Salt Lake City","state":"UT","address":"1775 S 4130 W Ste D","name":""},
  {"lat":49.888018,"lon":-119.427944,"city":"Kelowna","state":"BC","address":"306-1500 Banks Rd","name":""},
  {"lat":29.87721,"lon":-90.09864,"city":"Marrero","state":"LA","address":"1855 Barataria Blvd Ste C1","name":""},
  {"lat":46.862424,"lon":-71.213887,"city":"Beauport","state":"QC","address":"3324 Rue Du Carrefour","name":""},
  {"lat":42.03491,"lon":-91.64308,"city":"Cedar Rapids","state":"IA","address":"600 Blairs Ferry Rd NE Ste E","name":""},
  {"lat":25.73296,"lon":-80.30948,"city":"Miami","state":"FL","address":"7100 SW Bird Road","name":""},
  {"lat":49.191988,"lon":-122.94878,"city":"New Westminster","state":"BC","address":"805 Boyd St","name":""},
  {"lat":43.97233,"lon":-90.49898,"city":"Tomah","state":"WI","address":"1030 E CLifton St","name":""},
  {"lat":37.16156,"lon":-88.68964,"city":"Metropolis","state":"IL","address":"2105 E 5th St","name":""},
  {"lat":43.06433,"lon":-89.40083,"city":"Madison","state":"WI","address":"318 S Park Street","name":""},
  {"lat":29.690584,"lon":-95.41745,"city":"Houston","state":"TX","address":"8502 Main St Ste A","name":""},
  {"lat":33.407192,"lon":-111.995273,"city":"Phoenix","state":"AZ","address":"4001 E Broadway Rd Ste B12A","name":""},
  {"lat":29.491187,"lon":-98.57251,"city":"San Antonio","state":"TX","address":"6408 Callaghan Rd","name":""},
  {"lat":39.67721,"lon":-86.36969,"city":"Plainfield","state":"IN","address":"5971 Cambridge Way","name":""},
  {"lat":43.99144,"lon":-90.36889,"city":"Camp Douglas","state":"WI","address":"200 US Highway 12/16","name":""},
  {"lat":42.636958,"lon":-83.170568,"city":"Rochester Hills","state":"MI","address":"2933 Crooks Rd","name":""},
  {"lat":37.34877,"lon":-89.59936,"city":"Cape Girardeau","state":"MO","address":"2505 Veteran's Memorial Dr.","name":""},
  {"lat":53.53944,"lon":-113.423127,"city":"Edmonton","state":"AB","address":"Capilano Shopping Centre","name":""},
  {"lat":36.32352,"lon":-86.70103,"city":"Goodlettsville","state":"TN","address":"919 Conference Drive","name":""},
  {"lat":46.725375,"lon":-122.974877,"city":"Centralia","state":"WA","address":"136 W High St","name":""},
  {"lat":46.599908,"lon":-120.583155,"city":"Yakima","state":"WA","address":"5603 Summitview Ave Unit 102","name":""},
  {"lat":46.09274,"lon":-64.75922,"city":"Dieppe","state":"NB","address":"4B-18 Champlain St","name":""},
  {"lat":38.35212,"lon":-85.79423,"city":"New Albany","state":"IN","address":"4212 Charlestown Rd Ste 1","name":""},
  {"lat":40.06081,"lon":-81.05336,"city":"Belmont","state":"OH","address":"66440 Belmont Morristown Rd","name":""},
  {"lat":29.8672,"lon":-95.56926,"city":"Houston","state":"TX","address":"10920 W Little York Rd","name":""},
  {"lat":35.28133,"lon":-93.13363,"city":"Russellville","state":"AR","address":"407 N Arkansas Ave Ste 3","name":""},
  {"lat":44.9429,"lon":-92.90249,"city":"Woodbury","state":"MN","address":"10075 City Walk Dr Ste F","name":""},
  {"lat":55.241431,"lon":-118.794373,"city":"Clairmont","state":"AB","address":"8301 99 Street","name":""},
  {"lat":43.509344,"lon":-79.631236,"city":"Mississauga","state":"ON","address":"C11-960 Southdown Rd","name":""},
  {"lat":49.050584,"lon":-122.324705,"city":"Abbotsford","state":"BC","address":"32500 South Fraser Way","name":""},
  {"lat":49.261606,"lon":-123.069763,"city":"Vancouver","state":"BC","address":"2580 Commercial Dr","name":""},
  {"lat":37.77955,"lon":-100.0195,"city":"Dodge City","state":"KS","address":"2615 Gary Ave","name":""},
  {"lat":30.28504,"lon":-95.46741,"city":"Conroe","state":"TX","address":"504 Medical Center Blvd","name":""},
  {"lat":50.706583,"lon":-113.974853,"city":"Okotoks","state":"AB","address":"309-201 Southridge Dr Bldg B3","name":""},
  {"lat":49.14233,"lon":-121.961203,"city":"Chilliwack","state":"BC","address":"45609 Luckakuck Way","name":""},
  {"lat":33.45404,"lon":-117.60498,"city":"San Clemente","state":"CA","address":"1001 Avenida Pico Ste F","name":""},
  {"lat":36.64341,"lon":-93.18827,"city":"Branson","state":"MO","address":"225 Cross Creek Boulevard","name":""},
  {"lat":49.286502,"lon":-123.120034,"city":"Vancouver","state":"BC","address":"1050 West Pender Street","name":""},
  {"lat":44.706183,"lon":-63.563156,"city":"Dartmouth","state":"NS","address":"30 Foulis Row","name":""},
  {"lat":49.264322,"lon":-123.011814,"city":"Burnaby","state":"BC","address":"4192 Dawson St","name":""},
  {"lat":53.537434,"lon":-113.617805,"city":"Edmonton","state":"AB","address":"9940 170 St NW","name":""},
  {"lat":39.85323,"lon":-104.67415,"city":"Denver","state":"CO","address":"8400 Pena Blvd Concourse A Ste D","name":""},
  {"lat":30.328562,"lon":-81.660113,"city":"Jacksonville","state":"FL","address":"224 N Hogan St","name":""},
  {"lat":47.09152,"lon":-122.64399,"city":"Dupont","state":"WA","address":"1520 Wilmington Dr Ste C2","name":""},
  {"lat":47.72713,"lon":-121.98703,"city":"Duvall","state":"WA","address":"14110 Main St NE Ste C","name":""},
  {"lat":35.52622,"lon":-98.6994,"city":"Weatherford","state":"OK","address":"701 E Main St Ste A","name":""},
  {"lat":53.425699,"lon":-113.476558,"city":"Edmonton","state":"AB","address":"9264 Ellerslie Rd SW","name":""},
  {"lat":29.959771,"lon":-90.183848,"city":"Harahan","state":"LA","address":"1130 S Clearview Pkwy Ste D","name":""},
  {"lat":51.082063,"lon":-113.984864,"city":"Calgary","state":"AB","address":"301-3508 32nd Ave NE","name":""},
  {"lat":53.568044,"lon":-113.288205,"city":"Sherwood Park","state":"AB","address":"220-5000 Emerald Dr","name":""},
  {"lat":49.668373,"lon":-112.794593,"city":"Lethbridge","state":"AB","address":"2408 Fairway Plaza Rd South","name":""},
  {"lat":43.009448,"lon":-81.333364,"city":"London","state":"ON","address":"1985 Hyde Park Rd","name":""},
  {"lat":46.901676,"lon":-98.708034,"city":"Jamestown","state":"ND","address":"721 1st Ave S","name":""},
  {"lat":49.15708,"lon":-122.78101,"city":"Surrey","state":"BC","address":"403-15940 Fraser Hwy","name":""},
  {"lat":43.56416,"lon":-96.7595,"city":"Sioux Falls","state":"SD","address":"2505 W Russell St","name":""},
  {"lat":43.488731,"lon":-79.650534,"city":"Oakville","state":"ON","address":"1-601 Ford Dr","name":""},
  {"lat":26.53363,"lon":-81.75528,"city":"Fort Myers","state":"FL","address":"11000 Terminal Axis Road","name":""},
  {"lat":53.699816,"lon":-113.207078,"city":"Fort Saskatchewan","state":"AB","address":"10010 88 Avenue CRU 2","name":""},
  {"lat":36.62797,"lon":-119.68312,"city":"Fowler","state":"CA","address":"216 W Merced St, Ste 104","name":""},
  {"lat":49.21113,"lon":-123.09008,"city":"Vancouver","state":"BC","address":"729 SE Marine Dr","name":""},
  {"lat":47.5046,"lon":-122.62926,"city":"Port Orchard","state":"WA","address":"1888 SE Sedgwick Rd, Ste 103","name":""},
  {"lat":52.23978,"lon":-113.81691,"city":"Red Deer","state":"AB","address":"Gaetz Avenue Crossing","name":""},
  {"lat":38.68006,"lon":-121.3339,"city":"Sacramento","state":"CA","address":"6306 Garfield Ave","name":""},
  {"lat":43.15098,"lon":-79.21396,"city":"St. Catharines","state":"ON","address":"114 Hartzel Rd","name":""},
  {"lat":33.55164,"lon":-112.257909,"city":"Glendale","state":"AZ","address":"9230 W Northern Ave Ste 107","name":""},
  {"lat":33.06752,"lon":-96.69806,"city":"Plano","state":"TX","address":"280 Legacy Parkway, Suite 200","name":""},
  {"lat":35.39459,"lon":-77.97143,"city":"Goldsboro","state":"NC","address":"1813 Wayne Memorial Dr","name":""},
  {"lat":55.178929,"lon":-118.820691,"city":"Grande Prairie","state":"AB","address":"103-10661 108a St","name":""},
  {"lat":30.482756,"lon":-97.660433,"city":"Round Rock","state":"TX","address":"603 Louis Henna Blvd Ste B120","name":""},
  {"lat":39.63296,"lon":-77.69954,"city":"Hagerstown","state":"MD","address":"55 Eastern Blvd N","name":""},
  {"lat":37.919673,"lon":-122.346744,"city":"Richmond","state":"CA","address":"2175 Meeker Ave","name":""},
  {"lat":40.58131,"lon":-98.392386,"city":"Hastings","state":"NE","address":"320 South Burlington Avenue","name":""},
  {"lat":33.92362,"lon":-118.325817,"city":"Hawthorne","state":"CA","address":"2909 W 120th St","name":""},
  {"lat":49.27983,"lon":-122.792639,"city":"Coquitlam","state":"BC","address":"1163 Pinetree Way","name":""},
  {"lat":43.40318,"lon":-80.327388,"city":"Cambridge","state":"ON","address":"580 Hespeler Rd","name":""},
  {"lat":49.1045,"lon":-122.799553,"city":"Surrey","state":"BC","address":"101-15335 Hwy 10","name":""},
  {"lat":21.33311,"lon":-157.92163,"city":"Honolulu","state":"HI","address":"HMS Host, Honolulu International Airport","name":""},
  {"lat":54.15461,"lon":-113.85072,"city":"Westlock","state":"AB","address":"10208 104 Avenue","name":""},
  {"lat":42.47195,"lon":-91.11431,"city":"Dyersville","state":"IA","address":"1426 9th St SE","name":""},
  {"lat":53.27749,"lon":-110.05804,"city":"Lloydminster","state":"AB","address":"7701 44th St. #102","name":""},
  {"lat":27.49289,"lon":-82.47825,"city":"Bradenton","state":"FL","address":"575 66th Street Court East","name":""},
  {"lat":49.49559,"lon":-119.61352,"city":"Penticton","state":"BC","address":"1090 Westminster Ave W","name":""},
  {"lat":39.780934,"lon":-105.00622,"city":"Denver","state":"CO","address":"4640 Pecos St Unit A","name":""},
  {"lat":47.485809,"lon":-122.27429,"city":"Tukwila","state":"WA","address":"13038 Interurban Ave S Ste 140","name":""},
  {"lat":49.132066,"lon":-123.095485,"city":"Richmond","state":"BC","address":"11666 Steveston Hwy","name":""},
  {"lat":29.67247,"lon":-90.53831,"city":"Mathews","state":"LA","address":"5375 Highway 308","name":""},
  {"lat":54.0046,"lon":-122.80203,"city":"Prince George","state":"BC","address":"8087 John Hart Highway","name":""},
  {"lat":49.823497,"lon":-97.198639,"city":"Winnipeg","state":"MB","address":"7-1639 Kenaston Blvd","name":""},
  {"lat":46.522495,"lon":-80.939059,"city":"Sudbury","state":"ON","address":"E-1560 Lasalle Blvd","name":""},
  {"lat":32.9917,"lon":-94.96222,"city":"Pittsburg","state":"TX","address":"310 S Greer Blvd.","name":""},
  {"lat":49.11447,"lon":-122.668076,"city":"Langley","state":"BC","address":"A-20055 Langley Bypass","name":""},
  {"lat":42.229937,"lon":-83.103185,"city":"Lasalle","state":"ON","address":"1915 Front Rd","name":""},
  {"lat":30.82739,"lon":-81.6608,"city":"Kingsland","state":"GA","address":"5289 Laurel Island Parkway","name":""},
  {"lat":39.72145,"lon":-89.61073,"city":"Springfield","state":"IL","address":"5250 Shepherd Road","name":""},
  {"lat":46.74712,"lon":-114.08264,"city":"Lolo","state":"MT","address":"12011 US Highway 93 S","name":""},
  {"lat":34.052419,"lon":-118.241658,"city":"Los Angeles","state":"CA","address":"201 N Los Angeles St Ste 22","name":""},
  {"lat":53.600621,"lon":-113.424344,"city":"Edmonton","state":"AB","address":"184 Manning Crossing NW","name":""},
  {"lat":42.53368,"lon":-83.502237,"city":"Commerce Township","state":"MI","address":"760 Benstein Road","name":""},
  {"lat":33.755034,"lon":-84.390502,"city":"Atlanta","state":"GA","address":"29 Marietta St NW","name":""},
  {"lat":50.481092,"lon":-104.617301,"city":"Regina","state":"SK","address":"305 Albert St","name":""},
  {"lat":49.179378,"lon":-123.070214,"city":"Richmond","state":"BC","address":"105-13988 Maycrest Way","name":""},
  {"lat":35.805518,"lon":-83.98703,"city":"Alcoa","state":"TN","address":"2055 Alcoa Highway","name":""},
  {"lat":36.08484,"lon":-115.14958,"city":"Las Vegas","state":"NV","address":"5757 Wayne Newton BLvd","name":""},
  {"lat":49.902957,"lon":-119.405416,"city":"Kelowna","state":"BC","address":"948 McCurdy Rd","name":""},
  {"lat":36.765026,"lon":-119.718368,"city":"Fresno","state":"CA","address":"1595 N Peach Ave Ste 101","name":""},
  {"lat":36.060771,"lon":-95.864904,"city":"Tulsa","state":"OK","address":"10031 E 71st St Ste F","name":""},
  {"lat":49.131044,"lon":-122.319086,"city":"Mission","state":"BC","address":"32555 London Ave","name":""},
  {"lat":34.79374,"lon":-86.53611,"city":"Huntsville","state":"AL","address":"5095 A Moores Mill Rd","name":""},
  {"lat":50.412752,"lon":-105.53024,"city":"Moose Jaw","state":"SK","address":"121 Thatcher Dr W","name":""},
  {"lat":49.06088,"lon":-122.380692,"city":"Abbotsford","state":"BC","address":"101-3220 Mt Lehman Rd","name":""},
  {"lat":42.27735,"lon":-88.02191,"city":"Mundelein","state":"IL","address":"1156 W Maple Ave","name":""},
  {"lat":49.089692,"lon":-122.607305,"city":"Langley","state":"BC","address":"103-22259 48 Ave","name":""},
  {"lat":43.32161,"lon":-87.92532,"city":"Grafton","state":"WI","address":"1231 N Port Washington Rd","name":""},
  {"lat":40.84927,"lon":-111.92978,"city":"North Salt Lake","state":"UT","address":"420 N Redwood Rd Unit A","name":""},
  {"lat":29.81153,"lon":-95.16263,"city":"Houston","state":"TX","address":"5805 E Sam Houston Pkwy N Ste H","name":""},
  {"lat":53.335197,"lon":-113.541302,"city":"Nisku","state":"AB","address":"205 19 Avenue","name":""},
  {"lat":40.479577,"lon":-104.928587,"city":"Windsor","state":"CO","address":"1550 Main St","name":""},
  {"lat":28.09863,"lon":-82.00663,"city":"Lakeland","state":"FL","address":"4410 Kathleen Rd","name":""},
  {"lat":49.323867,"lon":-123.112031,"city":"North Vancouver","state":"BC","address":"1303 Marine Dr","name":""},
  {"lat":42.154253,"lon":-88.128274,"city":"Barrington","state":"IL","address":"115 N Northwest Hwy","name":""},
  {"lat":46.79793,"lon":-123.01216,"city":"Rochester","state":"WA","address":"19810 Old Highway 99 SW","name":""},
  {"lat":38.088096,"lon":-102.619137,"city":"Lamar","state":"CO","address":"113 E Olive St","name":""},
  {"lat":45.67794,"lon":-122.551095,"city":"Vancouver","state":"WA","address":"7620 NE 119th Pl Unit 102","name":""},
  {"lat":45.41925,"lon":-75.69937,"city":"Ottawa","state":"ON","address":"133 Bank St","name":""},
  {"lat":41.02789,"lon":-92.39882,"city":"Ottumwa","state":"IA","address":"627 E Pennsylvania Ave","name":""},
  {"lat":49.202728,"lon":-122.878335,"city":"Surrey","state":"BC","address":"102-10355 120th St","name":""},
  {"lat":53.9104,"lon":-122.7607,"city":"Prince George","state":"BC","address":"1600 15th Ave","name":""},
  {"lat":36.156,"lon":-86.77384,"city":"Nashville","state":"TN","address":"319 Peabody St","name":""},
  {"lat":37.678747,"lon":-122.084208,"city":"Hayward","state":"CA","address":"22312 Foothill Blvd","name":""},
  {"lat":42.367744,"lon":-83.400228,"city":"Livonia","state":"MI","address":"36171 Plymouth Rd","name":""},
  {"lat":49.024263,"lon":-122.267008,"city":"Abbotsford","state":"BC","address":"1201 Sumas Way","name":""},
  {"lat":40.69938,"lon":-99.12254,"city":"Kearney","state":"NE","address":"3004 Highway 30 W","name":""},
  {"lat":40.43755,"lon":-99.36761,"city":"Holdrege","state":"NE","address":"916 4th Avenue","name":""},
  {"lat":40.94658,"lon":-98.38449,"city":"Grand Island","state":"NE","address":"2511 Diers Ave","name":""},
  {"lat":41.09728,"lon":-96.25255,"city":"Gretna","state":"NE","address":"14341 S Highway 31","name":""},
  {"lat":40.72892,"lon":-99.06546,"city":"Kearney","state":"NE","address":"1212 E 56th St","name":""},
  {"lat":40.82508,"lon":-97.59685,"city":"York","state":"NE","address":"3901 South Lincoln Avenue","name":""},
  {"lat":40.8858,"lon":-98.34076,"city":"Grand Island","state":"NE","address":"3436 S Locust","name":""},
  {"lat":41.45627,"lon":-97.39289,"city":"Columbus","state":"NE","address":"3208 42nd St","name":""},
  {"lat":41.45193,"lon":-96.45332,"city":"Fremont","state":"NE","address":"3441 24th St","name":""},
  {"lat":42.44828,"lon":-96.55665,"city":"Jackson","state":"NE","address":"400 W Elk St","name":""},
  {"lat":52.979507,"lon":-122.496642,"city":"Quesnel","state":"BC","address":"426 Reid St","name":""},
  {"lat":36.160708,"lon":-115.172661,"city":"Las Vegas","state":"NV","address":"901 S Rancho Dr","name":""},
  {"lat":49.89544,"lon":-97.02909,"city":"Winnipeg","state":"MB","address":"300 - 855 Regent Ave W","name":""},
  {"lat":45.755448,"lon":-73.444406,"city":"Repentigny","state":"QC","address":"4-111 Industriel Blvd","name":""},
  {"lat":51.00825,"lon":-118.21714,"city":"Revelstoke","state":"BC","address":"1872 Trans-Canada Highway","name":""},
  {"lat":38.804636,"lon":-76.9799,"city":"Oxon Hill","state":"MD","address":"6215 Oxon Hill Rd","name":""},
  {"lat":41.57736,"lon":-109.24942,"city":"Rock Springs","state":"WY","address":"101 Gateway Blvd Ste A","name":""},
  {"lat":45.0351,"lon":-93.40806,"city":"Plymouth","state":"MN","address":"4406 Nathan Ln N","name":""},
  {"lat":53.492751,"lon":-113.443562,"city":"Edmonton","state":"AB","address":"5670 75 St NW","name":""},
  {"lat":33.677627,"lon":-112.03107,"city":"Phoenix","state":"AZ","address":"21043 N Cave Creek Rd Ste A2","name":""},
  {"lat":49.895323,"lon":-97.201008,"city":"Winnipeg","state":"MB","address":"1038 St James St","name":""},
  {"lat":35.092316,"lon":-92.4702,"city":"Conway","state":"AR","address":"2850 Prince St Ste 9","name":""},
  {"lat":41.187637,"lon":-87.118764,"city":"Wheatfield","state":"IN","address":"3840 W State Road 10","name":""},
  {"lat":49.03393,"lon":-122.80105,"city":"Surrey","state":"BC","address":"1767 152nd Street","name":""},
  {"lat":49.265643,"lon":-122.776174,"city":"Port Coquitlam","state":"BC","address":"2850 Shaughnessy St","name":""},
  {"lat":50.905031,"lon":-114.066817,"city":"Calgary","state":"AB","address":"85 Shawville Blvd SE","name":""},
  {"lat":36.60169,"lon":-78.153999,"city":"Bracey","state":"VA","address":"2883 Highway 903","name":""},
  {"lat":45.1239,"lon":-93.18505,"city":"Shoreview","state":"MN","address":"5999 Rice Creek Pkwy Ste 106","name":""},
  {"lat":44.27659,"lon":-105.48939,"city":"Gillette","state":"WY","address":"1103 E Boxelder Road","name":""},
  {"lat":41.55915,"lon":-93.76703,"city":"West Des Moines","state":"IA","address":"4800 Mills Civic Pkwy Ste 103","name":""},
  {"lat":39.56966,"lon":-104.98871,"city":"Littleton","state":"CO","address":"8053 S Broadway","name":""},
  {"lat":50.929348,"lon":-113.966785,"city":"Calgary","state":"AB","address":"4705 130 Ave SE","name":""},
  {"lat":53.448774,"lon":-113.483657,"city":"Edmonton","state":"AB","address":"1931 98 St NW","name":""},
  {"lat":33.39387,"lon":-111.721157,"city":"Mesa","state":"AZ","address":"5110 E Southern Ave Ste 112","name":""},
  {"lat":32.2364,"lon":-110.93368,"city":"Tucson","state":"AZ","address":"2601 East Speedway Blvd","name":""},
  {"lat":53.542094,"lon":-113.933019,"city":"Spruce Grove","state":"AB","address":"38-100 Jennifer Heil Way","name":""},
  {"lat":53.919424,"lon":-122.783408,"city":"Prince George","state":"BC","address":"663 Central St W","name":""},
  {"lat":49.191785,"lon":-123.109656,"city":"Richmond","state":"BC","address":"108-3088 St Edwards Drive","name":""},
  {"lat":46.261023,"lon":-63.119356,"city":"Charlottetown","state":"PE","address":"161 St.Peters Road","name":""},
  {"lat":47.969736,"lon":-122.201195,"city":"Everett","state":"WA","address":"3625 Broadway Ste B","name":""},
  {"lat":27.43255,"lon":-82.39689,"city":"Lakewood Ranch","state":"FL","address":"14315 East State Road 70","name":""},
  {"lat":49.134287,"lon":-122.888371,"city":"Surrey","state":"BC","address":"12077 72 Ave","name":""},
  {"lat":27.4457,"lon":-82.57708,"city":"Bradenton","state":"FL","address":"5410 14th Street W.","name":""},
  {"lat":25.93019,"lon":-80.20944,"city":"Miami Gardens","state":"FL","address":"17080 NW 7th Avenue","name":""},
  {"lat":26.64556,"lon":-81.94111,"city":"Cape Coral","state":"FL","address":"314 Del Prado Blvd N","name":""},
  {"lat":28.50568,"lon":-81.41811,"city":"Orlando","state":"FL","address":"3600 South John Young Parkway","name":""},
  {"lat":42.95639,"lon":-83.85024,"city":"Swartz Creek","state":"MI","address":"8603 Miller Rd","name":""},
  {"lat":30.48344,"lon":-90.41462,"city":"Hammond","state":"LA","address":"43106 S Airport Rd","name":""},
  {"lat":54.51646,"lon":-128.58559,"city":"Terrace","state":"BC","address":"4553 Lakelse Ave","name":""},
  {"lat":36.33044,"lon":-119.391,"city":"Visalia","state":"CA","address":"202 North Plaza Drive","name":""},
  {"lat":55.742185,"lon":-97.853325,"city":"Thompson","state":"MB","address":"2/3-50 Selkirk Ave","name":""},
  {"lat":43.115373,"lon":-79.125324,"city":"Niagara Falls","state":"ON","address":"3969 Montrose Rd Ste 7","name":""},
  {"lat":49.14077,"lon":-123.01359,"city":"Delta","state":"BC","address":"7389 River Rd #3","name":""},
  {"lat":29.773633,"lon":-95.558447,"city":"Houston","state":"TX","address":"650 W Bough Ln Ste 130","name":""},
  {"lat":39.14563,"lon":-94.5566,"city":"Kansas City","state":"MO","address":"2384 Armour Rd","name":""},
  {"lat":49.884663,"lon":-97.312078,"city":"Winnipeg","state":"MB","address":"4-3647 Portage Avenue","name":""},
  {"lat":35.07933,"lon":-92.45415,"city":"Conway","state":"AR","address":"201 S Donaghey","name":""},
  {"lat":35.209815,"lon":-97.443727,"city":"Norman","state":"OK","address":"900 Asp Ave","name":""},
  {"lat":38.78826,"lon":-89.98101,"city":"Edwardsville","state":"IL","address":"1053 Century Dr","name":""},
  {"lat":43.22759,"lon":-79.88217,"city":"Hamilton","state":"ON","address":"841 Upper James St","name":""},
  {"lat":41.64791,"lon":-93.77089,"city":"Urbandale","state":"IA","address":"11123 Plum Dr","name":""},
  {"lat":34.09896,"lon":-118.291763,"city":"Hollywood","state":"CA","address":"1528 N Vermont Ave Ste A","name":""},
  {"lat":45.273866,"lon":-75.746751,"city":"Ottawa","state":"ON","address":"1581 Greenbank Rd","name":""},
  {"lat":53.65986,"lon":-113.63342,"city":"St. Albert","state":"AB","address":"260-700 St Albert Rd","name":""},
  {"lat":41.58893,"lon":-93.80825,"city":"West Des Moines","state":"IA","address":"7205 Vista Dr Ste 120","name":""},
  {"lat":52.84305,"lon":-110.85245,"city":"Wainwright","state":"AB","address":"1015 14th Avenue","name":""},
  {"lat":47.849794,"lon":-122.251866,"city":"Lynnwood","state":"WA","address":"1330 164th St SW Ste 110","name":""},
  {"lat":49.172103,"lon":-122.667317,"city":"Langley","state":"BC","address":"108-9292 200 St","name":""},
  {"lat":42.278812,"lon":-83.426773,"city":"Wayne","state":"MI","address":"39345 Michigan Ave","name":""},
  {"lat":28.07728,"lon":-81.9628,"city":"Lakeland","state":"FL","address":"2750 US Highway 98 N","name":""},
  {"lat":49.83462,"lon":-119.61719,"city":"West Kelowna","state":"BC","address":"208 - 3608 Carrington road","name":""},
  {"lat":60.726452,"lon":-135.059277,"city":"Whitehorse","state":"YT","address":"B-210 Ogilvie Street","name":""},
  {"lat":39.5569,"lon":-119.782277,"city":"Reno","state":"NV","address":"2905 Northtowne Ln, Ste 120","name":""},
  {"lat":43.857876,"lon":-79.359795,"city":"Markham","state":"ON","address":"8865 Woodbine Ave Bldg D Unit 2","name":""},
  {"lat":32.33401,"lon":-90.17458,"city":"Jackson","state":"MS","address":"2945 Old Canton Rd","name":""},
  {"lat":30.16732,"lon":-95.45669,"city":"The Woodlands","state":"TX","address":"1440A Lake Woodlands Dr","name":""},
  {"lat":34.226969,"lon":-118.485226,"city":"North Hills","state":"CA","address":"8625 Woodley Ave","name":""},
  {"lat":62.449868,"lon":-114.40236,"city":"Yellowknife","state":"NT","address":"106-314 Old Airport Rd","name":""},
  {"lat":62.440928,"lon":-114.416471,"city":"Yellowknife","state":"NT","address":"1 Yellowknife Airport","name":""},
  {"lat":46.934447,"lon":-122.592704,"city":"Yelm","state":"WA","address":"1202 E Yelm Ave Ste E","name":""}
]}