{"key":"round1","displayName":"Round1","category":"entertainment","useLocationName":false,"locations":[
  {"lat":38.774653,"lon":-121.26979,"city":"Roseville (Westfield Galleria At Roseville)","state":"CA","address":"1191 Galleria Blvd., Suite 1210, Roseville, CA 95678, USA","name":""},
  {"lat":35.107116,"lon":-106.572808,"city":"Albuquerque","state":"NM","address":"6600 Menaul Blvd NE, Albuquerque, NM 87110, USA","name":""},
  {"lat":32.679345,"lon":-97.12959,"city":"Arlington","state":"TX","address":"3811 S Cooper St, Arlington, TX 76015, USA","name":""},
  {"lat":33.880566,"lon":-84.468361,"city":"Atlanta","state":"GA","address":"2860 Cumberland Mall SE, Atlanta, GA 30339, USA","name":""},
  {"lat":42.701236,"lon":-83.306389,"city":"Auburn Hills","state":"MI","address":"4220 Baldwin Rd, Auburn Hills, MI 48326, USA","name":""},
  {"lat":41.75909,"lon":-88.211625,"city":"Aurora","state":"IL","address":"2480 Fox Valley Center Rd, Aurora, IL 60504, USA","name":""},
  {"lat":39.764027,"lon":-84.053774,"city":"Beavercreek","state":"OH","address":"2727 Fairfield Commons, Beavercreek, OH 45431, USA","name":""},
  {"lat":34.18301,"lon":-118.311811,"city":"Burbank","state":"CA","address":"201 E Magnolia Blvd, Burbank, CA 91502, USA","name":""},
  {"lat":33.302444,"lon":-111.89855,"city":"Chandler (Chandler Fashion Center)","state":"AZ","address":"3177 W Chandler Blvd, Suite #100 Chandler, AZ 85226","name":""},
  {"lat":33.9934,"lon":-117.926695,"city":"City of Industry","state":"CA","address":"1600 S Azusa Ave, City of Industry, CA 91748, USA","name":""},
  {"lat":37.995283,"lon":-122.040625,"city":"Concord","state":"CA","address":"185 Sunvalley Mall, Concord, CA 94520, USA","name":""},
  {"lat":41.378946,"lon":-73.480317,"city":"Danbury","state":"CT","address":"7 Backus Ave, Danbury, CT 06810, USA","name":""},
  {"lat":39.830975,"lon":-75.096697,"city":"Deptford Township","state":"NJ","address":"1750 Deptford Center Rd, Deptford Township, NJ 08096, USA","name":""},
  {"lat":40.548723,"lon":-74.33398,"city":"Edison","state":"NJ","address":"55 Parsonage Rd Space 1850A, Edison, NJ 08837","name":""},
  {"lat":40.658923,"lon":-74.170336,"city":"Elizabeth","state":"NJ","address":"651 Kapkowski Rd. Anchor XJ, Elizabeth, NJ 07201","name":""},
  {"lat":42.068281,"lon":-80.092706,"city":"Erie","state":"PA","address":"5800 Peach St, Erie, PA 16509, USA","name":""},
  {"lat":33.067937,"lon":-117.065207,"city":"Escondido","state":"CA","address":"272 E Via Rancho Pkwy, Escondido, CA 92025","name":""},
  {"lat":44.0686,"lon":-123.108227,"city":"Eugene","state":"OR","address":"600 Valley River Ctr, Eugene, OR 97401, USA","name":""},
  {"lat":40.031835,"lon":-75.627676,"city":"Exton","state":"PA","address":"172 Exton Square Pkwy, Exton, PA 19341, USA","name":""},
  {"lat":40.757673,"lon":-73.834396,"city":"Flushing","state":"NY","address":"40-24 College Point Blvd, Flushing, NY 11354","name":""},
  {"lat":33.642011,"lon":-112.225406,"city":"Glendale","state":"AZ","address":"7650 W Arrowhead Towne Center, Glendale, AZ 85308, USA","name":""},
  {"lat":32.966167,"lon":-97.042408,"city":"Grapevine","state":"TX","address":"3000 Grapevine Mills Pkwy, Grapevine, TX 76051, USA","name":""},
  {"lat":42.949918,"lon":-88.004887,"city":"Greendale","state":"WI","address":"5200 S 76th St, Greendale, WI 53129, USA","name":""},
  {"lat":36.039636,"lon":-79.840504,"city":"Greensboro (Four Seasons Town Centre)","state":"NC","address":"125 Four Seasons Town Centre, Suite 125 Greensboro NC 27407, USA","name":""},
  {"lat":34.850144,"lon":-82.33309,"city":"Greenville","state":"SC","address":"700 Haywood Rd, Greenville, SC 29607","name":""},
  {"lat":42.37142,"lon":-87.91707,"city":"Gurnee","state":"IL","address":"6136 W Grand Ave., Gurnee, IL 60031","name":""},
  {"lat":37.651353,"lon":-122.103525,"city":"Hayward","state":"CA","address":"551 Southland Mall Dr, Hayward, CA 94545, USA","name":""},
  {"lat":40.77398,"lon":-73.528634,"city":"Hicksville","state":"NY","address":"358 N Broadway Mall, Hicksville, NY 11801, USA","name":""},
  {"lat":42.16763,"lon":-72.641357,"city":"Holyoke","state":"MA","address":"50 Holyoke St, Holyoke, MA 01040, USA","name":""},
  {"lat":29.962456,"lon":-95.539133,"city":"Houston","state":"TX","address":"3000 Willowbrook Mall (A), Houston, TX 77070, USA","name":""},
  {"lat":30.00792,"lon":-95.268962,"city":"Humble","state":"TX","address":"20131 Highway 59 North Suite 1240, Humble, TX 77338, USA","name":""},
  {"lat":39.731877,"lon":-105.15869,"city":"Lakewood","state":"CO","address":"14500 W Colfax Ave, Lakewood, CO 80401","name":""},
  {"lat":33.854788,"lon":-118.142603,"city":"Lakewood","state":"CA","address":"401 Lakewood Ctr Mall, Lakewood, CA 90712, USA","name":""},
  {"lat":40.068399,"lon":-76.339423,"city":"Lancaster","state":"PA","address":"200 Park City Center, Lancaster, PA 17601, USA","name":""},
  {"lat":36.170247,"lon":-115.205202,"city":"Las Vegas","state":"NV","address":"4300 Meadows Ln, Las Vegas, NV 89107, USA","name":""},
  {"lat":36.055279,"lon":-115.169538,"city":"Las Vegas","state":"NV","address":"7400 S Las Vegas Blvd Suite 0213, Las Vegas NV 89123","name":""},
  {"lat":40.815286,"lon":-96.635679,"city":"Lincoln","state":"NE","address":"6100 O St, Lincoln, NE 68505, USA","name":""},
  {"lat":39.610755,"lon":-105.095587,"city":"Littleton","state":"CO","address":"8501 W Bowles Ave, Littleton, CO 80123, USA","name":""},
  {"lat":41.658832,"lon":-81.36297,"city":"Mentor","state":"OH","address":"7850 Mentor Ave, Mentor, OH 44060, USA","name":""},
  {"lat":41.453451,"lon":-74.363314,"city":"Middletown","state":"NY","address":"1 Galleria Dr, Middletown, NY 10941, USA","name":""},
  {"lat":33.558057,"lon":-117.669298,"city":"Ca 92691","state":"CA","address":"60C The Shops at Mission Viejo Mission Viejo, CA 92691, USA","name":""},
  {"lat":33.93993,"lon":-117.272215,"city":"Moreno Valley","state":"CA","address":"22500 Town Cir, Moreno Valley, CA 92553, USA","name":""},
  {"lat":32.656342,"lon":-117.065826,"city":"National City","state":"CA","address":"3030 Plaza Bonita Rd Ste 1025, National City, CA 91950, USA","name":""},
  {"lat":41.85014,"lon":-87.808111,"city":"North Riverside","state":"IL","address":"7503 W Cermak Rd, North Riverside, IL 60546, USA","name":""},
  {"lat":42.491899,"lon":-83.471475,"city":"Novi","state":"MI","address":"27500 Novi Rd, Novi, MI 48377","name":""},
  {"lat":35.611745,"lon":-97.557944,"city":"Oklahoma City","state":"OK","address":"2501 W Memorial Rd, Oklahoma City, OK 73134, USA","name":""},
  {"lat":34.60478,"lon":-118.152478,"city":"Palmdale","state":"CA","address":"1233 Rancho Vista Blvd, Palmdale, CA 93551","name":""},
  {"lat":26.009581,"lon":-80.300146,"city":"Pembroke Pines","state":"FL","address":"12055 Pines Blvd, Pembroke Pines, FL 33026","name":""},
  {"lat":39.952137,"lon":-75.15708,"city":"Philadelphia","state":"PA","address":"1001 Market St, Philadelphia, PA 19107, USA","name":""},
  {"lat":47.1593,"lon":-122.295433,"city":"Puyallup","state":"WA","address":"3500 S Meridian Unit 900, Puyallup, WA 98373, USA","name":""},
  {"lat":39.474634,"lon":-119.780551,"city":"Reno","state":"NV","address":"5400 Meadowood Mall Cir, Reno, NV 89502, USA","name":""},
  {"lat":36.713958,"lon":-121.660879,"city":"Salinas","state":"CA","address":"1600 Northridge Mall #200, Salinas, CA 93906, USA","name":""},
  {"lat":29.517342,"lon":-98.49726,"city":"San Antonio","state":"TX","address":"7400 San Pedro Ave, San Antonio, TX 78216, USA","name":""},
  {"lat":37.72847,"lon":-122.47683,"city":"Usa","state":"CA","address":"285 Winston Dr San Francisco CA 94132 Space No. B1, USA","name":""},
  {"lat":37.325858,"lon":-121.813098,"city":"San Jose","state":"CA","address":"2200 Eastridge Lp, San Jose, CA 95122, USA","name":""},
  {"lat":40.562091,"lon":-111.894091,"city":"Sandy","state":"UT","address":"10450 S State St, Sandy, UT 84070, USA","name":""},
  {"lat":33.776189,"lon":-117.869143,"city":"Santa Ana","state":"CA","address":"2800 N Main St, Santa Ana, CA 92705, USA","name":""},
  {"lat":43.633522,"lon":-70.334969,"city":"South Portland","state":"ME","address":"364 Maine Mall Rd, South Portland, ME 4106, USA","name":""},
  {"lat":33.524763,"lon":-117.153965,"city":"Temecula","state":"CA","address":"40710 Winchester Rd, Temecula, CA 92591, USA","name":""},
  {"lat":39.404266,"lon":-76.599028,"city":"Towson","state":"MD","address":"825 Dulaney Valley Rd, Towson, MD 21204, USA","name":""},
  {"lat":32.219955,"lon":-110.86373,"city":"Tucson","state":"AZ","address":"5950 E Broadway Blvd, Tucson, AZ 85711, USA","name":""},
  {"lat":47.459732,"lon":-122.255942,"city":"Tukwila","state":"WA","address":"2351 Southcenter Mall, Tukwila, WA 98188, USA","name":""},
  {"lat":45.656985,"lon":-122.583192,"city":"Vancouver (Vancouver Mall)","state":"WA","address":"8800 NE Vancouver Mall Dr., Suite 100, Vancouver, WA 98662, USA","name":""},
  {"lat":34.268303,"lon":-119.248633,"city":"Ventura","state":"CA","address":"3301 E Main St, Ventura, CA 93003","name":""},
  {"lat":37.682263,"lon":-97.247492,"city":"Wichita","state":"KS","address":"7700 E Kellogg Dr, Wichita, KS 67207, USA","name":""},
  {"lat":38.643339,"lon":-77.295103,"city":"Woodbridge","state":"VA","address":"2700 Potomac Mills Cir, Woodbridge, VA 22192, USA","name":""}]}