{"key":"safeway","displayName":"Safeway","category":"grocery","useLocationName":false,"locations":[
  {"lat":64.851734,"lon":-147.700575,"city":"Fairbanks","state":"AK","address":"30 College Rd","name":""},
  {"lat":60.560109,"lon":-151.240908,"city":"Kenai","state":"AK","address":"10576 Kenai Spur Hwy","name":""},
  {"lat":59.643374,"lon":-151.534277,"city":"Homer","state":"AK","address":"90 Sterling Hwy","name":""},
  {"lat":58.371027,"lon":-134.595742,"city":"Juneau","state":"AK","address":"3033 Vintage Blvd","name":""},
  {"lat":64.835724,"lon":-147.808172,"city":"Fairbanks","state":"AK","address":"3627 Airport Way","name":""},
  {"lat":40.524907,"lon":-105.05194,"city":"Fort Collins","state":"CO","address":"1426 E Harmony Rd","name":""},
  {"lat":34.760907,"lon":-112.451577,"city":"Chino Valley","state":"AZ","address":"1031 N US Hwy 89","name":""},
  {"lat":40.119055,"lon":-104.939739,"city":"Firestone","state":"CO","address":"8134 Colorado Blvd","name":""},
  {"lat":33.233725,"lon":-111.86051,"city":"Chandler","state":"AZ","address":"4970 S Alma School Rd","name":""},
  {"lat":38.941704,"lon":-104.601681,"city":"Falcon","state":"CO","address":"7655 Mclaughlin Rd","name":""},
  {"lat":33.30394,"lon":-111.863037,"city":"Chandler","state":"AZ","address":"1159 W Chandler Blvd","name":""},
  {"lat":39.64567,"lon":-105.339885,"city":"Evergreen","state":"CO","address":"3851 S Hwy 74","name":""},
  {"lat":40.380133,"lon":-105.516653,"city":"Estes Park","state":"CO","address":"451 E Wonderview Ave","name":""},
  {"lat":33.322334,"lon":-111.822211,"city":"Chandler","state":"AZ","address":"1060 E Ray Rd","name":""},
  {"lat":33.757831,"lon":-111.991782,"city":"Cave Creek","state":"AZ","address":"29834 N Cave Creek Rd","name":""},
  {"lat":40.016944,"lon":-105.100851,"city":"Erie","state":"CO","address":"3333 Arapahoe Rd N #B","name":""},
  {"lat":32.895283,"lon":-111.741372,"city":"Casa Grande","state":"AZ","address":"1637 N Trekell Rd","name":""},
  {"lat":48.279651,"lon":-116.552382,"city":"Sandpoint","state":"ID","address":"702 N 5th Ave","name":""},
  {"lat":35.121756,"lon":-114.588321,"city":"Bullhead City","state":"AZ","address":"1751 Hwy 95","name":""},
  {"lat":46.654951,"lon":-122.954091,"city":"Chehalis","state":"WA","address":"1100 S Market Blvd","name":""},
  {"lat":31.401237,"lon":-109.91725,"city":"Bisbee","state":"AZ","address":"101 Naco Hwy","name":""},
  {"lat":42.060747,"lon":-104.964532,"city":"Wheatland","state":"WY","address":"1307 16th St","name":""},
  {"lat":41.317009,"lon":-105.594907,"city":"Laramie","state":"WY","address":"554 N 3rd St","name":""},
  {"lat":31.969075,"lon":-110.306566,"city":"Benson","state":"AZ","address":"599 W 4th St","name":""},
  {"lat":38.016097,"lon":-121.943538,"city":"Pittsburg","state":"CA","address":"660 Bailey Rd","name":""},
  {"lat":42.837741,"lon":-108.746423,"city":"Lander","state":"WY","address":"1165 W Main St","name":""},
  {"lat":42.744416,"lon":-105.361725,"city":"Douglas","state":"WY","address":"1900 E Richards St","name":""},
  {"lat":41.110864,"lon":-104.802451,"city":"Cheyenne","state":"WY","address":"700 S Greeley Hwy","name":""},
  {"lat":46.933639,"lon":-122.59397,"city":"Yelm","state":"WA","address":"1109 Yelm Ave E","name":""},
  {"lat":46.57834,"lon":-120.488799,"city":"Yakima","state":"WA","address":"905 E Meade Ave","name":""},
  {"lat":46.598852,"lon":-120.585014,"city":"Yakima","state":"WA","address":"5702 Summitview Ave","name":""},
  {"lat":46.583904,"lon":-120.539172,"city":"Yakima","state":"WA","address":"2204A W Nob Hill Blvd","name":""},
  {"lat":46.60329,"lon":-120.516042,"city":"Yakima","state":"WA","address":"205 N 5th Ave","name":""},
  {"lat":46.602508,"lon":-120.532377,"city":"Yakima","state":"WA","address":"1610 W Lincoln Ave","name":""},
  {"lat":45.91258,"lon":-122.748326,"city":"Woodland","state":"WA","address":"1725 Pacific Ave","name":""},
  {"lat":47.756424,"lon":-122.080682,"city":"Woodinville","state":"WA","address":"19150 NE Woodinville Duvall Rd","name":""},
  {"lat":47.431091,"lon":-120.324043,"city":"Wenatchee","state":"WA","address":"501 N Miller St","name":""},
  {"lat":45.578901,"lon":-122.334718,"city":"Washougal","state":"WA","address":"3307 Evergreen Way Bldg 5","name":""},
  {"lat":46.076671,"lon":-118.302761,"city":"Walla Walla","state":"WA","address":"450 N Wilbur Ave","name":""},
  {"lat":46.070287,"lon":-118.337739,"city":"Walla Walla","state":"WA","address":"215 E Rose St","name":""},
  {"lat":46.048721,"lon":-118.348001,"city":"Walla Walla","state":"WA","address":"1600 Plaza Way","name":""},
  {"lat":45.666515,"lon":-122.603505,"city":"Vancouver","state":"WA","address":"6711 NE 63rd St","name":""},
  {"lat":45.626084,"lon":-122.602955,"city":"Vancouver","state":"WA","address":"6701 E Mill Plain Blvd","name":""},
  {"lat":45.670759,"lon":-122.507938,"city":"Vancouver","state":"WA","address":"6700 NE 162nd Ave Suite 500","name":""},
  {"lat":45.681708,"lon":-122.668011,"city":"Vancouver","state":"WA","address":"408 NE 81st St","name":""},
  {"lat":45.648574,"lon":-122.666929,"city":"Vancouver","state":"WA","address":"3707 N Main St","name":""},
  {"lat":45.641232,"lon":-122.557114,"city":"Vancouver","state":"WA","address":"2615 NE 112th Ave","name":""},
  {"lat":45.724501,"lon":-122.65323,"city":"Vancouver","state":"WA","address":"14300 NE 20th Ave","name":""},
  {"lat":45.715439,"lon":-122.649712,"city":"Vancouver","state":"WA","address":"13023 NE Hwy 99 Suite 1","name":""},
  {"lat":46.998433,"lon":-122.917564,"city":"Tumwater","state":"WA","address":"705 Trosper Rd SW","name":""},
  {"lat":47.019073,"lon":-122.897868,"city":"Tumwater","state":"WA","address":"520 Cleveland Ave SE","name":""},
  {"lat":46.376331,"lon":-120.321597,"city":"Toppenish","state":"WA","address":"711 W 1st Ave","name":""},
  {"lat":47.180381,"lon":-122.552106,"city":"Tacoma","state":"WA","address":"8611 Steilacoom Blvd SW","name":""},
  {"lat":47.206909,"lon":-122.440725,"city":"Tacoma","state":"WA","address":"707 S 56th St","name":""},
  {"lat":47.221671,"lon":-122.539346,"city":"Tacoma","state":"WA","address":"3842 Bridgeport Way","name":""},
  {"lat":47.272799,"lon":-122.513735,"city":"Tacoma","state":"WA","address":"2637 N Pearl St","name":""},
  {"lat":47.269543,"lon":-122.488159,"city":"Tacoma","state":"WA","address":"2411 N Proctor St","name":""},
  {"lat":47.190058,"lon":-122.407107,"city":"Tacoma","state":"WA","address":"1624 72nd St E","name":""},
  {"lat":47.11305,"lon":-122.432288,"city":"Tacoma","state":"WA","address":"15805 Pacific Ave S","name":""},
  {"lat":47.222239,"lon":-122.451464,"city":"Tacoma","state":"WA","address":"1302 S 38th St","name":""},
  {"lat":47.251202,"lon":-122.455283,"city":"Tacoma","state":"WA","address":"1112 S M St","name":""},
  {"lat":46.321975,"lon":-120.014042,"city":"Sunnyside","state":"WA","address":"613 S 6th St","name":""},
  {"lat":47.672294,"lon":-117.394764,"city":"Spokane","state":"WA","address":"933 E Mission Ave","name":""},
  {"lat":47.716147,"lon":-117.424458,"city":"Spokane","state":"WA","address":"902 W Francis Ave","name":""},
  {"lat":47.739664,"lon":-117.488531,"city":"Spokane","state":"WA","address":"9001 N Indian Trail Rd","name":""},
  {"lat":47.681806,"lon":-117.28572,"city":"Spokane","state":"WA","address":"8851 E Trent Ave","name":""},
  {"lat":47.717933,"lon":-117.393567,"city":"Spokane","state":"WA","address":"6520 N Nevada","name":""},
  {"lat":47.694151,"lon":-117.367333,"city":"Spokane","state":"WA","address":"3919 N Market St","name":""},
  {"lat":47.600853,"lon":-117.367233,"city":"Spokane","state":"WA","address":"3010 E 57th Ave","name":""},
  {"lat":47.629507,"lon":-117.374708,"city":"Spokane","state":"WA","address":"2509 E 29th Ave","name":""},
  {"lat":47.698968,"lon":-117.448362,"city":"Spokane","state":"WA","address":"2507 W Wellesley Ave","name":""},
  {"lat":47.680622,"lon":-117.43611,"city":"Spokane","state":"WA","address":"1616 W Northwest Blvd","name":""},
  {"lat":47.655764,"lon":-117.216131,"city":"Spokane","state":"WA","address":"14020 E Sprague Ave","name":""},
  {"lat":47.625967,"lon":-117.222644,"city":"Spokane","state":"WA","address":"13606 E 32nd Ave","name":""},
  {"lat":47.75046,"lon":-117.397231,"city":"Spokane","state":"WA","address":"10100 N Newport Hwy","name":""},
  {"lat":47.52759,"lon":-121.873709,"city":"Snoqualmie","state":"WA","address":"34828 SE Douglas St","name":""},
  {"lat":47.838898,"lon":-122.125305,"city":"Snohomish","state":"WA","address":"17520 SR 9 SE","name":""},
  {"lat":47.92609,"lon":-122.095521,"city":"Snohomish","state":"WA","address":"1119 13th St","name":""},
  {"lat":47.652667,"lon":-122.688116,"city":"Silverdale","state":"WA","address":"2890 NW Bucklin Hill Rd","name":""},
  {"lat":47.754271,"lon":-122.312978,"city":"Shoreline","state":"WA","address":"17202 15th Ave NE","name":""},
  {"lat":47.740971,"lon":-122.343603,"city":"Shoreline","state":"WA","address":"15332 Aurora Ave N","name":""},
  {"lat":47.214658,"lon":-123.106492,"city":"Shelton","state":"WA","address":"600 Franklin St","name":""},
  {"lat":48.080976,"lon":-123.117217,"city":"Sequim","state":"WA","address":"680F W Washington St","name":""},
  {"lat":47.516689,"lon":-122.366683,"city":"Seattle","state":"WA","address":"9620 28th Ave SW","name":""},
  {"lat":47.520927,"lon":-122.268074,"city":"Seattle","state":"WA","address":"9262 Rainier Ave S","name":""},
  {"lat":47.690076,"lon":-122.37624,"city":"Seattle","state":"WA","address":"8340 15th Ave NW","name":""},
  {"lat":47.68261,"lon":-122.289432,"city":"Seattle","state":"WA","address":"7340 35th Ave NE","name":""},
  {"lat":47.681971,"lon":-122.317,"city":"Seattle","state":"WA","address":"7300 Roosevelt Way NE","name":""},
  {"lat":47.6236,"lon":-122.357705,"city":"Seattle","state":"WA","address":"516 1st Ave W","name":""},
  {"lat":47.559657,"lon":-122.385205,"city":"Seattle","state":"WA","address":"4754 42nd Ave SW","name":""},
  {"lat":47.664239,"lon":-122.313912,"city":"Seattle","state":"WA","address":"4732 Brooklyn Ave NE","name":""},
  {"lat":47.455652,"lon":-122.282407,"city":"Seattle","state":"WA","address":"4011 S 164th","name":""},
  {"lat":47.537435,"lon":-122.283054,"city":"Seattle","state":"WA","address":"3900 S Othello St","name":""},
  {"lat":47.569209,"lon":-122.288135,"city":"Seattle","state":"WA","address":"3820 Rainier Ave S","name":""},
  {"lat":47.579969,"lon":-122.386226,"city":"Seattle","state":"WA","address":"2622 California Ave SW","name":""},
  {"lat":47.618171,"lon":-122.303793,"city":"Seattle","state":"WA","address":"2201 E Madison St","name":""},
  {"lat":47.63823,"lon":-122.357288,"city":"Seattle","state":"WA","address":"2100 Queen Anne Ave N","name":""},
  {"lat":47.668318,"lon":-122.374421,"city":"Seattle","state":"WA","address":"1423 NW Market St","name":""},
  {"lat":47.62042,"lon":-122.313022,"city":"Seattle","state":"WA","address":"1410 E John St","name":""},
  {"lat":47.718023,"lon":-122.311927,"city":"Seattle","state":"WA","address":"12318 15th Ave NE","name":""},
  {"lat":47.61522,"lon":-122.033479,"city":"Sammamish","state":"WA","address":"630 228th Ave NE","name":""},
  {"lat":46.227998,"lon":-119.267318,"city":"Richland","state":"WA","address":"690 Gage Blvd","name":""},
  {"lat":46.299553,"lon":-119.275921,"city":"Richland","state":"WA","address":"1803 George Washington Way","name":""},
  {"lat":47.489908,"lon":-122.161415,"city":"Renton","state":"WA","address":"4300 NE 4th St","name":""},
  {"lat":47.499013,"lon":-122.18021,"city":"Renton","state":"WA","address":"2725 NE Sunset Blvd","name":""},
  {"lat":47.480229,"lon":-122.214374,"city":"Renton","state":"WA","address":"200 S 3rd St","name":""},
  {"lat":47.447428,"lon":-122.152452,"city":"Renton","state":"WA","address":"17230 140th Ave SE","name":""},
  {"lat":47.671968,"lon":-122.1097,"city":"Redmond","state":"WA","address":"17246 Redmond Way","name":""},
  {"lat":47.632572,"lon":-122.140228,"city":"Redmond","state":"WA","address":"15000 NE 24th St","name":""},
  {"lat":47.184991,"lon":-122.259224,"city":"Puyallup","state":"WA","address":"708 Shaw Rd E","name":""},
  {"lat":47.187007,"lon":-122.293066,"city":"Puyallup","state":"WA","address":"611 S Meridian","name":""},
  {"lat":47.095092,"lon":-122.353027,"city":"Puyallup","state":"WA","address":"5616 176th St E","name":""},
  {"lat":47.135248,"lon":-122.295029,"city":"Puyallup","state":"WA","address":"13308 Meridian E","name":""},
  {"lat":47.151851,"lon":-122.355251,"city":"Puyallup","state":"WA","address":"11501 Canyon Rd E","name":""},
  {"lat":46.716079,"lon":-117.177774,"city":"Pullman","state":"WA","address":"430 SE Bishop Blvd","name":""},
  {"lat":47.738066,"lon":-122.636805,"city":"Poulsbo","state":"WA","address":"19245 10th Ave NE","name":""},
  {"lat":48.108098,"lon":-122.782635,"city":"Port Townsend","state":"WA","address":"442 W Sims Way","name":""},
  {"lat":47.496176,"lon":-122.652141,"city":"Port Orchard","state":"WA","address":"370 SW Sedgwick Rd","name":""},
  {"lat":47.518128,"lon":-122.630304,"city":"Port Orchard","state":"WA","address":"3355 Bethel Rd SE","name":""},
  {"lat":48.105987,"lon":-123.38049,"city":"Port Angeles","state":"WA","address":"2709 E Hwy 101","name":""},
  {"lat":48.115986,"lon":-123.435183,"city":"Port Angeles","state":"WA","address":"110 E 3rd St","name":""},
  {"lat":46.240359,"lon":-119.119079,"city":"Pasco","state":"WA","address":"1330 N 20th Ave","name":""},
  {"lat":47.099529,"lon":-122.210006,"city":"Orting","state":"WA","address":"215 Whitesell St NW","name":""},
  {"lat":48.418129,"lon":-119.510586,"city":"Omak","state":"WA","address":"607 Omache Dr","name":""},
  {"lat":47.049957,"lon":-122.829272,"city":"Olympia","state":"WA","address":"4280 Martin Way E","name":""},
  {"lat":47.045428,"lon":-122.942136,"city":"Olympia","state":"WA","address":"3215 Harrison Ave NW","name":""},
  {"lat":48.286478,"lon":-122.661543,"city":"Oak Harbor","state":"WA","address":"1450 SW Erie St","name":""},
  {"lat":47.487275,"lon":-121.791394,"city":"North Bend","state":"WA","address":"460 SW Mt Si Blvd","name":""},
  {"lat":48.183339,"lon":-117.04057,"city":"Newport","state":"WA","address":"121 W Walnut St","name":""},
  {"lat":47.539564,"lon":-122.167838,"city":"Newcastle","state":"WA","address":"6911 Coal Creek Pkwy SE","name":""},
  {"lat":47.807654,"lon":-122.290418,"city":"Mountlake Terrace","state":"WA","address":"4301 212th St SW","name":""},
  {"lat":48.437518,"lon":-122.337155,"city":"Mount Vernon","state":"WA","address":"315 E College Way","name":""},
  {"lat":47.130389,"lon":-119.268321,"city":"Moses Lake","state":"WA","address":"601 S Pioneer Way","name":""},
  {"lat":47.860029,"lon":-121.967636,"city":"Monroe","state":"WA","address":"19651 Hwy 2","name":""},
  {"lat":47.248901,"lon":-122.295893,"city":"Milton","state":"WA","address":"900 E Meridian Ave Suite 12","name":""},
  {"lat":47.87661,"lon":-122.187129,"city":"Mill Creek","state":"WA","address":"3322 132nd St SE","name":""},
  {"lat":47.850794,"lon":-122.22009,"city":"Mill Creek","state":"WA","address":"16304 Bothell Everett Hwy","name":""},
  {"lat":48.050871,"lon":-122.179556,"city":"Marysville","state":"WA","address":"301 Marysville Mall #60","name":""},
  {"lat":48.06255,"lon":-122.174357,"city":"Marysville","state":"WA","address":"1258 State Ave","name":""},
  {"lat":47.360276,"lon":-122.018319,"city":"Maple Valley","state":"WA","address":"26916 Maple Valley Rd","name":""},
  {"lat":47.822132,"lon":-122.316576,"city":"Lynnwood","state":"WA","address":"19500 Hwy 99 Suite 110","name":""},
  {"lat":47.8636,"lon":-122.284422,"city":"Lynnwood","state":"WA","address":"14826 Hwy 99 N","name":""},
  {"lat":47.881129,"lon":-122.280897,"city":"Lynnwood","state":"WA","address":"12811 Beverly Park Rd","name":""},
  {"lat":48.934322,"lon":-122.487706,"city":"Lynden","state":"WA","address":"8071 Guide Meridian Rd #101","name":""},
  {"lat":46.148419,"lon":-122.961106,"city":"Longview","state":"WA","address":"2930 Ocean Beach Hwy","name":""},
  {"lat":46.136772,"lon":-122.938547,"city":"Longview","state":"WA","address":"1227 15th Ave","name":""},
  {"lat":47.669494,"lon":-117.10341,"city":"Liberty Lake","state":"WA","address":"1304 N Liberty Lake Rd","name":""},
  {"lat":47.597199,"lon":-120.645153,"city":"Leavenworth","state":"WA","address":"116 Riverbend Dr","name":""},
  {"lat":47.164141,"lon":-122.51843,"city":"Lakewood","state":"WA","address":"10223 Gravelly Lake Dr SW","name":""},
  {"lat":48.003368,"lon":-122.103773,"city":"Lake Stevens","state":"WA","address":"717 SR 9 NE","name":""},
  {"lat":47.753188,"lon":-122.280283,"city":"Lake Forest Park","state":"WA","address":"17171 Bothell Way NE","name":""},
  {"lat":47.039272,"lon":-122.799944,"city":"Lacey","state":"WA","address":"6200 Pacific Ave SE","name":""},
  {"lat":46.997892,"lon":-122.822197,"city":"Lacey","state":"WA","address":"4700 Yelm Hwy SE","name":""},
  {"lat":47.05936,"lon":-122.766553,"city":"Lacey","state":"WA","address":"1243 Marvin Rd NE","name":""},
  {"lat":47.732523,"lon":-122.174073,"city":"Kirkland","state":"WA","address":"14444 124th Ave NE","name":""},
  {"lat":47.678823,"lon":-122.173428,"city":"Kirkland","state":"WA","address":"12519 NE 85th St","name":""},
  {"lat":47.723516,"lon":-122.206318,"city":"Kirkland","state":"WA","address":"10020 NE 137th St","name":""},
  {"lat":47.81153,"lon":-122.540666,"city":"Kingston","state":"WA","address":"8196 NE Hwy 104","name":""},
  {"lat":47.380483,"lon":-122.246577,"city":"Kent","state":"WA","address":"210 Washington Ave S","name":""},
  {"lat":47.415208,"lon":-122.195521,"city":"Kent","state":"WA","address":"20830 108th Ave SE","name":""},
  {"lat":47.356663,"lon":-122.166692,"city":"Kent","state":"WA","address":"13101 SE Kent-Kangley Rd","name":""},
  {"lat":46.213854,"lon":-119.192775,"city":"Kennewick","state":"WA","address":"5204 W Clearwater Ave","name":""},
  {"lat":47.759217,"lon":-122.247642,"city":"Kenmore","state":"WA","address":"6850 NE Bothell Way","name":""},
  {"lat":46.141157,"lon":-122.902126,"city":"Kelso","state":"WA","address":"411 Three Rivers Dr","name":""},
  {"lat":47.541592,"lon":-122.047844,"city":"Issaquah","state":"WA","address":"735 NW Gilman Blvd","name":""},
  {"lat":47.541342,"lon":-122.019516,"city":"Issaquah","state":"WA","address":"1451 Highlands Dr","name":""},
  {"lat":46.255483,"lon":-119.892142,"city":"Grandview","state":"WA","address":"610 E Wine Country Rd","name":""},
  {"lat":47.941589,"lon":-119.005534,"city":"Grand Coulee","state":"WA","address":"320 Midway Ave","name":""},
  {"lat":47.054328,"lon":-122.296688,"city":"Graham","state":"WA","address":"10105 224th St E","name":""},
  {"lat":47.302306,"lon":-122.575867,"city":"Gig Harbor","state":"WA","address":"4831 Point Fosdick Dr NW","name":""},
  {"lat":47.360831,"lon":-122.604692,"city":"Gig Harbor","state":"WA","address":"11330 NW 51st Ave","name":""},
  {"lat":47.342533,"lon":-122.300062,"city":"Federal Way","state":"WA","address":"28810 Military Rd S","name":""},
  {"lat":47.313641,"lon":-122.317971,"city":"Federal Way","state":"WA","address":"1207 S 320th St","name":""},
  {"lat":47.929451,"lon":-122.218856,"city":"Everett","state":"WA","address":"7601 Evergreen Way","name":""},
  {"lat":47.875356,"lon":-122.153626,"city":"Everett","state":"WA","address":"5802 134th Place SE","name":""},
  {"lat":47.880804,"lon":-122.240427,"city":"Everett","state":"WA","address":"520 128th St SW","name":""},
  {"lat":47.96255,"lon":-122.212057,"city":"Everett","state":"WA","address":"4128 Rucker Ave","name":""},
  {"lat":47.994167,"lon":-122.200216,"city":"Everett","state":"WA","address":"1715 Broadway Ave","name":""},
  {"lat":47.897294,"lon":-122.205114,"city":"Everett","state":"WA","address":"11031 19th Ave SE","name":""},
  {"lat":47.309533,"lon":-119.558525,"city":"Ephrata","state":"WA","address":"1150 Basin St SW","name":""},
  {"lat":47.198238,"lon":-121.979731,"city":"Enumclaw","state":"WA","address":"152 Roosevelt Ave E","name":""},
  {"lat":46.996143,"lon":-120.542949,"city":"Ellensburg","state":"WA","address":"400 N Ruby St","name":""},
  {"lat":47.784536,"lon":-122.343997,"city":"Edmonds","state":"WA","address":"23632 Hwy 99","name":""},
  {"lat":47.404505,"lon":-120.281063,"city":"East Wenatchee","state":"WA","address":"510 Grant Rd","name":""},
  {"lat":47.726302,"lon":-121.984693,"city":"Duvall","state":"WA","address":"14020 Main St NE","name":""},
  {"lat":47.359341,"lon":-122.310663,"city":"Des Moines","state":"WA","address":"27035 Pacific Hwy S","name":""},
  {"lat":47.409988,"lon":-122.299439,"city":"Des Moines","state":"WA","address":"21401 Pacific Hwy S","name":""},
  {"lat":47.654658,"lon":-118.158141,"city":"Davenport","state":"WA","address":"1220 Morgan St","name":""},
  {"lat":47.356684,"lon":-122.115009,"city":"Covington","state":"WA","address":"17023 SE 272nd","name":""},
  {"lat":48.54723,"lon":-117.906406,"city":"Colville","state":"WA","address":"391 N Main St","name":""},
  {"lat":47.195622,"lon":-120.953654,"city":"Cle Elum","state":"WA","address":"804 W 1st St","name":""},
  {"lat":48.27973,"lon":-117.716069,"city":"Chewelah","state":"WA","address":"10 W Colville Ave","name":""},
  {"lat":47.50593,"lon":-117.567401,"city":"Cheney","state":"WA","address":"2710 1st St","name":""},
  {"lat":47.842286,"lon":-120.019754,"city":"Chelan","state":"WA","address":"106 W Manson Rd","name":""},
  {"lat":46.72783,"lon":-122.981022,"city":"Centralia","state":"WA","address":"1129 Harrison Ave","name":""},
  {"lat":45.586934,"lon":-122.399495,"city":"Camas","state":"WA","address":"800 NE 3rd Ave","name":""},
  {"lat":47.471811,"lon":-122.336927,"city":"Burien","state":"WA","address":"138 SW 148th St","name":""},
  {"lat":47.489173,"lon":-122.335762,"city":"Burien","state":"WA","address":"12725 1st Ave S","name":""},
  {"lat":47.569661,"lon":-122.652711,"city":"Bremerton","state":"WA","address":"900 N Callow Ave","name":""},
  {"lat":47.620568,"lon":-122.630804,"city":"Bremerton","state":"WA","address":"1401 NE McWilliams Rd","name":""},
  {"lat":47.778821,"lon":-122.220765,"city":"Bothell","state":"WA","address":"24040 Bothell Everett Hwy","name":""},
  {"lat":47.810164,"lon":-122.205514,"city":"Bothell","state":"WA","address":"20711 Bothell Hwy","name":""},
  {"lat":47.166124,"lon":-122.144863,"city":"Bonney Lake","state":"WA","address":"21301 Hwy 410","name":""},
  {"lat":48.774582,"lon":-122.458388,"city":"Bellingham","state":"WA","address":"1275 E Sunset Dr","name":""},
  {"lat":47.613067,"lon":-122.200964,"city":"Bellevue","state":"WA","address":"300 Bellevue Way NE","name":""},
  {"lat":47.625869,"lon":-122.154825,"city":"Bellevue","state":"WA","address":"1645 140th Ave NE","name":""},
  {"lat":47.576553,"lon":-122.138112,"city":"Bellevue","state":"WA","address":"15100 SE 38th St","name":""},
  {"lat":47.453974,"lon":-122.822669,"city":"Belfair","state":"WA","address":"23961 NE State Route 3","name":""},
  {"lat":45.781737,"lon":-122.5466,"city":"Battle Ground","state":"WA","address":"904 W Main St","name":""},
  {"lat":47.635095,"lon":-122.519705,"city":"Bainbridge Island","state":"WA","address":"253 High School Rd NE","name":""},
  {"lat":47.272884,"lon":-122.227108,"city":"Auburn","state":"WA","address":"4010 A St","name":""},
  {"lat":47.306319,"lon":-122.227443,"city":"Auburn","state":"WA","address":"101 Auburn Way S","name":""},
  {"lat":48.151362,"lon":-122.181195,"city":"Arlington","state":"WA","address":"3532 172nd St NE","name":""},
  {"lat":48.182356,"lon":-122.127844,"city":"Arlington","state":"WA","address":"20500 Olympic Pl","name":""},
  {"lat":48.512414,"lon":-122.611776,"city":"Anacortes","state":"WA","address":"911 11th St","name":""},
  {"lat":46.972028,"lon":-123.818397,"city":"Aberdeen","state":"WA","address":"221 W Heron St","name":""},
  {"lat":38.674766,"lon":-77.334935,"city":"Woodbridge","state":"VA","address":"4240 Merchant Plaza","name":""},
  {"lat":38.677371,"lon":-77.281259,"city":"Woodbridge","state":"VA","address":"2205 Old Bridge Rd","name":""},
  {"lat":38.73054,"lon":-77.797304,"city":"Warrenton","state":"VA","address":"189 W Lee Hwy","name":""},
  {"lat":38.997529,"lon":-77.408965,"city":"Sterling","state":"VA","address":"22350 S Sterling Blvd","name":""},
  {"lat":38.935773,"lon":-77.362299,"city":"Reston","state":"VA","address":"2304 Hunter's Woods Plaza","name":""},
  {"lat":38.939626,"lon":-77.329903,"city":"Reston","state":"VA","address":"11120 S Lakes Dr","name":""},
  {"lat":38.969018,"lon":-77.736593,"city":"Middleburg","state":"VA","address":"12 W Washington St","name":""},
  {"lat":38.920848,"lon":-77.150337,"city":"Mclean","state":"VA","address":"6244 Old Dominion Dr","name":""},
  {"lat":38.922355,"lon":-77.202503,"city":"Mclean","state":"VA","address":"1688 Anderson Rd","name":""},
  {"lat":39.109009,"lon":-77.568739,"city":"Leesburg","state":"VA","address":"437 S King St","name":""},
  {"lat":38.966838,"lon":-77.376739,"city":"Herndon","state":"VA","address":"413 Elden St","name":""},
  {"lat":38.996148,"lon":-77.28763,"city":"Great Falls","state":"VA","address":"9881 Georgetown Pike","name":""},
  {"lat":38.875026,"lon":-77.19865,"city":"Falls Church","state":"VA","address":"7397 Lee Hwy","name":""},
  {"lat":38.869712,"lon":-77.14451,"city":"Falls Church","state":"VA","address":"6118 Arlington Blvd","name":""},
  {"lat":38.844821,"lon":-77.273649,"city":"Fairfax","state":"VA","address":"9622 Main St","name":""},
  {"lat":38.816601,"lon":-77.275392,"city":"Fairfax","state":"VA","address":"9525 Braddock Rd","name":""},
  {"lat":38.871369,"lon":-77.260944,"city":"Fairfax","state":"VA","address":"3043 Nutley St","name":""},
  {"lat":38.866343,"lon":-77.368827,"city":"Fairfax","state":"VA","address":"12200 Fairfax Towne Center","name":""},
  {"lat":38.848633,"lon":-77.302486,"city":"Fairfax","state":"VA","address":"10350 Willard Way","name":""},
  {"lat":38.645299,"lon":-77.333338,"city":"Dale City","state":"VA","address":"4215 Cheshire Station Plaza","name":""},
  {"lat":38.462271,"lon":-78.002527,"city":"Culpeper","state":"VA","address":"309 Southgate Shopping Ctr","name":""},
  {"lat":38.778466,"lon":-77.275305,"city":"Burke","state":"VA","address":"9596 Old Keene Mill Rd","name":""},
  {"lat":38.799845,"lon":-77.321213,"city":"Burke","state":"VA","address":"5727 Burke Centre Pkwy","name":""},
  {"lat":38.749735,"lon":-77.57145,"city":"Bristow","state":"VA","address":"12821 Braemar Village Plaza","name":""},
  {"lat":38.878008,"lon":-77.123307,"city":"Arlington","state":"VA","address":"5101 Wilson Blvd","name":""},
  {"lat":38.896727,"lon":-77.105834,"city":"Arlington","state":"VA","address":"3713 Langston Blvd","name":""},
  {"lat":38.897071,"lon":-77.13931,"city":"Arlington","state":"VA","address":"2500 N Harrison St","name":""},
  {"lat":38.895151,"lon":-77.074731,"city":"Arlington","state":"VA","address":"1525 Wilson Blvd","name":""},
  {"lat":38.832259,"lon":-77.200566,"city":"Annandale","state":"VA","address":"7414 Little River Turnpike","name":""},
  {"lat":38.72434,"lon":-77.121405,"city":"Alexandria","state":"VA","address":"8646 Richmond Hwy","name":""},
  {"lat":38.743683,"lon":-77.057497,"city":"Alexandria","state":"VA","address":"7900 Ft Hunt Rd","name":""},
  {"lat":38.784116,"lon":-77.122458,"city":"Alexandria","state":"VA","address":"6130 Rose Hill Dr","name":""},
  {"lat":38.769845,"lon":-77.14135,"city":"Alexandria","state":"VA","address":"5980 Kingstowne Towne Ctr","name":""},
  {"lat":38.799738,"lon":-77.044513,"city":"Alexandria","state":"VA","address":"500 S Royal St","name":""},
  {"lat":38.827819,"lon":-77.089619,"city":"Alexandria","state":"VA","address":"3526 King St","name":""},
  {"lat":38.809979,"lon":-77.133669,"city":"Alexandria","state":"VA","address":"299 S Van Dorn St","name":""},
  {"lat":38.776453,"lon":-77.06078,"city":"Alexandria","state":"VA","address":"1624 Belle View","name":""},
  {"lat":44.500169,"lon":-103.858203,"city":"Spearfish","state":"SD","address":"1606 North Ave","name":""},
  {"lat":44.079966,"lon":-103.250773,"city":"Rapid City","state":"SD","address":"730 Mountain View Rd","name":""},
  {"lat":44.064915,"lon":-103.231153,"city":"Rapid City","state":"SD","address":"2120 Mt Rushmore Rd","name":""},
  {"lat":45.150146,"lon":-122.829709,"city":"Woodburn","state":"OR","address":"1550 N Pacific Hwy","name":""},
  {"lat":45.30438,"lon":-122.762451,"city":"Wilsonville","state":"OR","address":"8255 SW Wilsonville Rd","name":""},
  {"lat":45.364572,"lon":-122.647558,"city":"West Linn","state":"OR","address":"22000 Salamo Rd","name":""},
  {"lat":45.520248,"lon":-122.400194,"city":"Troutdale","state":"OR","address":"25691 SE Stark","name":""},
  {"lat":45.455435,"lon":-123.845711,"city":"Tillamook","state":"OR","address":"1815 4th St","name":""},
  {"lat":45.431263,"lon":-122.823772,"city":"Tigard","state":"OR","address":"14300 SW Barrows Rd","name":""},
  {"lat":45.604312,"lon":-121.193544,"city":"The Dalles","state":"OR","address":"520 Mt Hood St","name":""},
  {"lat":44.399471,"lon":-122.725782,"city":"Sweet Home","state":"OR","address":"1540 Main St","name":""},
  {"lat":44.805735,"lon":-122.796008,"city":"Stayton","state":"OR","address":"1535 N First St","name":""},
  {"lat":44.063496,"lon":-123.023776,"city":"Springfield","state":"OR","address":"1891 Pioneer Pkwy E","name":""},
  {"lat":45.003246,"lon":-122.793935,"city":"Silverton","state":"OR","address":"301 Westfield St","name":""},
  {"lat":45.369708,"lon":-122.845332,"city":"Sherwood","state":"OR","address":"20685 SW Roy Rogers","name":""},
  {"lat":45.991065,"lon":-123.920124,"city":"Seaside","state":"OR","address":"401 S Roosevelt Dr","name":""},
  {"lat":45.401229,"lon":-122.276895,"city":"Sandy","state":"OR","address":"37601 Hwy 26","name":""},
  {"lat":44.872855,"lon":-123.022157,"city":"Salem","state":"OR","address":"5660 Commercial St SE","name":""},
  {"lat":44.968759,"lon":-122.981921,"city":"Salem","state":"OR","address":"3380 Lancaster Dr NE","name":""},
  {"lat":44.939408,"lon":-123.063332,"city":"Salem","state":"OR","address":"1455 Edgewater St NW","name":""},
  {"lat":44.940837,"lon":-123.024246,"city":"Salem","state":"OR","address":"1265 Center St","name":""},
  {"lat":45.849713,"lon":-122.832339,"city":"St. Helens","state":"OR","address":"795 Lower Columbia River Hwy","name":""},
  {"lat":43.229275,"lon":-123.349578,"city":"Roseburg","state":"OR","address":"1539 NE Stephens St","name":""},
  {"lat":43.699151,"lon":-124.112036,"city":"Reedsport","state":"OR","address":"1499 Hwy 101","name":""},
  {"lat":44.260757,"lon":-121.179626,"city":"Redmond","state":"OR","address":"1705 S Hwy 97","name":""},
  {"lat":45.587725,"lon":-122.753019,"city":"Portland","state":"OR","address":"8330 N Ivanhoe St","name":""},
  {"lat":45.465846,"lon":-122.698705,"city":"Portland","state":"OR","address":"8145 SW Barbur Blvd","name":""},
  {"lat":45.547603,"lon":-122.592727,"city":"Portland","state":"OR","address":"6901 NE Sandy Blvd","name":""},
  {"lat":45.565952,"lon":-122.660104,"city":"Portland","state":"OR","address":"5920 NE Martin Luther King Blvd","name":""},
  {"lat":45.479924,"lon":-122.615874,"city":"Portland","state":"OR","address":"4515 SE Woodstock Blvd","name":""},
  {"lat":45.446921,"lon":-122.618204,"city":"Portland","state":"OR","address":"4320 SE King Rd","name":""},
  {"lat":45.496947,"lon":-122.622,"city":"Portland","state":"OR","address":"3930 SE Powell Blvd","name":""},
  {"lat":45.496279,"lon":-122.539275,"city":"Portland","state":"OR","address":"3527 SE 122nd Ave","name":""},
  {"lat":45.511826,"lon":-122.637466,"city":"Portland","state":"OR","address":"2800 SE Hawthorne Blvd","name":""},
  {"lat":45.558993,"lon":-122.866448,"city":"Portland","state":"OR","address":"18425 NW West Union Rd","name":""},
  {"lat":45.52796,"lon":-122.814486,"city":"Portland","state":"OR","address":"13485 NW Cornell Rd","name":""},
  {"lat":45.530265,"lon":-122.684657,"city":"Portland","state":"OR","address":"1303 NW Lovejoy St","name":""},
  {"lat":45.534702,"lon":-122.654165,"city":"Portland","state":"OR","address":"1100 NE Broadway","name":""},
  {"lat":45.515994,"lon":-122.68516,"city":"Portland","state":"OR","address":"1030 SW Jefferson St","name":""},
  {"lat":45.665949,"lon":-118.807965,"city":"Pendleton","state":"OR","address":"201 SW 20th St","name":""},
  {"lat":45.334557,"lon":-122.59132,"city":"Oregon City","state":"OR","address":"13434 Colton Pl","name":""},
  {"lat":43.40542,"lon":-124.235659,"city":"North Bend","state":"OR","address":"1735 Virginia Ave","name":""},
  {"lat":44.652537,"lon":-124.05211,"city":"Newport","state":"OR","address":"2220 N Coast Hwy","name":""},
  {"lat":45.308576,"lon":-122.945454,"city":"Newberg","state":"OR","address":"1140 N Springbrook Rd","name":""},
  {"lat":45.151628,"lon":-122.603569,"city":"Molalla","state":"OR","address":"1525 W Main St","name":""},
  {"lat":45.415975,"lon":-122.591075,"city":"Milwaukie","state":"OR","address":"14840 SE Webster Rd","name":""},
  {"lat":45.940594,"lon":-118.387912,"city":"Milton-Freewater","state":"OR","address":"455 N Columbia St","name":""},
  {"lat":42.362625,"lon":-122.858604,"city":"Medford","state":"OR","address":"3169 Crater Lake Hwy","name":""},
  {"lat":42.333408,"lon":-122.86374,"city":"Medford","state":"OR","address":"1003 Medford Ctr","name":""},
  {"lat":45.227302,"lon":-123.172764,"city":"Mcminnville","state":"OR","address":"2490 N Hwy 99 W","name":""},
  {"lat":44.643775,"lon":-121.127902,"city":"Madras","state":"OR","address":"80 NE Cedar St","name":""},
  {"lat":44.997189,"lon":-124.006325,"city":"Lincoln City","state":"OR","address":"4101 NW Logan Rd","name":""},
  {"lat":44.527423,"lon":-122.905456,"city":"Lebanon","state":"OR","address":"1983 S Main St","name":""},
  {"lat":42.191783,"lon":-120.345256,"city":"Lakeview","state":"OR","address":"244 N F St","name":""},
  {"lat":45.420668,"lon":-122.668533,"city":"Lake Oswego","state":"OR","address":"401 A Ave","name":""},
  {"lat":45.398476,"lon":-122.741902,"city":"Lake Oswego","state":"OR","address":"17779 Boones Ferry Rd","name":""},
  {"lat":45.321343,"lon":-118.080845,"city":"La Grande","state":"OR","address":"2111 Adams Ave","name":""},
  {"lat":42.20567,"lon":-121.720141,"city":"Klamath Falls","state":"OR","address":"5500 S 6th St","name":""},
  {"lat":45.407221,"lon":-122.79271,"city":"King City","state":"OR","address":"15570 SW Pacific Hwy","name":""},
  {"lat":44.996405,"lon":-123.024279,"city":"Keizer","state":"OR","address":"4990 River Rd","name":""},
  {"lat":44.229409,"lon":-123.206377,"city":"Junction City","state":"OR","address":"1755 Ivy St","name":""},
  {"lat":45.709006,"lon":-121.534934,"city":"Hood River","state":"OR","address":"2249 Cascade Ave","name":""},
  {"lat":45.53015,"lon":-122.955119,"city":"Hillsboro","state":"OR","address":"888 NE 25th Ave","name":""},
  {"lat":45.505935,"lon":-122.9544,"city":"Hillsboro","state":"OR","address":"2525 SE Tualatin Valley Hwy","name":""},
  {"lat":45.536092,"lon":-122.869849,"city":"Hillsboro","state":"OR","address":"2177 NW 185th Ave","name":""},
  {"lat":45.832661,"lon":-119.285929,"city":"Hermiston","state":"OR","address":"990 Hwy 395 S","name":""},
  {"lat":45.505894,"lon":-122.41697,"city":"Gresham","state":"OR","address":"1455 NE Division St","name":""},
  {"lat":45.489219,"lon":-122.476773,"city":"Gresham","state":"OR","address":"1001 SW Highland Dr","name":""},
  {"lat":42.421061,"lon":-123.336307,"city":"Grants Pass","state":"OR","address":"1640 Williams Hwy","name":""},
  {"lat":42.438655,"lon":-123.324786,"city":"Grants Pass","state":"OR","address":"115 E 7th St","name":""},
  {"lat":45.381692,"lon":-122.582029,"city":"Gladstone","state":"OR","address":"95 82nd Dr","name":""},
  {"lat":45.519578,"lon":-123.095431,"city":"Forest Grove","state":"OR","address":"2836 Pacific Ave","name":""},
  {"lat":43.972977,"lon":-124.102997,"city":"Florence","state":"OR","address":"700 Hwy 101","name":""},
  {"lat":44.010909,"lon":-123.088644,"city":"Eugene","state":"OR","address":"350 E 40th Ave","name":""},
  {"lat":44.07814,"lon":-123.070334,"city":"Eugene","state":"OR","address":"1500 Coburg Rd","name":""},
  {"lat":44.04054,"lon":-123.090631,"city":"Eugene","state":"OR","address":"145 E 18th Ave","name":""},
  {"lat":45.427639,"lon":-117.285947,"city":"Enterprise","state":"OR","address":"601 W North St","name":""},
  {"lat":45.41851,"lon":-122.456417,"city":"Damascus","state":"OR","address":"20151 SE Hwy 212","name":""},
  {"lat":44.930707,"lon":-123.312804,"city":"Dallas","state":"OR","address":"138 W Ellendale Ave","name":""},
  {"lat":43.798268,"lon":-123.051882,"city":"Cottage Grove","state":"OR","address":"1500 E Main St","name":""},
  {"lat":44.586906,"lon":-123.251059,"city":"Corvallis","state":"OR","address":"590 NE Circle Blvd","name":""},
  {"lat":44.550433,"lon":-123.308769,"city":"Corvallis","state":"OR","address":"5270 SW Philomath Blvd","name":""},
  {"lat":44.5608,"lon":-123.263348,"city":"Corvallis","state":"OR","address":"450 SW 3rd St","name":""},
  {"lat":43.174392,"lon":-124.187327,"city":"Coquille","state":"OR","address":"155 E 1st St","name":""},
  {"lat":43.358686,"lon":-124.210873,"city":"Coos Bay","state":"OR","address":"230 E Johnson Ave","name":""},
  {"lat":46.10597,"lon":-123.207562,"city":"Clatskanie","state":"OR","address":"401 W Columbia River Hwy","name":""},
  {"lat":45.428135,"lon":-122.540199,"city":"Clackamas","state":"OR","address":"12032 SE Sunnyside Rd","name":""},
  {"lat":45.255351,"lon":-122.702592,"city":"Canby","state":"OR","address":"1051 SW 1st Ave","name":""},
  {"lat":43.586747,"lon":-119.057187,"city":"Burns","state":"OR","address":"246 W Monroe St","name":""},
  {"lat":44.056581,"lon":-121.301409,"city":"Bend","state":"OR","address":"642 NE 3rd","name":""},
  {"lat":44.021039,"lon":-121.317998,"city":"Bend","state":"OR","address":"61155 S Hwy 97","name":""},
  {"lat":44.047157,"lon":-121.329697,"city":"Bend","state":"OR","address":"320 W Century Blvd","name":""},
  {"lat":44.057793,"lon":-121.264638,"city":"Bend","state":"OR","address":"2650 NE Hwy 20","name":""},
  {"lat":45.475158,"lon":-122.82518,"city":"Beaverton","state":"OR","address":"6194 SW Murray Blvd","name":""},
  {"lat":45.496714,"lon":-122.888448,"city":"Beaverton","state":"OR","address":"20535 SW Tualatin Valley Hwy","name":""},
  {"lat":45.442302,"lon":-122.826857,"city":"Beaverton","state":"OR","address":"14555 SW Teal Blvd","name":""},
  {"lat":46.192293,"lon":-123.808161,"city":"Astoria","state":"OR","address":"3250 Leif Erickson Dr","name":""},
  {"lat":42.19342,"lon":-122.706289,"city":"Ashland","state":"OR","address":"585 Siskiyou Blvd","name":""},
  {"lat":45.475569,"lon":-122.869133,"city":"Aloha","state":"OR","address":"6055 SW 185th Ave","name":""},
  {"lat":44.627259,"lon":-123.079575,"city":"Albany","state":"OR","address":"1990 14th Ave SE","name":""},
  {"lat":38.986386,"lon":-119.943681,"city":"Zephyr Cove","state":"NV","address":"212 Elks Point Rd","name":""},
  {"lat":39.555545,"lon":-119.703449,"city":"Sparks","state":"NV","address":"2858 Vista Blvd","name":""},
  {"lat":39.530842,"lon":-119.867141,"city":"Reno","state":"NV","address":"5150 Mae Anne Ave","name":""},
  {"lat":39.42516,"lon":-119.738562,"city":"Reno","state":"NV","address":"1031 Steamboat Pkwy","name":""},
  {"lat":40.179982,"lon":-118.477011,"city":"Lovelock","state":"NV","address":"400 Dartmouth Ave","name":""},
  {"lat":38.535265,"lon":-118.630731,"city":"Hawthorne","state":"NV","address":"1095 Hwy 95","name":""},
  {"lat":39.477165,"lon":-118.787109,"city":"Fallon","state":"NV","address":"890 W Williams Ave","name":""},
  {"lat":35.53552,"lon":-108.756519,"city":"Gallup","state":"NM","address":"980 N Hwy 491","name":""},
  {"lat":36.751583,"lon":-108.161121,"city":"Farmington","state":"NM","address":"3540 E Main St","name":""},
  {"lat":36.825088,"lon":-107.994514,"city":"Aztec","state":"NM","address":"415 N Main Ave","name":""},
  {"lat":41.144953,"lon":-102.989335,"city":"Sidney","state":"NE","address":"1944 Illinois St","name":""},
  {"lat":41.854261,"lon":-103.661544,"city":"Scottsbluff","state":"NE","address":"601 Broadway","name":""},
  {"lat":41.129781,"lon":-101.719588,"city":"Ogallala","state":"NE","address":"611 N Spruce St","name":""},
  {"lat":42.097793,"lon":-102.864379,"city":"Alliance","state":"NE","address":"500 E 3rd St","name":""},
  {"lat":48.399206,"lon":-114.336911,"city":"Whitefish","state":"MT","address":"6580 Hwy 93 S","name":""},
  {"lat":47.687591,"lon":-114.123577,"city":"Polson","state":"MT","address":"146 South Shore Route","name":""},
  {"lat":46.590562,"lon":-112.017213,"city":"Helena","state":"MT","address":"611 N Montana Ave","name":""},
  {"lat":46.246182,"lon":-114.155042,"city":"Hamilton","state":"MT","address":"101 E Main St","name":""},
  {"lat":45.223798,"lon":-112.627772,"city":"Dillon","state":"MT","address":"570 N Montana St","name":""},
  {"lat":46.403201,"lon":-112.734281,"city":"Deer Lodge","state":"MT","address":"201 N Main St","name":""},
  {"lat":45.99774,"lon":-112.537256,"city":"Butte","state":"MT","address":"310 W Front St","name":""},
  {"lat":45.98758,"lon":-112.506396,"city":"Butte","state":"MT","address":"2500 Massachusetts Ave","name":""},
  {"lat":45.68027,"lon":-111.060295,"city":"Bozeman","state":"MT","address":"1735 W Main St","name":""},
  {"lat":39.03917,"lon":-77.050158,"city":"Wheaton","state":"MD","address":"11201 Georgia Ave","name":""},
  {"lat":39.585972,"lon":-77.013284,"city":"Westminster","state":"MD","address":"444 WMC Dr #116","name":""},
  {"lat":39.485107,"lon":-77.341715,"city":"Walkersville","state":"MD","address":"151 Walkers Village Way","name":""},
  {"lat":38.626997,"lon":-76.917127,"city":"Waldorf","state":"MD","address":"3051 Waldorf Market Pl","name":""},
  {"lat":38.602669,"lon":-76.901277,"city":"Waldorf","state":"MD","address":"10 King St","name":""},
  {"lat":38.786585,"lon":-76.794291,"city":"Upper Marlboro","state":"MD","address":"7605 Crain Hwy","name":""},
  {"lat":39.411699,"lon":-76.608798,"city":"Towson","state":"MD","address":"1017 York Rd","name":""},
  {"lat":38.993391,"lon":-77.024646,"city":"Silver Spring","state":"MD","address":"909 Thayer Ave","name":""},
  {"lat":39.108037,"lon":-76.996241,"city":"Silver Spring","state":"MD","address":"15411 New Hampshire Ave","name":""},
  {"lat":39.020684,"lon":-77.015265,"city":"Silver Spring","state":"MD","address":"116 University W Blvd","name":""},
  {"lat":39.020668,"lon":-76.976049,"city":"Silver Spring","state":"MD","address":"10101 New Hampshire Ave","name":""},
  {"lat":39.083056,"lon":-76.583333,"city":"Severna Park","state":"MD","address":"540 Benfield Rd","name":""},
  {"lat":39.094428,"lon":-77.110039,"city":"Rockville","state":"MD","address":"5510 Norbeck Rd","name":""},
  {"lat":39.112867,"lon":-77.171655,"city":"Rockville","state":"MD","address":"403 Redland Blvd","name":""},
  {"lat":39.097966,"lon":-77.192144,"city":"Rockville","state":"MD","address":"14939 Shady Grove Rd","name":""},
  {"lat":38.545384,"lon":-76.590225,"city":"Prince Frederick","state":"MD","address":"80 W Dares Beach Rd","name":""},
  {"lat":39.016653,"lon":-77.208442,"city":"Potomac","state":"MD","address":"10104 River Rd","name":""},
  {"lat":39.515491,"lon":-76.557568,"city":"Phoenix","state":"MD","address":"3499 Sweet Air Rd","name":""},
  {"lat":39.120397,"lon":-76.51439,"city":"Pasadena","state":"MD","address":"4211 Mountain Rd","name":""},
  {"lat":39.400244,"lon":-76.544104,"city":"Parkville","state":"MD","address":"8858 Waltham Woods Rd","name":""},
  {"lat":38.80463,"lon":-76.985392,"city":"Oxon Hill","state":"MD","address":"6235 Oxon Hill Rd","name":""},
  {"lat":39.418162,"lon":-76.77635,"city":"Owings Mills","state":"MD","address":"10335 Reisterstown Rd","name":""},
  {"lat":39.150485,"lon":-77.064728,"city":"Olney","state":"MD","address":"3333 Spartan Rd","name":""},
  {"lat":39.413373,"lon":-76.460649,"city":"Nottingham","state":"MD","address":"9645 Belair Rd","name":""},
  {"lat":39.366049,"lon":-77.16055,"city":"Mount Airy","state":"MD","address":"337 E Ridgeville Blvd","name":""},
  {"lat":39.438637,"lon":-77.525404,"city":"Middletown","state":"MD","address":"815 E Main St","name":""},
  {"lat":38.542241,"lon":-76.98207,"city":"La Plata","state":"MD","address":"40 Shining Willow Way","name":""},
  {"lat":39.027992,"lon":-77.075327,"city":"Kensington","state":"MD","address":"10541 Connecticut Ave","name":""},
  {"lat":38.967054,"lon":-76.951313,"city":"Hyattsville","state":"MD","address":"3702 East-West Hwy","name":""},
  {"lat":39.151871,"lon":-76.722245,"city":"Hanover","state":"MD","address":"7643 Arundel Mills Blvd","name":""},
  {"lat":38.992872,"lon":-76.876669,"city":"Greenbelt","state":"MD","address":"7595 Greenbelt Rd","name":""},
  {"lat":39.180709,"lon":-77.266787,"city":"Germantown","state":"MD","address":"19718 Germantown Rd","name":""},
  {"lat":39.040377,"lon":-76.680305,"city":"Gambrills","state":"MD","address":"2644 Chapel Lake Dr","name":""},
  {"lat":39.188572,"lon":-77.185108,"city":"Gaithersburg","state":"MD","address":"20211 Goshen Rd","name":""},
  {"lat":39.119321,"lon":-77.255379,"city":"Gaithersburg","state":"MD","address":"12251 Darnestown Rd","name":""},
  {"lat":38.72702,"lon":-76.991909,"city":"Fort Washington","state":"MD","address":"990 E Swan Creek Rd","name":""},
  {"lat":39.25108,"lon":-76.818721,"city":"Ellicott City","state":"MD","address":"4370 Montgomery Rd","name":""},
  {"lat":39.279969,"lon":-76.855591,"city":"Ellicott City","state":"MD","address":"10000 Baltimore National Pike","name":""},
  {"lat":39.40714,"lon":-76.948916,"city":"Eldersburg","state":"MD","address":"1313 Londontown Blvd","name":""},
  {"lat":38.928232,"lon":-76.572336,"city":"Edgewater","state":"MD","address":"52 W Central Ave","name":""},
  {"lat":38.718722,"lon":-76.662736,"city":"Dunkirk","state":"MD","address":"10276 Southern Maryland Blvd","name":""},
  {"lat":39.290092,"lon":-77.202237,"city":"Damascus","state":"MD","address":"9807 Main St","name":""},
  {"lat":39.223334,"lon":-76.889445,"city":"Columbia","state":"MD","address":"5485 Harpers Farm Rd","name":""},
  {"lat":38.768899,"lon":-76.889731,"city":"Clinton","state":"MD","address":"8785 Branch Ave","name":""},
  {"lat":38.97396,"lon":-76.274615,"city":"Chester","state":"MD","address":"1925 Main St","name":""},
  {"lat":38.674412,"lon":-76.872414,"city":"Brandywine","state":"MD","address":"15916 S Crain Hwy","name":""},
  {"lat":38.946086,"lon":-76.736874,"city":"Bowie","state":"MD","address":"4101 Northview Dr","name":""},
  {"lat":38.965377,"lon":-76.789253,"city":"Bowie","state":"MD","address":"12410 Fairwood Pkwy","name":""},
  {"lat":38.977564,"lon":-77.098944,"city":"Bethesda","state":"MD","address":"5000 Bradley Blvd","name":""},
  {"lat":38.950011,"lon":-77.119233,"city":"Bethesda","state":"MD","address":"4701 Sangamore Rd","name":""},
  {"lat":39.541828,"lon":-76.324151,"city":"Bel Air","state":"MD","address":"225 Brierhill Dr","name":""},
  {"lat":39.28975,"lon":-76.730285,"city":"Baltimore","state":"MD","address":"5660 Baltimore National Pike","name":""},
  {"lat":39.339453,"lon":-76.571488,"city":"Baltimore","state":"MD","address":"4401 Harford Rd","name":""},
  {"lat":39.374593,"lon":-76.690179,"city":"Baltimore","state":"MD","address":"2801 Smith Ave","name":""},
  {"lat":39.280628,"lon":-76.578803,"city":"Baltimore","state":"MD","address":"2610 Boston St","name":""},
  {"lat":39.316898,"lon":-76.616702,"city":"Baltimore","state":"MD","address":"2401 N Charles St","name":""},
  {"lat":39.030256,"lon":-76.503972,"city":"Arnold","state":"MD","address":"1451 S Ritchie Hwy","name":""},
  {"lat":38.987264,"lon":-76.554943,"city":"Annapolis","state":"MD","address":"2635 Housley Rd","name":""},
  {"lat":38.969917,"lon":-76.522712,"city":"Annapolis","state":"MD","address":"1781 Forest Dr","name":""},
  {"lat":46.722341,"lon":-116.982831,"city":"Moscow","state":"ID","address":"1320 S Blaine St","name":""},
  {"lat":47.746158,"lon":-116.788915,"city":"Hayden","state":"ID","address":"161 W Prairie Ave","name":""},
  {"lat":47.69364,"lon":-116.789848,"city":"Coeur d'Alene","state":"ID","address":"220 Ironwood Dr","name":""},
  {"lat":47.708785,"lon":-116.787852,"city":"Coeur d'Alene","state":"ID","address":"121 W Neider Ave","name":""},
  {"lat":47.683196,"lon":-116.781744,"city":"Coeur d'Alene","state":"ID","address":"1001 N 4th St","name":""},
  {"lat":48.677791,"lon":-116.328874,"city":"Bonners Ferry","state":"ID","address":"6519 S Main St","name":""},
  {"lat":21.398514,"lon":-158.007928,"city":"Waipahu","state":"HI","address":"94-809 Lumiaina St","name":""},
  {"lat":20.887432,"lon":-156.493072,"city":"Wailuku","state":"HI","address":"58 Maui Lani Pkwy Suite 5000","name":""},
  {"lat":21.442049,"lon":-158.022661,"city":"Mililani","state":"HI","address":"94-780B Meheula Pkwy","name":""},
  {"lat":21.968676,"lon":-159.3857,"city":"Lihue","state":"HI","address":"4454 Nuhou St Suite #301","name":""},
  {"lat":20.887005,"lon":-156.684081,"city":"Lahaina","state":"HI","address":"1221 Honoapiilani Hwy","name":""},
  {"lat":20.752826,"lon":-156.448527,"city":"Kihei","state":"HI","address":"277 Pi'Ikea Ave","name":""},
  {"lat":21.339052,"lon":-158.079369,"city":"Kapolei","state":"HI","address":"590 Farrington N 400","name":""},
  {"lat":22.06225,"lon":-159.321807,"city":"Kapaa","state":"HI","address":"4-831 Kuhio Hwy","name":""},
  {"lat":21.421909,"lon":-157.802801,"city":"Kaneohe","state":"HI","address":"46065 Kamehameha Hwy","name":""},
  {"lat":21.423225,"lon":-157.748098,"city":"Kailua","state":"HI","address":"25 Kaneohe Bay Dr","name":""},
  {"lat":21.390537,"lon":-157.739741,"city":"Kailua","state":"HI","address":"200 Hamakua Dr","name":""},
  {"lat":21.377204,"lon":-157.729288,"city":"Kailua","state":"HI","address":"1060 Keolu Dr","name":""},
  {"lat":19.643907,"lon":-155.990987,"city":"Kailua-Kona","state":"HI","address":"75-971 Henry St","name":""},
  {"lat":20.879256,"lon":-156.444476,"city":"Kahului","state":"HI","address":"1090 Ho'okele St","name":""},
  {"lat":21.283936,"lon":-157.814674,"city":"Honolulu","state":"HI","address":"888 Kapahulu Ave","name":""},
  {"lat":21.344403,"lon":-157.913979,"city":"Honolulu","state":"HI","address":"848 Ala Lilikoi St","name":""},
  {"lat":21.285153,"lon":-157.706852,"city":"Honolulu","state":"HI","address":"377 Keahole St","name":""},
  {"lat":21.308744,"lon":-157.810282,"city":"Honolulu","state":"HI","address":"2855 E Manoa Rd","name":""},
  {"lat":21.313345,"lon":-157.857838,"city":"Honolulu","state":"HI","address":"1360 Pali Hwy","name":""},
  {"lat":21.301706,"lon":-157.842069,"city":"Honolulu","state":"HI","address":"1234 S Beretania St","name":""},
  {"lat":19.700636,"lon":-155.060761,"city":"Hilo","state":"HI","address":"381 E Maka'Ala St","name":""},
  {"lat":21.32691,"lon":-158.020179,"city":"Ewa Beach","state":"HI","address":"91-1119 Keaunui Dr","name":""},
  {"lat":21.390311,"lon":-157.951633,"city":"Aiea","state":"HI","address":"98-1277 Kaahumanu St","name":""},
  {"lat":38.724187,"lon":-75.126313,"city":"Rehoboth Beach","state":"DE","address":"19283 Coastal Hwy","name":""},
  {"lat":39.600342,"lon":-75.749121,"city":"Newark","state":"DE","address":"2400 Peoples Plaza","name":""},
  {"lat":39.158913,"lon":-75.508778,"city":"Dover","state":"DE","address":"190 John Hunn Brown Rd","name":""},
  {"lat":38.969595,"lon":-77.026581,"city":"Washington","state":"DC","address":"6500 Piney Branch Rd NW","name":""},
  {"lat":38.964523,"lon":-77.074924,"city":"Washington","state":"DC","address":"5545 Connecticut Ave NW","name":""},
  {"lat":38.903568,"lon":-77.018695,"city":"Washington","state":"DC","address":"490 L St NW","name":""},
  {"lat":38.883556,"lon":-76.986518,"city":"Washington","state":"DC","address":"415 14th St SE","name":""},
  {"lat":38.938486,"lon":-77.024991,"city":"Washington","state":"DC","address":"3830 Georgia Ave NW","name":""},
  {"lat":38.893274,"lon":-76.947732,"city":"Washington","state":"DC","address":"322 40th St NE","name":""},
  {"lat":38.859082,"lon":-76.966745,"city":"Washington","state":"DC","address":"2845 Alabama Ave SE","name":""},
  {"lat":38.916128,"lon":-77.067281,"city":"Washington","state":"DC","address":"1855 Wisconsin Ave NW","name":""},
  {"lat":38.924098,"lon":-77.040989,"city":"Washington","state":"DC","address":"1747 Columbia Rd NW","name":""},
  {"lat":38.91196,"lon":-77.038674,"city":"Washington","state":"DC","address":"1701 Corcoran St NW","name":""},
  {"lat":38.900452,"lon":-76.979855,"city":"Washington","state":"DC","address":"1601 Maryland Ave NE","name":""},
  {"lat":38.877608,"lon":-77.017156,"city":"Washington","state":"DC","address":"1100 4th St SW","name":""},
  {"lat":38.982568,"lon":-105.046896,"city":"Woodland Park","state":"CO","address":"1101 E US Hwy 24","name":""},
  {"lat":40.478146,"lon":-104.928055,"city":"Windsor","state":"CO","address":"1535 Main St","name":""},
  {"lat":39.771063,"lon":-105.079931,"city":"Wheat Ridge","state":"CO","address":"3900 Wadsworth Blvd","name":""},
  {"lat":37.622601,"lon":-104.78299,"city":"Walsenburg","state":"CO","address":"222 W 7th St","name":""},
  {"lat":39.630956,"lon":-106.417872,"city":"Vail","state":"CO","address":"2131 N Frontage Rd W","name":""},
  {"lat":37.167316,"lon":-104.509466,"city":"Trinidad","state":"CO","address":"457 W Main St","name":""},
  {"lat":39.883228,"lon":-104.942451,"city":"Thornton","state":"CO","address":"3840 E 104th Ave","name":""},
  {"lat":40.465817,"lon":-106.824148,"city":"Steamboat Springs","state":"CO","address":"37500 US-40","name":""},
  {"lat":38.536133,"lon":-105.994451,"city":"Salida","state":"CO","address":"232 G St","name":""},
  {"lat":38.244952,"lon":-104.644222,"city":"Pueblo","state":"CO","address":"1231 S Prairie Ave","name":""},
  {"lat":38.325723,"lon":-104.697274,"city":"Pueblo","state":"CO","address":"1017 N Market Plaza","name":""},
  {"lat":39.516073,"lon":-104.766497,"city":"Parker","state":"CO","address":"11051 S Parker Rd","name":""},
  {"lat":39.098947,"lon":-104.865516,"city":"Monument","state":"CO","address":"624 Hwy 105","name":""},
  {"lat":38.469338,"lon":-107.865416,"city":"Montrose","state":"CO","address":"1329 S Townsend Ave","name":""},
  {"lat":37.578396,"lon":-106.142134,"city":"Monte Vista","state":"CO","address":"1200 2nd Ave","name":""},
  {"lat":40.408632,"lon":-105.109957,"city":"Loveland","state":"CO","address":"2321 W Eisenhower Blvd","name":""},
  {"lat":40.408494,"lon":-105.09812,"city":"Loveland","state":"CO","address":"1451 W Eisenhower Blvd","name":""},
  {"lat":39.963441,"lon":-105.16041,"city":"Louisville","state":"CO","address":"910 W Cherry St","name":""},
  {"lat":39.930394,"lon":-105.149055,"city":"Louisville","state":"CO","address":"1601 Coalton Rd","name":""},
  {"lat":40.187926,"lon":-105.129435,"city":"Longmont","state":"CO","address":"1632 Hover Rd","name":""},
  {"lat":40.153632,"lon":-105.109371,"city":"Longmont","state":"CO","address":"1050 Ken Pratt Blvd","name":""},
  {"lat":39.537643,"lon":-104.883263,"city":"Lone Tree","state":"CO","address":"9229 E Lincoln Ave","name":""},
  {"lat":39.563512,"lon":-105.107826,"city":"Littleton","state":"CO","address":"8434 S Kipling Pkwy","name":""},
  {"lat":39.483338,"lon":-105.075426,"city":"Littleton","state":"CO","address":"8355 N Rampart Range Rd","name":""},
  {"lat":39.625583,"lon":-105.111202,"city":"Littleton","state":"CO","address":"5025 S Kipling Pkwy","name":""},
  {"lat":39.574522,"lon":-104.991488,"city":"Littleton","state":"CO","address":"181 W Mineral Ave","name":""},
  {"lat":39.579017,"lon":-105.13472,"city":"Littleton","state":"CO","address":"12442 W Ken Caryl Ave","name":""},
  {"lat":39.260021,"lon":-106.292825,"city":"Leadville","state":"CO","address":"1900 N Poplar Way","name":""},
  {"lat":39.698363,"lon":-105.145876,"city":"Lakewood","state":"CO","address":"13111 W Alameda Pkwy","name":""},
  {"lat":39.681282,"lon":-105.122639,"city":"Lakewood","state":"CO","address":"11088 W Jewell","name":""},
  {"lat":39.741017,"lon":-105.506216,"city":"Idaho Springs","state":"CO","address":"2425 Miner St","name":""},
  {"lat":39.547747,"lon":-104.993908,"city":"Highlands Ranch","state":"CO","address":"9255 S Broadway","name":""},
  {"lat":38.543712,"lon":-106.930102,"city":"Gunnison","state":"CO","address":"112 S Spruce St","name":""},
  {"lat":40.394355,"lon":-104.752641,"city":"Greeley","state":"CO","address":"4548 Centerplace Dr","name":""},
  {"lat":40.421207,"lon":-104.736301,"city":"Greeley","state":"CO","address":"3526 W 10th St","name":""},
  {"lat":39.104111,"lon":-108.551318,"city":"Grand Junction","state":"CO","address":"681 Horizon Dr","name":""},
  {"lat":39.090462,"lon":-108.513706,"city":"Grand Junction","state":"CO","address":"2901 F Rd","name":""},
  {"lat":39.066817,"lon":-108.588682,"city":"Grand Junction","state":"CO","address":"2512 Broadway","name":""},
  {"lat":39.752098,"lon":-105.215848,"city":"Golden","state":"CO","address":"1701 Jackson St","name":""},
  {"lat":39.589904,"lon":-106.096779,"city":"Frisco","state":"CO","address":"1008 Summit Blvd","name":""},
  {"lat":39.94564,"lon":-105.811122,"city":"Fraser","state":"CO","address":"40 County Rd 804","name":""},
  {"lat":38.716246,"lon":-104.699037,"city":"Fountain","state":"CO","address":"6925 Mesa Ridge Pkwy","name":""},
  {"lat":40.253263,"lon":-103.810146,"city":"Fort Morgan","state":"CO","address":"620 W Platte Ave","name":""},
  {"lat":40.078868,"lon":-104.802414,"city":"Fort Lupton","state":"CO","address":"1300 Dexter St","name":""},
  {"lat":40.577323,"lon":-105.059576,"city":"Fort Collins","state":"CO","address":"731 S Lemay Ave","name":""},
  {"lat":40.554296,"lon":-105.116774,"city":"Fort Collins","state":"CO","address":"2160 W Drake Rd Unit 6","name":""},
  {"lat":39.596368,"lon":-104.903469,"city":"Englewood","state":"CO","address":"7375 E Arapahoe Rd","name":""},
  {"lat":39.359918,"lon":-104.60983,"city":"Elizabeth","state":"CO","address":"220 S Elizabeth St","name":""},
  {"lat":39.872405,"lon":-104.975921,"city":"Denver","state":"CO","address":"771 Thornton Pkwy","name":""},
  {"lat":39.748693,"lon":-104.977501,"city":"Denver","state":"CO","address":"757 E 20th Ave","name":""},
  {"lat":39.666399,"lon":-104.914917,"city":"Denver","state":"CO","address":"6460 E Yale Ave","name":""},
  {"lat":39.73723,"lon":-104.915564,"city":"Denver","state":"CO","address":"6220 E 14th Ave","name":""},
  {"lat":39.725025,"lon":-104.973279,"city":"Denver","state":"CO","address":"560 Corona St","name":""},
  {"lat":39.776191,"lon":-105.036795,"city":"Denver","state":"CO","address":"3800 W 44th Ave","name":""},
  {"lat":39.710633,"lon":-104.988784,"city":"Denver","state":"CO","address":"323 S Broadway","name":""},
  {"lat":39.755634,"lon":-105.024266,"city":"Denver","state":"CO","address":"2660 N Federal Blvd","name":""},
  {"lat":39.677562,"lon":-104.972272,"city":"Denver","state":"CO","address":"2150 S Downing St","name":""},
  {"lat":39.720235,"lon":-104.900992,"city":"Denver","state":"CO","address":"200 Quebec St #400","name":""},
  {"lat":39.883494,"lon":-105.022652,"city":"Denver","state":"CO","address":"10300 Federal Blvd","name":""},
  {"lat":38.750884,"lon":-108.051793,"city":"Delta","state":"CO","address":"1550 Hwy 92","name":""},
  {"lat":37.350099,"lon":-108.565619,"city":"Cortez","state":"CO","address":"1580 E Main St","name":""},
  {"lat":39.527289,"lon":-105.303321,"city":"Conifer","state":"CO","address":"27152 Main St","name":""},
  {"lat":38.958752,"lon":-104.767026,"city":"Colorado Springs","state":"CO","address":"8750 N Union Blvd","name":""},
  {"lat":38.92376,"lon":-104.844157,"city":"Colorado Springs","state":"CO","address":"840 Village Ctr Dr","name":""},
  {"lat":38.932616,"lon":-104.738794,"city":"Colorado Springs","state":"CO","address":"7055 Austin Bluffs Pkwy","name":""},
  {"lat":38.767397,"lon":-104.814999,"city":"Colorado Springs","state":"CO","address":"6520 S Academy Blvd","name":""},
  {"lat":38.894834,"lon":-104.84992,"city":"Colorado Springs","state":"CO","address":"4405 Centennial Blvd","name":""},
  {"lat":38.854878,"lon":-104.876988,"city":"Colorado Springs","state":"CO","address":"3275 W Colorado Ave","name":""},
  {"lat":38.874027,"lon":-104.722087,"city":"Colorado Springs","state":"CO","address":"2890 N Powers","name":""},
  {"lat":38.864451,"lon":-104.817111,"city":"Colorado Springs","state":"CO","address":"2210 N Wahsatch Ave","name":""},
  {"lat":38.806136,"lon":-104.823613,"city":"Colorado Springs","state":"CO","address":"1920 S Nevada Ave","name":""},
  {"lat":38.84854,"lon":-104.772414,"city":"Colorado Springs","state":"CO","address":"1121 N Circle Dr","name":""},
  {"lat":39.362069,"lon":-104.861053,"city":"Castle Rock","state":"CO","address":"880 S Perry St","name":""},
  {"lat":38.445914,"lon":-105.228115,"city":"Canon City","state":"CO","address":"1414 Main St","name":""},
  {"lat":39.297797,"lon":-102.27982,"city":"Burlington","state":"CO","address":"333 S Lincoln St","name":""},
  {"lat":39.956522,"lon":-105.035466,"city":"Broomfield","state":"CO","address":"3602 W 144th Ave","name":""},
  {"lat":39.987945,"lon":-104.801487,"city":"Brighton","state":"CO","address":"1605 Bridge St","name":""},
  {"lat":39.998088,"lon":-105.23447,"city":"Boulder","state":"CO","address":"4800 E Baseline Rd","name":""},
  {"lat":40.034889,"lon":-105.259841,"city":"Boulder","state":"CO","address":"3325 28th St","name":""},
  {"lat":40.013365,"lon":-105.259586,"city":"Boulder","state":"CO","address":"2798 Arapahoe Ave","name":""},
  {"lat":39.604721,"lon":-104.714835,"city":"Aurora","state":"CO","address":"6100 S Gun Club Rd","name":""},
  {"lat":39.651311,"lon":-104.769662,"city":"Aurora","state":"CO","address":"18730 E Hampden Ave","name":""},
  {"lat":39.686274,"lon":-104.868302,"city":"Aurora","state":"CO","address":"1677 S Havana St","name":""},
  {"lat":39.694608,"lon":-104.788971,"city":"Aurora","state":"CO","address":"1200 S Buckley Rd","name":""},
  {"lat":39.843502,"lon":-105.080789,"city":"Arvada","state":"CO","address":"7561 W 80th Ave","name":""},
  {"lat":37.469743,"lon":-105.876473,"city":"Alamosa","state":"CO","address":"1301 Main St","name":""},
  {"lat":38.551701,"lon":-122.806303,"city":"Windsor","state":"CA","address":"9080 Brooks Rd","name":""},
  {"lat":39.403539,"lon":-123.349746,"city":"Willits","state":"CA","address":"845 S Main St","name":""},
  {"lat":37.928198,"lon":-122.039342,"city":"Walnut Creek","state":"CA","address":"710 Bancroft Rd","name":""},
  {"lat":37.898108,"lon":-122.056672,"city":"Walnut Creek","state":"CA","address":"600 S Broadway","name":""},
  {"lat":37.927248,"lon":-122.018548,"city":"Walnut Creek","state":"CA","address":"2800 Ygnacio Valley Rd","name":""},
  {"lat":37.878372,"lon":-122.071909,"city":"Walnut Creek","state":"CA","address":"1972 Tice Valley Blvd","name":""},
  {"lat":38.099071,"lon":-122.230583,"city":"Vallejo","state":"CA","address":"709 Lincoln Rd W","name":""},
  {"lat":38.084549,"lon":-122.21023,"city":"Vallejo","state":"CA","address":"122 Robles Dr","name":""},
  {"lat":38.362203,"lon":-121.961751,"city":"Vacaville","state":"CA","address":"2090 Harbison Dr","name":""},
  {"lat":37.587601,"lon":-122.019442,"city":"Union City","state":"CA","address":"1790 Decoto Rd","name":""},
  {"lat":39.144515,"lon":-123.20601,"city":"Ukiah","state":"CA","address":"653 S State St","name":""},
  {"lat":37.520957,"lon":-120.883504,"city":"Turlock","state":"CA","address":"3051 Countryside Dr","name":""},
  {"lat":39.327268,"lon":-120.206504,"city":"Truckee","state":"CA","address":"11290 Donner Pass Rd","name":""},
  {"lat":37.740178,"lon":-121.449479,"city":"Tracy","state":"CA","address":"1801 W 11th St","name":""},
  {"lat":39.168008,"lon":-120.145966,"city":"Tahoe City","state":"CA","address":"100 W River Rd","name":""},
  {"lat":40.406005,"lon":-120.63455,"city":"Susanville","state":"CA","address":"2970 Main St","name":""},
  {"lat":37.357233,"lon":-122.017721,"city":"Sunnyvale","state":"CA","address":"785 E El Camino Real","name":""},
  {"lat":37.372791,"lon":-122.058117,"city":"Sunnyvale","state":"CA","address":"639 S Bernardo Ave","name":""},
  {"lat":37.364658,"lon":-122.030712,"city":"Sunnyvale","state":"CA","address":"150 E El Camino Real","name":""},
  {"lat":38.008507,"lon":-121.321322,"city":"Stockton","state":"CA","address":"6445 Pacific Ave","name":""},
  {"lat":37.962312,"lon":-121.337543,"city":"Stockton","state":"CA","address":"2808 Country Club Blvd","name":""},
  {"lat":37.655556,"lon":-122.431623,"city":"South San Francisco","state":"CA","address":"30 Chestnut Ave","name":""},
  {"lat":37.646587,"lon":-122.452034,"city":"South San Francisco","state":"CA","address":"2255 Gellert Blvd","name":""},
  {"lat":38.943972,"lon":-119.967337,"city":"South Lake Tahoe","state":"CA","address":"1020 Johnson Ln","name":""},
  {"lat":36.986109,"lon":-121.963284,"city":"Soquel","state":"CA","address":"2720 41st Ave","name":""},
  {"lat":37.973694,"lon":-120.362001,"city":"Sonora","state":"CA","address":"1291 Sanguinetti Rd","name":""},
  {"lat":38.291543,"lon":-122.467676,"city":"Sonoma","state":"CA","address":"477 W Napa St","name":""},
  {"lat":38.404492,"lon":-122.827055,"city":"Sebastopol","state":"CA","address":"406 N Main St","name":""},
  {"lat":37.046229,"lon":-122.03105,"city":"Scotts Valley","state":"CA","address":"253 Mt Hermon Rd","name":""},
  {"lat":37.281219,"lon":-122.03125,"city":"Saratoga","state":"CA","address":"12876 Saratoga Sunnyvale Rd","name":""},
  {"lat":38.425782,"lon":-122.66848,"city":"Santa Rosa","state":"CA","address":"2785 Yulupa Ave","name":""},
  {"lat":41.316802,"lon":-105.594881,"city":"Laramie","state":"WY","address":"554 N 3rd St","name":""},
  {"lat":38.450902,"lon":-122.691032,"city":"Santa Rosa","state":"CA","address":"2751 4th St","name":""},
  {"lat":42.837872,"lon":-108.746407,"city":"Lander","state":"WY","address":"1165 W Main St","name":""},
  {"lat":38.463671,"lon":-122.717408,"city":"Santa Rosa","state":"CA","address":"2300 Mendocino Ave","name":""},
  {"lat":42.744582,"lon":-105.361651,"city":"Douglas","state":"WY","address":"1900 E Richards St","name":""},
  {"lat":38.45205,"lon":-122.752869,"city":"Santa Rosa","state":"CA","address":"1799 Marlow Rd","name":""},
  {"lat":41.110964,"lon":-104.802615,"city":"Cheyenne","state":"WY","address":"700 S Greeley Hwy","name":""},
  {"lat":38.446687,"lon":-122.7415,"city":"Santa Rosa","state":"CA","address":"1211 W College Ave","name":""},
  {"lat":46.933685,"lon":-122.594085,"city":"Yelm","state":"WA","address":"1109 Yelm Ave E","name":""},
  {"lat":38.465648,"lon":-122.651664,"city":"Santa Rosa","state":"CA","address":"100 Calistoga Rd","name":""},
  {"lat":46.578271,"lon":-120.488841,"city":"Yakima","state":"WA","address":"905 E Meade Ave","name":""},
  {"lat":36.961422,"lon":-122.045213,"city":"Santa Cruz","state":"CA","address":"2203 Mission St","name":""},
  {"lat":46.598895,"lon":-120.585035,"city":"Yakima","state":"WA","address":"5702 Summitview Ave","name":""},
  {"lat":36.982119,"lon":-122.007431,"city":"Santa Cruz","state":"CA","address":"117 Morrissey Blvd","name":""},
  {"lat":46.603254,"lon":-120.516068,"city":"Yakima","state":"WA","address":"205 N 5th Ave","name":""},
  {"lat":37.394745,"lon":-121.947634,"city":"Santa Clara","state":"CA","address":"3970 Rivermark Plaza","name":""},
  {"lat":46.602501,"lon":-120.532408,"city":"Yakima","state":"WA","address":"1610 W Lincoln Ave","name":""},
  {"lat":37.337956,"lon":-121.974962,"city":"Santa Clara","state":"CA","address":"2760 Homestead Rd","name":""},
  {"lat":45.912528,"lon":-122.748554,"city":"Woodland","state":"WA","address":"1725 Pacific Ave","name":""},
  {"lat":37.345235,"lon":-121.936579,"city":"Santa Clara","state":"CA","address":"2605 The Alameda Ave","name":""},
  {"lat":47.756473,"lon":-122.081039,"city":"Woodinville","state":"WA","address":"19150 NE Woodinville Duvall Rd","name":""},
  {"lat":37.7732,"lon":-121.976888,"city":"San Ramon","state":"CA","address":"2505 San Ramon Valley Blvd","name":""},
  {"lat":47.430925,"lon":-120.324102,"city":"Wenatchee","state":"WA","address":"501 N Miller St","name":""},
  {"lat":37.774864,"lon":-121.922063,"city":"San Ramon","state":"CA","address":"11050 Bollinger Canyon Rd","name":""},
  {"lat":38.008453,"lon":-122.54833,"city":"San Rafael","state":"CA","address":"950 Las Gallinas Ave","name":""},
  {"lat":45.579022,"lon":-122.33423,"city":"Washougal","state":"WA","address":"3307 Evergreen Way Bldg 5","name":""},
  {"lat":37.970306,"lon":-122.529237,"city":"San Rafael","state":"CA","address":"700 B St","name":""},
  {"lat":46.076538,"lon":-118.302501,"city":"Walla Walla","state":"WA","address":"450 N Wilbur Ave","name":""},
  {"lat":37.580367,"lon":-122.332824,"city":"San Mateo","state":"CA","address":"860 N Delaware St","name":""},
  {"lat":46.070144,"lon":-118.337532,"city":"Walla Walla","state":"WA","address":"215 E Rose St","name":""},
  {"lat":37.553214,"lon":-122.313674,"city":"San Mateo","state":"CA","address":"1655 El Camino Real","name":""},
  {"lat":46.048725,"lon":-118.347999,"city":"Walla Walla","state":"WA","address":"1600 Plaza Way","name":""},
  {"lat":37.520811,"lon":-122.337834,"city":"San Mateo","state":"CA","address":"100 De Anza Blvd","name":""},
  {"lat":45.666313,"lon":-122.603518,"city":"Vancouver","state":"WA","address":"6711 NE 63rd St","name":""},
  {"lat":37.689335,"lon":-122.138298,"city":"San Leandro","state":"CA","address":"699 Lewelling Blvd","name":""},
  {"lat":45.626053,"lon":-122.602863,"city":"Vancouver","state":"WA","address":"6701 E Mill Plain Blvd","name":""},
  {"lat":37.734478,"lon":-122.152472,"city":"San Leandro","state":"CA","address":"555 Bancroft Ave","name":""},
  {"lat":45.670969,"lon":-122.507901,"city":"Vancouver","state":"WA","address":"6700 NE 162nd Ave Suite 500","name":""},
  {"lat":37.723137,"lon":-122.156136,"city":"San Leandro","state":"CA","address":"1499 Washington Ave","name":""},
  {"lat":45.681755,"lon":-122.66815,"city":"Vancouver","state":"WA","address":"408 NE 81st St","name":""},
  {"lat":37.219534,"lon":-121.861505,"city":"San Jose","state":"CA","address":"6477 Almaden Expwy","name":""},
  {"lat":37.309684,"lon":-122.011915,"city":"San Jose","state":"CA","address":"6150 Bollinger Rd","name":""},
  {"lat":45.648469,"lon":-122.666641,"city":"Vancouver","state":"WA","address":"3707 N Main St","name":""},
  {"lat":37.246438,"lon":-121.802865,"city":"San Jose","state":"CA","address":"5760 Cottle Rd","name":""},
  {"lat":37.320557,"lon":-121.992727,"city":"San Jose","state":"CA","address":"5146 Stevens Creek Blvd","name":""},
  {"lat":45.641167,"lon":-122.557108,"city":"Vancouver","state":"WA","address":"2615 NE 112th Ave","name":""},
  {"lat":37.260184,"lon":-121.874432,"city":"San Jose","state":"CA","address":"4950 Almaden Expy","name":""},
  {"lat":45.724726,"lon":-122.653235,"city":"Vancouver","state":"WA","address":"14300 NE 20th Ave","name":""},
  {"lat":45.71532,"lon":-122.649427,"city":"Vancouver","state":"WA","address":"13023 NE Hwy 99 Suite 1","name":""},
  {"lat":37.331392,"lon":-121.810836,"city":"San Jose","state":"CA","address":"2980 E Capitol Expy","name":""},
  {"lat":46.998402,"lon":-122.917571,"city":"Tumwater","state":"WA","address":"705 Trosper Rd SW","name":""},
  {"lat":37.388142,"lon":-121.857858,"city":"San Jose","state":"CA","address":"2558 Berryessa Rd","name":""},
  {"lat":37.267217,"lon":-121.833254,"city":"San Jose","state":"CA","address":"179 Branham Ln","name":""},
  {"lat":47.018924,"lon":-122.897932,"city":"Tumwater","state":"WA","address":"520 Cleveland Ave SE","name":""},
  {"lat":37.253004,"lon":-121.908258,"city":"San Jose","state":"CA","address":"1663 Branham Ln","name":""},
  {"lat":46.376301,"lon":-120.321529,"city":"Toppenish","state":"WA","address":"711 W 1st Ave","name":""},
  {"lat":47.180407,"lon":-122.552012,"city":"Tacoma","state":"WA","address":"8611 Steilacoom Blvd SW","name":""},
  {"lat":37.293226,"lon":-121.911037,"city":"San Jose","state":"CA","address":"1530 Hamilton Ave","name":""},
  {"lat":47.206916,"lon":-122.440774,"city":"Tacoma","state":"WA","address":"707 S 56th St","name":""},
  {"lat":37.30592,"lon":-121.890691,"city":"San Jose","state":"CA","address":"1489 Bird Ave","name":""},
  {"lat":37.370372,"lon":-121.881694,"city":"San Jose","state":"CA","address":"1455 Berryessa Rd","name":""},
  {"lat":47.272753,"lon":-122.513862,"city":"Tacoma","state":"WA","address":"2637 N Pearl St","name":""},
  {"lat":47.269451,"lon":-122.48834,"city":"Tacoma","state":"WA","address":"2411 N Proctor St","name":""},
  {"lat":37.30089,"lon":-121.951807,"city":"San Jose","state":"CA","address":"1305 S Winchester Blvd","name":""},
  {"lat":37.322868,"lon":-121.912059,"city":"San Jose","state":"CA","address":"1300 W San Carlos St","name":""},
  {"lat":47.190085,"lon":-122.407054,"city":"Tacoma","state":"WA","address":"1624 72nd St E","name":""},
  {"lat":37.772514,"lon":-122.509477,"city":"San Francisco","state":"CA","address":"850 La Playa St","name":""},
  {"lat":47.222133,"lon":-122.45167,"city":"Tacoma","state":"WA","address":"1302 S 38th St","name":""},
  {"lat":37.774508,"lon":-122.465262,"city":"San Francisco","state":"CA","address":"735 7th Ave","name":""},
  {"lat":47.251224,"lon":-122.455275,"city":"Tacoma","state":"WA","address":"1112 S M St","name":""},
  {"lat":37.743447,"lon":-122.474056,"city":"San Francisco","state":"CA","address":"730 Taraval St","name":""},
  {"lat":46.321768,"lon":-120.013872,"city":"Sunnyside","state":"WA","address":"613 S 6th St","name":""},
  {"lat":37.731296,"lon":-122.449968,"city":"San Francisco","state":"CA","address":"625 Monterey Blvd","name":""},
  {"lat":47.672121,"lon":-117.394896,"city":"Spokane","state":"WA","address":"933 E Mission Ave","name":""},
  {"lat":37.743571,"lon":-122.439006,"city":"San Francisco","state":"CA","address":"5290 Diamond Heights Blvd","name":""},
  {"lat":47.716215,"lon":-117.424558,"city":"Spokane","state":"WA","address":"902 W Francis Ave","name":""},
  {"lat":37.719878,"lon":-122.43886,"city":"San Francisco","state":"CA","address":"4950 Mission St","name":""},
  {"lat":47.739684,"lon":-117.488612,"city":"Spokane","state":"WA","address":"9001 N Indian Trail Rd","name":""},
  {"lat":47.68184,"lon":-117.285582,"city":"Spokane","state":"WA","address":"8851 E Trent Ave","name":""},
  {"lat":37.743195,"lon":-122.42245,"city":"San Francisco","state":"CA","address":"3350 Mission St","name":""},
  {"lat":47.71783,"lon":-117.393759,"city":"Spokane","state":"WA","address":"6520 N Nevada","name":""},
  {"lat":37.776779,"lon":-122.394072,"city":"San Francisco","state":"CA","address":"298 King St","name":""},
  {"lat":47.693929,"lon":-117.367479,"city":"Spokane","state":"WA","address":"3919 N Market St","name":""},
  {"lat":37.754172,"lon":-122.488817,"city":"San Francisco","state":"CA","address":"2350 Noriega St","name":""},
  {"lat":47.600891,"lon":-117.367616,"city":"Spokane","state":"WA","address":"3010 E 57th Ave","name":""},
  {"lat":37.766909,"lon":-122.409335,"city":"San Francisco","state":"CA","address":"2300 16th St Unit 203","name":""},
  {"lat":47.629624,"lon":-117.374655,"city":"Spokane","state":"WA","address":"2509 E 29th Ave","name":""},
  {"lat":37.769175,"lon":-122.427875,"city":"San Francisco","state":"CA","address":"2020 Market St","name":""},
  {"lat":47.699024,"lon":-117.448429,"city":"Spokane","state":"WA","address":"2507 W Wellesley Ave","name":""},
  {"lat":37.804467,"lon":-122.432865,"city":"San Francisco","state":"CA","address":"15 Marina Blvd","name":""},
  {"lat":47.68067,"lon":-117.436282,"city":"Spokane","state":"WA","address":"1616 W Northwest Blvd","name":""},
  {"lat":37.796899,"lon":-122.398616,"city":"San Francisco","state":"CA","address":"145 Jackson St","name":""},
  {"lat":47.65584,"lon":-117.216103,"city":"Spokane","state":"WA","address":"14020 E Sprague Ave","name":""},
  {"lat":37.980704,"lon":-122.564141,"city":"San Anselmo","state":"CA","address":"838 Sir Francis Drake","name":""},
  {"lat":47.625951,"lon":-117.222641,"city":"Spokane","state":"WA","address":"13606 E 32nd Ave","name":""},
  {"lat":47.750658,"lon":-117.397224,"city":"Spokane","state":"WA","address":"10100 N Newport Hwy","name":""},
  {"lat":47.838898,"lon":-122.125386,"city":"Snohomish","state":"WA","address":"17520 SR 9 SE","name":""},
  {"lat":47.754351,"lon":-122.312767,"city":"Shoreline","state":"WA","address":"17202 15th Ave NE","name":""},
  {"lat":36.712682,"lon":-121.652212,"city":"Salinas","state":"CA","address":"1546 N Main St","name":""},
  {"lat":36.698915,"lon":-121.62058,"city":"Salinas","state":"CA","address":"1516 Constitution Blvd","name":""},
  {"lat":47.740671,"lon":-122.343628,"city":"Shoreline","state":"WA","address":"15332 Aurora Ave N","name":""},
  {"lat":47.214549,"lon":-123.106665,"city":"Shelton","state":"WA","address":"600 Franklin St","name":""},
  {"lat":38.505889,"lon":-122.468106,"city":"Saint Helena","state":"CA","address":"1026 Hunt Ave","name":""},
  {"lat":48.080936,"lon":-123.117292,"city":"Sequim","state":"WA","address":"680F W Washington St","name":""},
  {"lat":38.453435,"lon":-121.36987,"city":"Sacramento","state":"CA","address":"8377 Elk Grove Florin Rd","name":""},
  {"lat":47.516667,"lon":-122.366725,"city":"Seattle","state":"WA","address":"9620 28th Ave SW","name":""},
  {"lat":38.686409,"lon":-121.339463,"city":"Sacramento","state":"CA","address":"5345 Elkhorn Blvd","name":""},
  {"lat":47.520984,"lon":-122.26824,"city":"Seattle","state":"WA","address":"9262 Rainier Ave S","name":""},
  {"lat":38.573296,"lon":-121.413221,"city":"Sacramento","state":"CA","address":"424 Howe Ave","name":""},
  {"lat":47.690112,"lon":-122.376342,"city":"Seattle","state":"WA","address":"8340 15th Ave NW","name":""},
  {"lat":47.68251,"lon":-122.289308,"city":"Seattle","state":"WA","address":"7340 35th Ave NE","name":""},
  {"lat":38.540704,"lon":-121.483764,"city":"Sacramento","state":"CA","address":"3680 Crocker Dr","name":""},
  {"lat":47.681918,"lon":-122.316955,"city":"Seattle","state":"WA","address":"7300 Roosevelt Way NE","name":""},
  {"lat":38.594433,"lon":-121.386629,"city":"Sacramento","state":"CA","address":"3320 Arden Way","name":""},
  {"lat":47.623573,"lon":-122.357798,"city":"Seattle","state":"WA","address":"516 1st Ave W","name":""},
  {"lat":38.657574,"lon":-121.524652,"city":"Sacramento","state":"CA","address":"2851 Del Paso Rd","name":""},
  {"lat":47.455598,"lon":-122.282586,"city":"Seattle","state":"WA","address":"4011 S 164th","name":""},
  {"lat":38.567928,"lon":-121.48609,"city":"Sacramento","state":"CA","address":"1814 19th St","name":""},
  {"lat":47.56911,"lon":-122.287817,"city":"Seattle","state":"WA","address":"3820 Rainier Ave S","name":""},
  {"lat":38.571636,"lon":-121.464615,"city":"Sacramento","state":"CA","address":"1025 Alhambra Blvd","name":""},
  {"lat":47.579552,"lon":-122.386058,"city":"Seattle","state":"WA","address":"2622 California Ave SW","name":""},
  {"lat":38.731031,"lon":-121.271343,"city":"Roseville","state":"CA","address":"989 Sunrise Ave","name":""},
  {"lat":47.617878,"lon":-122.303528,"city":"Seattle","state":"WA","address":"2201 E Madison St","name":""},
  {"lat":38.79407,"lon":-121.33065,"city":"Roseville","state":"CA","address":"9045 Woodcreek Oaks Blvd","name":""},
  {"lat":47.638298,"lon":-122.357293,"city":"Seattle","state":"WA","address":"2100 Queen Anne Ave N","name":""},
  {"lat":38.741909,"lon":-121.228556,"city":"Roseville","state":"CA","address":"8640 Sierra College Blvd","name":""},
  {"lat":47.668196,"lon":-122.374318,"city":"Seattle","state":"WA","address":"1423 NW Market St","name":""},
  {"lat":47.620426,"lon":-122.313141,"city":"Seattle","state":"WA","address":"1410 E John St","name":""},
  {"lat":47.717951,"lon":-122.312019,"city":"Seattle","state":"WA","address":"12318 15th Ave NE","name":""},
  {"lat":47.615384,"lon":-122.033477,"city":"Sammamish","state":"WA","address":"630 228th Ave NE","name":""},
  {"lat":46.228021,"lon":-119.267456,"city":"Richland","state":"WA","address":"690 Gage Blvd","name":""},
  {"lat":46.299476,"lon":-119.275739,"city":"Richland","state":"WA","address":"1803 George Washington Way","name":""},
  {"lat":47.489837,"lon":-122.161781,"city":"Renton","state":"WA","address":"4300 NE 4th St","name":""},
  {"lat":47.480397,"lon":-122.2146,"city":"Renton","state":"WA","address":"200 S 3rd St","name":""},
  {"lat":47.184884,"lon":-122.259202,"city":"Puyallup","state":"WA","address":"708 Shaw Rd E","name":""},
  {"lat":47.187012,"lon":-122.292889,"city":"Puyallup","state":"WA","address":"611 S Meridian","name":""},
  {"lat":38.767603,"lon":-121.357372,"city":"Roseville","state":"CA","address":"1770 Pleasant Grove Blvd","name":""},
  {"lat":47.095128,"lon":-122.352935,"city":"Puyallup","state":"WA","address":"5616 176th St E","name":""},
  {"lat":38.777314,"lon":-121.291621,"city":"Roseville","state":"CA","address":"1080 Pleasant Grove Blvd","name":""},
  {"lat":47.135246,"lon":-122.29503,"city":"Puyallup","state":"WA","address":"13308 Meridian E","name":""},
  {"lat":38.347571,"lon":-122.708339,"city":"Rohnert Park","state":"CA","address":"6340 Commerce Blvd","name":""},
  {"lat":47.151926,"lon":-122.355219,"city":"Puyallup","state":"WA","address":"11501 Canyon Rd E","name":""},
  {"lat":38.790085,"lon":-121.22222,"city":"Rocklin","state":"CA","address":"4805 Granite Dr","name":""},
  {"lat":46.716114,"lon":-117.177815,"city":"Pullman","state":"WA","address":"430 SE Bishop Blvd","name":""},
  {"lat":38.802964,"lon":-121.274261,"city":"Rocklin","state":"CA","address":"2220 Sunset Blvd","name":""},
  {"lat":47.73812,"lon":-122.636856,"city":"Poulsbo","state":"WA","address":"19245 10th Ave NE","name":""},
  {"lat":37.46568,"lon":-122.22538,"city":"Redwood City","state":"CA","address":"850 Woodside Rd","name":""},
  {"lat":48.108037,"lon":-122.7827,"city":"Port Townsend","state":"WA","address":"442 W Sims Way","name":""},
  {"lat":37.484635,"lon":-122.23045,"city":"Redwood City","state":"CA","address":"1071 El Camino Real","name":""},
  {"lat":47.49615,"lon":-122.652195,"city":"Port Orchard","state":"WA","address":"370 SW Sedgwick Rd","name":""},
  {"lat":40.576617,"lon":-122.384952,"city":"Redding","state":"CA","address":"2275 Pine St","name":""},
  {"lat":47.518191,"lon":-122.630456,"city":"Port Orchard","state":"WA","address":"3355 Bethel Rd SE","name":""},
  {"lat":40.572696,"lon":-122.351197,"city":"Redding","state":"CA","address":"1070 E Cypress Ave","name":""},
  {"lat":48.106009,"lon":-123.380393,"city":"Port Angeles","state":"WA","address":"2709 E Hwy 101","name":""},
  {"lat":38.595342,"lon":-121.293384,"city":"Rancho Cordova","state":"CA","address":"10635 Folsom Blvd","name":""},
  {"lat":48.115923,"lon":-123.435015,"city":"Port Angeles","state":"WA","address":"110 E 3rd St","name":""},
  {"lat":39.936778,"lon":-120.937536,"city":"Quincy","state":"CA","address":"20 E Main St","name":""},
  {"lat":47.098755,"lon":-122.209553,"city":"Orting","state":"WA","address":"215 Whitesell St NW","name":""},
  {"lat":36.793605,"lon":-121.665879,"city":"Prunedale","state":"CA","address":"17539 Vierra Canyon Rd","name":""},
  {"lat":47.049997,"lon":-122.829023,"city":"Olympia","state":"WA","address":"4280 Martin Way E","name":""},
  {"lat":47.045413,"lon":-122.942257,"city":"Olympia","state":"WA","address":"3215 Harrison Ave NW","name":""},
  {"lat":38.762068,"lon":-120.576832,"city":"Pollock Pines","state":"CA","address":"6498 Pony Express Trail","name":""},
  {"lat":48.286482,"lon":-122.661399,"city":"Oak Harbor","state":"WA","address":"1450 SW Erie St","name":""},
  {"lat":37.656081,"lon":-121.899526,"city":"Pleasanton","state":"CA","address":"6790 Bernal Ave","name":""},
  {"lat":47.487308,"lon":-121.791403,"city":"North Bend","state":"WA","address":"460 SW Mt Si Blvd","name":""},
  {"lat":48.183285,"lon":-117.0405,"city":"Newport","state":"WA","address":"121 W Walnut St","name":""},
  {"lat":37.674842,"lon":-121.874406,"city":"Pleasanton","state":"CA","address":"1701 Santa Rita Rd","name":""},
  {"lat":47.5395,"lon":-122.167676,"city":"Newcastle","state":"WA","address":"6911 Coal Creek Pkwy SE","name":""},
  {"lat":37.971064,"lon":-122.061578,"city":"Pleasant Hill","state":"CA","address":"707 Contra Costa Blvd","name":""},
  {"lat":47.807824,"lon":-122.290872,"city":"Mountlake Terrace","state":"WA","address":"4301 212th St SW","name":""},
  {"lat":37.934179,"lon":-122.072339,"city":"Pleasant Hill","state":"CA","address":"600 Patterson Blvd","name":""},
  {"lat":48.437491,"lon":-122.337163,"city":"Mount Vernon","state":"WA","address":"315 E College Way","name":""},
  {"lat":37.948935,"lon":-122.057931,"city":"Pleasant Hill","state":"CA","address":"1978 Contra Costa Blvd","name":""},
  {"lat":47.130422,"lon":-119.268293,"city":"Moses Lake","state":"WA","address":"601 S Pioneer Way","name":""},
  {"lat":38.714398,"lon":-120.83967,"city":"Placerville","state":"CA","address":"3955 Missouri Flat Rd","name":""},
  {"lat":47.860027,"lon":-121.967804,"city":"Monroe","state":"WA","address":"19651 Hwy 2","name":""},
  {"lat":38.016088,"lon":-121.943532,"city":"Pittsburg","state":"CA","address":"660 Bailey Rd","name":""},
  {"lat":38.269622,"lon":-122.638742,"city":"Petaluma","state":"CA","address":"701 Sonoma Mountain Pkwy","name":""},
  {"lat":47.249115,"lon":-122.295908,"city":"Milton","state":"WA","address":"900 E Meridian Ave Suite 12","name":""},
  {"lat":47.876526,"lon":-122.187208,"city":"Mill Creek","state":"WA","address":"3322 132nd St SE","name":""},
  {"lat":38.249035,"lon":-122.621669,"city":"Petaluma","state":"CA","address":"389 S Mcdowell Blvd","name":""},
  {"lat":48.050974,"lon":-122.179559,"city":"Marysville","state":"WA","address":"301 Marysville Mall #60","name":""},
  {"lat":37.432875,"lon":-122.127276,"city":"Palo Alto","state":"CA","address":"2811 Middlefield Rd","name":""},
  {"lat":37.66107,"lon":-122.477622,"city":"Pacifica","state":"CA","address":"709 Hickey Blvd","name":""},
  {"lat":48.062468,"lon":-122.17436,"city":"Marysville","state":"WA","address":"1258 State St","name":""},
  {"lat":37.594446,"lon":-122.502956,"city":"Pacifica","state":"CA","address":"1380 Linda Mar Shopping Center","name":""},
  {"lat":47.360292,"lon":-122.018467,"city":"Maple Valley","state":"WA","address":"26916 Maple Valley Rd","name":""},
  {"lat":47.822347,"lon":-122.31689,"city":"Lynnwood","state":"WA","address":"19500 Hwy 99 Suite 110","name":""},
  {"lat":37.650237,"lon":-122.491873,"city":"Pacifica","state":"CA","address":"12 Manor Plz","name":""},
  {"lat":47.863439,"lon":-122.284388,"city":"Lynnwood","state":"WA","address":"14826 Hwy 99 N","name":""},
  {"lat":36.604858,"lon":-121.92107,"city":"Pacific Grove","state":"CA","address":"1212 Forest Ave","name":""},
  {"lat":47.880861,"lon":-122.281071,"city":"Lynnwood","state":"WA","address":"12811 Beverly Park Rd","name":""},
  {"lat":37.883811,"lon":-122.190987,"city":"Orinda","state":"CA","address":"2 Camino Sobrante","name":""},
  {"lat":48.934316,"lon":-122.487557,"city":"Lynden","state":"WA","address":"8071 Guide Meridian Rd #101","name":""},
  {"lat":46.14866,"lon":-122.96096,"city":"Longview","state":"WA","address":"2930 Ocean Beach Hwy","name":""},
  {"lat":37.984235,"lon":-121.712827,"city":"Oakley","state":"CA","address":"998 Laurel Rd","name":""},
  {"lat":46.136741,"lon":-122.938978,"city":"Longview","state":"WA","address":"1227 15th Ave","name":""},
  {"lat":37.85058,"lon":-122.252121,"city":"Oakland","state":"CA","address":"6310 College Ave","name":""},
  {"lat":47.669597,"lon":-117.103552,"city":"Liberty Lake","state":"WA","address":"1304 N Liberty Lake Rd","name":""},
  {"lat":37.834874,"lon":-122.248619,"city":"Oakland","state":"CA","address":"5100 Broadway","name":""},
  {"lat":47.597237,"lon":-120.645185,"city":"Leavenworth","state":"WA","address":"116 Riverbend Dr","name":""},
  {"lat":37.798323,"lon":-122.182442,"city":"Oakland","state":"CA","address":"4100 Redwood Rd","name":""},
  {"lat":47.164134,"lon":-122.518312,"city":"Lakewood","state":"WA","address":"10223 Gravelly Lake Dr SW","name":""},
  {"lat":37.817283,"lon":-122.245688,"city":"Oakland","state":"CA","address":"3747 Grand Ave","name":""},
  {"lat":48.003494,"lon":-122.103713,"city":"Lake Stevens","state":"WA","address":"717 SR 9 NE","name":""},
  {"lat":37.801329,"lon":-122.215486,"city":"Oakland","state":"CA","address":"3550 Fruitvale Ave","name":""},
  {"lat":37.825454,"lon":-122.208882,"city":"Oakland","state":"CA","address":"2096 Mountain Blvd","name":""},
  {"lat":47.039233,"lon":-122.799854,"city":"Lacey","state":"WA","address":"6200 Pacific Ave SE","name":""},
  {"lat":38.103763,"lon":-122.571464,"city":"Novato","state":"CA","address":"900 Diablo Ave","name":""},
  {"lat":46.997838,"lon":-122.822367,"city":"Lacey","state":"WA","address":"4700 Yelm Hwy SE","name":""},
  {"lat":38.062383,"lon":-122.53229,"city":"Novato","state":"CA","address":"5720 Nave Dr","name":""},
  {"lat":47.058249,"lon":-122.766794,"city":"Lacey","state":"WA","address":"1243 Marvin Rd NE","name":""},
  {"lat":37.551889,"lon":-122.049918,"city":"Newark","state":"CA","address":"5877 Jarvis Ave","name":""},
  {"lat":47.732684,"lon":-122.174135,"city":"Kirkland","state":"WA","address":"14444 124th Ave NE","name":""},
  {"lat":38.321184,"lon":-122.301827,"city":"Napa","state":"CA","address":"3375 Jefferson St","name":""},
  {"lat":47.678782,"lon":-122.173392,"city":"Kirkland","state":"WA","address":"12519 NE 85th St","name":""},
  {"lat":37.401809,"lon":-122.111844,"city":"Mountain View","state":"CA","address":"645 San Antonio Rd","name":""},
  {"lat":47.723663,"lon":-122.206336,"city":"Kirkland","state":"WA","address":"10020 NE 137th St","name":""},
  {"lat":37.411133,"lon":-122.094494,"city":"Mountain View","state":"CA","address":"580 N Rengstorff Ave","name":""},
  {"lat":47.811414,"lon":-122.540784,"city":"Kingston","state":"WA","address":"8196 NE Hwy 104","name":""},
  {"lat":37.403126,"lon":-122.079366,"city":"Mountain View","state":"CA","address":"570 N Shoreline Blvd","name":""},
  {"lat":47.380379,"lon":-122.24665,"city":"Kent","state":"WA","address":"210 Washington Ave S","name":""},
  {"lat":37.372342,"lon":-122.088441,"city":"Mountain View","state":"CA","address":"1750 Miramonte Ave","name":""},
  {"lat":47.41534,"lon":-122.195385,"city":"Kent","state":"WA","address":"20830 108th Ave SE","name":""},
  {"lat":37.782628,"lon":-121.533226,"city":"Mountain House","state":"CA","address":"19555 S Mountain House Pkwy","name":""},
  {"lat":47.356736,"lon":-122.166761,"city":"Kent","state":"WA","address":"13101 SE Kent-Kangley Rd","name":""},
  {"lat":37.128725,"lon":-121.636419,"city":"Morgan Hill","state":"CA","address":"840 E Dunne Ave","name":""},
  {"lat":46.213831,"lon":-119.192849,"city":"Kennewick","state":"WA","address":"5204 W Clearwater Ave","name":""},
  {"lat":37.1128,"lon":-121.639327,"city":"Morgan Hill","state":"CA","address":"235 Tennant Station","name":""},
  {"lat":47.75919,"lon":-122.247371,"city":"Kenmore","state":"WA","address":"6850 NE Bothell Way","name":""},
  {"lat":37.836297,"lon":-122.128536,"city":"Moraga","state":"CA","address":"1355 Moraga Way","name":""},
  {"lat":46.141012,"lon":-122.902321,"city":"Kelso","state":"WA","address":"411 Three Rivers Dr","name":""},
  {"lat":37.67188,"lon":-120.995765,"city":"Modesto","state":"CA","address":"2001 Mchenry Ave Suite C","name":""},
  {"lat":47.541426,"lon":-122.048019,"city":"Issaquah","state":"WA","address":"735 NW Gilman Blvd","name":""},
  {"lat":47.541317,"lon":-122.019658,"city":"Issaquah","state":"WA","address":"1451 Highlands Dr","name":""},
  {"lat":37.435039,"lon":-121.898061,"city":"Milpitas","state":"CA","address":"555 E Calaveras Blvd","name":""},
  {"lat":46.255513,"lon":-119.892144,"city":"Grandview","state":"WA","address":"610 E Wine Country Rd","name":""},
  {"lat":37.60337,"lon":-122.394213,"city":"Millbrae","state":"CA","address":"525 El Camino Real","name":""},
  {"lat":47.94162,"lon":-119.00543,"city":"Grand Coulee","state":"WA","address":"320 Midway Ave","name":""},
  {"lat":37.899246,"lon":-122.51484,"city":"Mill Valley","state":"CA","address":"800 Redwood Hwy Frontage Rd #110","name":""},
  {"lat":47.054416,"lon":-122.296687,"city":"Graham","state":"WA","address":"10105 224th St E","name":""},
  {"lat":37.894087,"lon":-122.531317,"city":"Mill Valley","state":"CA","address":"1 Camino Alto","name":""},
  {"lat":47.302228,"lon":-122.575617,"city":"Gig Harbor","state":"WA","address":"4831 Point Fosdick Dr NW","name":""},
  {"lat":37.450532,"lon":-122.179157,"city":"Menlo Park","state":"CA","address":"525 El Camino Real","name":""},
  {"lat":47.360908,"lon":-122.604544,"city":"Gig Harbor","state":"WA","address":"11330 NW 51st Ave","name":""},
  {"lat":37.423442,"lon":-122.197004,"city":"Menlo Park","state":"CA","address":"325 S Sharon Park Dr","name":""},
  {"lat":47.313537,"lon":-122.317598,"city":"Federal Way","state":"WA","address":"1207 S 320th St","name":""},
  {"lat":40.94364,"lon":-124.103132,"city":"Mckinleyville","state":"CA","address":"1503 City Ctr Rd","name":""},
  {"lat":47.92941,"lon":-122.218673,"city":"Everett","state":"WA","address":"7601 Evergreen Way","name":""},
  {"lat":37.957926,"lon":-122.093951,"city":"Martinez","state":"CA","address":"6688 Alhambra Ave","name":""},
  {"lat":47.875366,"lon":-122.153628,"city":"Everett","state":"WA","address":"5802 134th Place SE","name":""},
  {"lat":38.000747,"lon":-122.13303,"city":"Martinez","state":"CA","address":"3334 Alhambra Ave","name":""},
  {"lat":47.88058,"lon":-122.240356,"city":"Everett","state":"WA","address":"520 128th St SW","name":""},
  {"lat":37.786632,"lon":-121.218753,"city":"Manteca","state":"CA","address":"1187 S Main St","name":""},
  {"lat":47.962455,"lon":-122.212361,"city":"Everett","state":"WA","address":"4128 Rucker Ave","name":""},
  {"lat":37.231462,"lon":-121.979085,"city":"Los Gatos","state":"CA","address":"470 N Santa Cruz Ave","name":""},
  {"lat":47.994115,"lon":-122.200192,"city":"Everett","state":"WA","address":"1715 Broadway Ave","name":""},
  {"lat":37.242444,"lon":-121.93259,"city":"Los Gatos","state":"CA","address":"15549 Union Ave","name":""},
  {"lat":37.263648,"lon":-121.984481,"city":"Los Gatos","state":"CA","address":"1500 Pollard Rd","name":""},
  {"lat":47.897276,"lon":-122.20498,"city":"Everett","state":"WA","address":"11031 19th Ave SE","name":""},
  {"lat":37.378974,"lon":-122.119045,"city":"Los Altos","state":"CA","address":"160 1st St","name":""},
  {"lat":47.309396,"lon":-119.558482,"city":"Ephrata","state":"WA","address":"1150 Basin St SW","name":""},
  {"lat":47.198148,"lon":-121.980032,"city":"Enumclaw","state":"WA","address":"152 Roosevelt Ave E","name":""},
  {"lat":38.117688,"lon":-121.305761,"city":"Lodi","state":"CA","address":"2449 W Kettleman Ln","name":""},
  {"lat":46.996069,"lon":-120.543048,"city":"Ellensburg","state":"WA","address":"400 N Ruby St","name":""},
  {"lat":37.695181,"lon":-121.742865,"city":"Livermore","state":"CA","address":"4495 First St","name":""},
  {"lat":47.784574,"lon":-122.344304,"city":"Edmonds","state":"WA","address":"23632 Hwy 99","name":""},
  {"lat":37.680406,"lon":-121.777199,"city":"Livermore","state":"CA","address":"1554 First St","name":""},
  {"lat":47.404541,"lon":-120.280915,"city":"East Wenatchee","state":"WA","address":"510 Grant Rd","name":""},
  {"lat":38.878012,"lon":-121.294202,"city":"Lincoln","state":"CA","address":"67 Lincoln Blvd","name":""},
  {"lat":39.048539,"lon":-122.925624,"city":"Lakeport","state":"CA","address":"1071 11th St","name":""},
  {"lat":47.726399,"lon":-121.9848,"city":"Duvall","state":"WA","address":"14020 Main St NE","name":""},
  {"lat":37.892858,"lon":-122.119464,"city":"Lafayette","state":"CA","address":"3540 Mt Diablo Blvd","name":""},
  {"lat":47.410013,"lon":-122.299477,"city":"Des Moines","state":"WA","address":"21401 Pacific Hwy S","name":""},
  {"lat":39.239254,"lon":-120.033877,"city":"Kings Beach","state":"CA","address":"7815 N Lake Blvd","name":""},
  {"lat":47.356582,"lon":-122.114919,"city":"Covington","state":"WA","address":"17023 SE 272nd","name":""},
  {"lat":36.204459,"lon":-121.133274,"city":"King City","state":"CA","address":"530 Canal St","name":""},
  {"lat":48.547138,"lon":-117.906396,"city":"Colville","state":"WA","address":"391 N Main St","name":""},
  {"lat":38.368234,"lon":-120.800067,"city":"Jackson","state":"CA","address":"12110 Industry Blvd","name":""},
  {"lat":47.195689,"lon":-120.953642,"city":"Cle Elum","state":"WA","address":"804 W 1st St","name":""},
  {"lat":36.83849,"lon":-121.391815,"city":"Hollister","state":"CA","address":"591 Tres Pinos Rd","name":""},
  {"lat":47.505762,"lon":-117.567332,"city":"Cheney","state":"WA","address":"2710 1st St","name":""},
  {"lat":47.842245,"lon":-120.019746,"city":"Chelan","state":"WA","address":"106 W Manson Rd","name":""},
  {"lat":38.014749,"lon":-122.271562,"city":"Hercules","state":"CA","address":"4080 San Pablo Ave","name":""},
  {"lat":38.609175,"lon":-122.873411,"city":"Healdsburg","state":"CA","address":"1115 Vine St","name":""},
  {"lat":46.655055,"lon":-122.954096,"city":"Chehalis","state":"WA","address":"1100 S Market Blvd","name":""},
  {"lat":37.6527,"lon":-122.091501,"city":"Hayward","state":"CA","address":"231 W Jackson St","name":""},
  {"lat":46.727653,"lon":-122.981241,"city":"Centralia","state":"WA","address":"1129 Harrison Ave","name":""},
  {"lat":37.679823,"lon":-122.083487,"city":"Hayward","state":"CA","address":"22280 Foothill Blvd","name":""},
  {"lat":45.586869,"lon":-122.399417,"city":"Camas","state":"WA","address":"800 NE 3rd Ave","name":""},
  {"lat":37.46927,"lon":-122.436139,"city":"Half Moon Bay","state":"CA","address":"70 Cabrillo Hwy","name":""},
  {"lat":47.471744,"lon":-122.336711,"city":"Burien","state":"WA","address":"138 SW 148th St","name":""},
  {"lat":38.500809,"lon":-123.000788,"city":"Guerneville","state":"CA","address":"16405 Hwy 116","name":""},
  {"lat":47.488964,"lon":-122.335801,"city":"Burien","state":"WA","address":"12725 1st Ave S","name":""},
  {"lat":39.362346,"lon":-121.686445,"city":"Gridley","state":"CA","address":"1596 St Hwy 99","name":""},
  {"lat":47.569661,"lon":-122.652795,"city":"Bremerton","state":"WA","address":"900 N Callow Ave","name":""},
  {"lat":39.235432,"lon":-121.032326,"city":"Grass Valley","state":"CA","address":"867 Sutton Way","name":""},
  {"lat":47.620685,"lon":-122.630837,"city":"Bremerton","state":"WA","address":"1401 NE McWilliams Rd","name":""},
  {"lat":39.216033,"lon":-121.06277,"city":"Grass Valley","state":"CA","address":"105 Neal St","name":""},
  {"lat":47.778559,"lon":-122.220415,"city":"Bothell","state":"WA","address":"24040 Bothell Everett Hwy","name":""},
  {"lat":37.01449,"lon":-121.589106,"city":"Gilroy","state":"CA","address":"905 First St","name":""},
  {"lat":47.810149,"lon":-122.205282,"city":"Bothell","state":"WA","address":"20711 Bothell Hwy","name":""},
  {"lat":37.489644,"lon":-121.927456,"city":"Fremont","state":"CA","address":"46848 Mission Blvd","name":""},
  {"lat":37.545332,"lon":-121.989438,"city":"Fremont","state":"CA","address":"39100 Argonaut Way","name":""},
  {"lat":47.166074,"lon":-122.145136,"city":"Bonney Lake","state":"WA","address":"21301 Hwy 410","name":""},
  {"lat":37.531625,"lon":-121.957151,"city":"Fremont","state":"CA","address":"3902 Washington Blvd","name":""},
  {"lat":48.77451,"lon":-122.458209,"city":"Bellingham","state":"WA","address":"1275 E Sunset Dr","name":""},
  {"lat":36.940055,"lon":-121.775432,"city":"Freedom","state":"CA","address":"2010 Freedom Blvd","name":""},
  {"lat":47.613082,"lon":-122.201239,"city":"Bellevue","state":"WA","address":"300 Bellevue Way NE","name":""},
  {"lat":37.556855,"lon":-122.275799,"city":"Foster City","state":"CA","address":"921 E Hillsdale Blvd","name":""},