{"key":"sheraton","displayName":"Sheraton","category":"hotels","useLocationName":false,"locations":[
  {"lat":61.216737,"lon":-149.876899,"city":"Anchorage","state":"AK","address":"401 East 6th Avenue","name":""},
  {"lat":33.524669,"lon":-86.810561,"city":"Birmingham","state":"AL","address":"2101 Richard Arrington Jr. Boulevard North","name":""},
  {"lat":33.430984,"lon":-111.877658,"city":"Mesa","state":"AZ","address":"860 North Riverview","name":""},
  {"lat":33.45156,"lon":-112.069899,"city":"Phoenix","state":"AZ","address":"340 North 3rd Street","name":""},
  {"lat":33.266696,"lon":-111.992966,"city":"Phoenix","state":"AZ","address":"5594 W Wild Horse Pass Blvd","name":""},
  {"lat":32.250937,"lon":-110.882982,"city":"Tucson","state":"AZ","address":"5151 East Grant Road","name":""},
  {"lat":34.144268,"lon":-118.779213,"city":"Agoura Hills","state":"CA","address":"30100 Agoura Road","name":""},
  {"lat":33.802346,"lon":-117.915372,"city":"Anaheim","state":"CA","address":"1855 South Harbor Boulevard","name":""},
  {"lat":33.134138,"lon":-117.311704,"city":"Carlsbad","state":"CA","address":"5420 Grand Pacific Drive","name":""},
  {"lat":33.868228,"lon":-118.059974,"city":"Cerritos","state":"CA","address":"12725 Center Court Drive","name":""},
  {"lat":33.785535,"lon":-117.91499,"city":"Garden Grove","state":"CA","address":"12221 Harbor Boulevard","name":""},
  {"lat":32.870599,"lon":-117.2322,"city":"La Jolla","state":"CA","address":"3299 Holiday Court","name":""},
  {"lat":34.047831,"lon":-118.257752,"city":"Los Angeles","state":"CA","address":"711 South Hope Street","name":""},
  {"lat":33.945737,"lon":-118.387256,"city":"Los Angeles","state":"CA","address":"6101 West Century Boulevard","name":""},
  {"lat":37.402171,"lon":-121.910618,"city":"Milpitas","state":"CA","address":"1801 Barber Lane","name":""},
  {"lat":34.067359,"lon":-117.611282,"city":"Ontario","state":"CA","address":"429 North Vineyard Avenue","name":""},
  {"lat":37.440369,"lon":-122.163309,"city":"Palo Alto","state":"CA","address":"625 El Camino Real","name":""},
  {"lat":38.231236,"lon":-122.612958,"city":"Petaluma","state":"CA","address":"745 Baywood Drive","name":""},
  {"lat":34.077981,"lon":-117.760434,"city":"Pomona","state":"CA","address":"601 West McKinley Avenue","name":""},
  {"lat":40.59,"lon":-122.378193,"city":"Redding","state":"CA","address":"820 Sundial Bridge Drive","name":""},
  {"lat":38.579332,"lon":-121.490301,"city":"Sacramento","state":"CA","address":"1230 J St.","name":""},
  {"lat":32.766081,"lon":-117.149519,"city":"San Diego","state":"CA","address":"1433 Camino Del Rio South","name":""},
  {"lat":32.727024,"lon":-117.197634,"city":"San Diego","state":"CA","address":"1380 Harbor Island Drive","name":""},
  {"lat":34.080365,"lon":-118.097331,"city":"San Gabriel","state":"CA","address":"303 East Valley Boulevard","name":""},
  {"lat":34.137486,"lon":-118.35954,"city":"Universal City","state":"CA","address":"333 Universal Hollywood Drive","name":""},
  {"lat":39.76983,"lon":-104.79521,"city":"Aurora","state":"CO","address":"16450 East 40th Circle","name":""},
  {"lat":39.742414,"lon":-104.989262,"city":"Denver","state":"CO","address":"1550 Court Place","name":""},
  {"lat":39.589731,"lon":-104.878517,"city":"Greenwood Village","state":"CO","address":"7007 South Clinton Street","name":""},
  {"lat":39.719401,"lon":-105.132478,"city":"Lakewood","state":"CO","address":"360 Union Boulevard","name":""},
  {"lat":41.649736,"lon":-72.668613,"city":"Rocky Hill","state":"CT","address":"100 Capital Boulevard","name":""},
  {"lat":41.925866,"lon":-72.681534,"city":"Windsor Locks","state":"CT","address":"1 Bradley International Airport","name":""},
  {"lat":39.74776,"lon":-75.551094,"city":"Wilmington","state":"DE","address":"422 Delaware Avenue","name":""},
  {"lat":27.955932,"lon":-82.828846,"city":"Clearwater Beach","state":"FL","address":"1160 Gulf Blvd.","name":""},
  {"lat":26.203437,"lon":-80.149297,"city":"Fort Lauderdale","state":"FL","address":"555 N.W. 62nd Street","name":""},
  {"lat":30.248159,"lon":-81.538188,"city":"Jacksonville","state":"FL","address":"10605 Deerwood Park Boulevard","name":""},
  {"lat":28.369227,"lon":-81.56287,"city":"Lake Buena Vista","state":"FL","address":"1500 Epcot Resort Boulevard","name":""},
  {"lat":28.632199,"lon":-81.392137,"city":"Maitland","state":"FL","address":"600 North Lake Destiny Road","name":""},
  {"lat":25.794545,"lon":-80.259268,"city":"Miami","state":"FL","address":"3900 NW 21st Street","name":""},
  {"lat":28.388076,"lon":-81.506045,"city":"Orlando","state":"FL","address":"12205 S Apopka Vineland Road","name":""},
  {"lat":28.456448,"lon":-81.30774,"city":"Orlando","state":"FL","address":"7550 Augusta National Drive","name":""},
  {"lat":26.123904,"lon":-80.256896,"city":"Plantation","state":"FL","address":"311 North University Drive","name":""},
  {"lat":27.979998,"lon":-82.332005,"city":"Tampa","state":"FL","address":"10221 Princess Palm Avenue","name":""},
  {"lat":33.919503,"lon":-84.36073,"city":"Atlanta","state":"GA","address":"800 Hammond Drive","name":""},
  {"lat":33.883434,"lon":-84.468895,"city":"Atlanta","state":"GA","address":"2844 Cobb Parkway SE","name":""},
  {"lat":33.516366,"lon":-82.043058,"city":"Augusta","state":"GA","address":"1069 Stevens Creek Road","name":""},
  {"lat":21.277078,"lon":-157.826142,"city":"Honolulu","state":"HI","address":"120 Kaiulani Ave","name":""},
  {"lat":21.276908,"lon":-157.829715,"city":"Honolulu","state":"HI","address":"2255 Kalakaua Avenue","name":""},
  {"lat":22.056708,"lon":-159.322553,"city":"Kapaa","state":"HI","address":"650 Aleka Loop","name":""},
  {"lat":21.87633,"lon":-159.46197,"city":"Kauai","state":"HI","address":"2440 Hoonani Road","name":""},
  {"lat":20.926229,"lon":-156.694296,"city":"Maui","state":"HI","address":"2605 Kaanapali Parkway, Lahaina","name":""},
  {"lat":41.598004,"lon":-93.771299,"city":"West Des Moines","state":"IA","address":"1800 50th Street","name":""},
  {"lat":41.889345,"lon":-87.619306,"city":"Chicago","state":"IL","address":"301 East North Water Street","name":""},
  {"lat":42.036123,"lon":-87.977919,"city":"Elk Grove Village","state":"IL","address":"121 Northwest Point Boulevard","name":""},
  {"lat":41.809644,"lon":-88.111435,"city":"Lisle","state":"IL","address":"3000 Warrenville Road","name":""},
  {"lat":42.105919,"lon":-87.806832,"city":"Northbrook","state":"IL","address":"1110 Willow Road","name":""},
  {"lat":41.99695,"lon":-87.883755,"city":"Rosemont","state":"IL","address":"6501 Mannheim Road","name":""},
  {"lat":39.7699,"lon":-86.158666,"city":"Indianapolis","state":"IN","address":"31 West Ohio Street","name":""},
  {"lat":39.915087,"lon":-86.10972,"city":"Indianapolis","state":"IN","address":"8787 Keystone Crossing","name":""},
  {"lat":38.2685,"lon":-85.74845,"city":"Jeffersonville","state":"IN","address":"700 West Riverside Drive","name":""},
  {"lat":38.927458,"lon":-94.654877,"city":"Overland Park","state":"KS","address":"6100 College Boulevard","name":""},
  {"lat":29.99579,"lon":-90.152918,"city":"Metairie","state":"LA","address":"Four Galleria Boulevard","name":""},
  {"lat":29.951853,"lon":-90.067927,"city":"New Orleans","state":"LA","address":"500 Canal Street","name":""},
  {"lat":42.346501,"lon":-71.084883,"city":"Boston","state":"MA","address":"39 Dalton Street","name":""},
  {"lat":42.376692,"lon":-71.122565,"city":"Cambridge","state":"MA","address":"16 Garden Street","name":""},
  {"lat":42.297218,"lon":-71.479776,"city":"Framingham","state":"MA","address":"1657 Worcester Road","name":""},
  {"lat":42.303037,"lon":-71.220113,"city":"Needham","state":"MA","address":"100 Cabot Street","name":""},
  {"lat":42.101884,"lon":-72.591262,"city":"Springfield","state":"MA","address":"One Monarch Place","name":""},
  {"lat":39.285449,"lon":-76.614756,"city":"Baltimore","state":"MD","address":"300 South Charles Street","name":""},
  {"lat":39.205534,"lon":-76.692964,"city":"Linthicum Heights","state":"MD","address":"1100 Old Elkridge Landing Road","name":""},
  {"lat":39.110189,"lon":-77.181939,"city":"Rockville","state":"MD","address":"920 King Farm Boulevard","name":""},
  {"lat":39.406351,"lon":-76.601189,"city":"Towson","state":"MD","address":"903 Dulaney Valley Road","name":""},
  {"lat":43.639561,"lon":-70.339748,"city":"South Portland","state":"ME","address":"200 Sable Oaks Drive","name":""},
  {"lat":42.240557,"lon":-83.735176,"city":"Ann Arbor","state":"MI","address":"3200 Boardwalk Street","name":""},
  {"lat":42.9121,"lon":-85.52571,"city":"Grand Rapids","state":"MI","address":"5700 28th Street Southeast","name":""},
  {"lat":42.441924,"lon":-83.435042,"city":"Novi","state":"MI","address":"21111 Haggerty Road","name":""},
  {"lat":42.246326,"lon":-83.349152,"city":"Romulus","state":"MI","address":"8000 Merriman Road","name":""},
  {"lat":44.860279,"lon":-93.354089,"city":"Bloomington","state":"MN","address":"5601 West 78th Street","name":""},
  {"lat":46.78981,"lon":-92.094486,"city":"Duluth","state":"MN","address":"301 East Superior Street","name":""},
  {"lat":44.97044,"lon":-93.27709,"city":"Minneapolis","state":"MN","address":"1313 Nicollet Mall","name":""},
  {"lat":44.966324,"lon":-93.432745,"city":"Minnetonka","state":"MN","address":"12201 Ridgedale Drive","name":""},
  {"lat":44.939137,"lon":-92.956505,"city":"Woodbury","state":"MN","address":"676 Bielenberg Drive","name":""},
  {"lat":39.085221,"lon":-94.579711,"city":"Kansas City","state":"MO","address":"2345 McGee Street","name":""},
  {"lat":38.70209,"lon":-90.447586,"city":"St. Louis","state":"MO","address":"191 Westport Plaza","name":""},
  {"lat":38.700432,"lon":-90.446556,"city":"St. Louis","state":"MO","address":"900 Westport Plaza","name":""},
  {"lat":32.316331,"lon":-90.094345,"city":"Flowood","state":"MS","address":"2200 Refuge Boulevard","name":""},
  {"lat":35.939434,"lon":-79.017298,"city":"Chapel Hill","state":"NC","address":"One Europa Drive","name":""},
  {"lat":35.216904,"lon":-80.837799,"city":"Charlotte","state":"NC","address":"555 South McDowell Street, South Tower","name":""},
  {"lat":35.23675,"lon":-80.920636,"city":"Charlotte","state":"NC","address":"3315 Scott Futrell Drive","name":""},
  {"lat":35.877736,"lon":-78.838831,"city":"Durham","state":"NC","address":"4700 Emperor Blvd, I-40 at Exit 282 (Page Road)","name":""},
  {"lat":36.042479,"lon":-79.842563,"city":"Greensboro","state":"NC","address":"3121 West Gate City Boulevard","name":""},
  {"lat":35.775246,"lon":-78.64023,"city":"Raleigh","state":"NC","address":"421 South Salisbury Street","name":""},
  {"lat":42.710717,"lon":-71.453045,"city":"Nashua","state":"NH","address":"11 Tara Boulevard","name":""},
  {"lat":43.079951,"lon":-70.759516,"city":"Portsmouth","state":"NH","address":"250 Market Street","name":""},
  {"lat":39.362363,"lon":-74.438264,"city":"Atlantic City","state":"NJ","address":"Two Convention Boulevard","name":""},
  {"lat":40.275881,"lon":-74.042686,"city":"Eatontown","state":"NJ","address":"6 Industrial Way East","name":""},
  {"lat":40.518487,"lon":-74.338966,"city":"Edison","state":"NJ","address":"125 Raritan Center Parkway","name":""},
  {"lat":40.8611,"lon":-74.413418,"city":"Parsippany","state":"NJ","address":"199 Smith Road","name":""},
  {"lat":40.758183,"lon":-74.025729,"city":"Weehawken","state":"NJ","address":"500 Harbor Boulevard","name":""},
  {"lat":35.050837,"lon":-106.620855,"city":"Albuquerque","state":"NM","address":"2910 Yale Boulevard S.E.","name":""},
  {"lat":35.109322,"lon":-106.568885,"city":"Albuquerque","state":"NM","address":"2600 Louisiana Blvd NE","name":""},
  {"lat":40.691653,"lon":-73.984481,"city":"Brooklyn","state":"NY","address":"228 Duffield Street","name":""},
  {"lat":40.759638,"lon":-73.831763,"city":"Flushing","state":"NY","address":"135-20 39th Avenue","name":""},
  {"lat":40.762634,"lon":-73.982014,"city":"New York City","state":"NY","address":"811 7th Avenue 53rd Street","name":""},
  {"lat":40.72115,"lon":-74.00425,"city":"New York City","state":"NY","address":"370 Canal Street","name":""},
  {"lat":43.08675,"lon":-79.059845,"city":"Niagara Falls","state":"NY","address":"300 3rd Street","name":""},
  {"lat":41.0617,"lon":-73.835499,"city":"Tarrytown","state":"NY","address":"600 White Plains Rd","name":""},
  {"lat":40.113155,"lon":-83.009509,"city":"Columbus","state":"OH","address":"201 Hutchinson Avenue","name":""},
  {"lat":41.132654,"lon":-81.482926,"city":"Cuyahoga Falls","state":"OH","address":"1989 Front Street","name":""},
  {"lat":35.466646,"lon":-97.514656,"city":"Oklahoma City","state":"OK","address":"1 North Broadway Avenue","name":""},
  {"lat":45.58322,"lon":-122.5752,"city":"Portland","state":"OR","address":"8235 Northeast Airport Way","name":""},
  {"lat":40.502182,"lon":-80.210136,"city":"Coraopolis","state":"PA","address":"1160 Thorn Run Road","name":""},
  {"lat":42.136486,"lon":-80.092391,"city":"Erie","state":"PA","address":"55 West Bay Drive","name":""},
  {"lat":40.033643,"lon":-75.581818,"city":"Frazer","state":"PA","address":"707 East Lancaster Avenue","name":""},
  {"lat":40.242795,"lon":-76.797051,"city":"Harrisburg","state":"PA","address":"4650 Lindle Road","name":""},
  {"lat":40.089642,"lon":-75.409286,"city":"King of Prussia","state":"PA","address":"480 North Gulph Road","name":""},
  {"lat":40.184664,"lon":-74.869165,"city":"Langhorne","state":"PA","address":"400 Oxford Valley Road","name":""},
  {"lat":39.956572,"lon":-75.167452,"city":"Philadelphia","state":"PA","address":"201 North 17th Street","name":""},
  {"lat":39.88653,"lon":-75.231645,"city":"Philadelphia","state":"PA","address":"4101 B Island Avenue","name":""},
  {"lat":39.954649,"lon":-75.194004,"city":"Philadelphia","state":"PA","address":"3549 Chestnut Street","name":""},
  {"lat":40.433763,"lon":-80.006078,"city":"Pittsburgh","state":"PA","address":"300 W Station Square Dr","name":""},
  {"lat":34.004002,"lon":-81.0348,"city":"Columbia","state":"SC","address":"1400 Main Street","name":""},
  {"lat":33.705049,"lon":-78.87375,"city":"Myrtle Beach","state":"SC","address":"2101 North Oak Street","name":""},
  {"lat":43.561607,"lon":-96.747788,"city":"Sioux Falls","state":"SD","address":"1211 North West Avenue","name":""},
  {"lat":36.041673,"lon":-86.774397,"city":"Brentwood","state":"TN","address":"760 Old Hickory Boulevard","name":""},
  {"lat":35.152051,"lon":-90.049303,"city":"Memphis","state":"TN","address":"250 North Main Street","name":""},
  {"lat":36.144904,"lon":-86.684609,"city":"Nashville","state":"TN","address":"777 McGavock Pike","name":""},
  {"lat":36.163579,"lon":-86.782418,"city":"Nashville","state":"TN","address":"623 Union Street","name":""},
  {"lat":32.758195,"lon":-97.080197,"city":"Arlington","state":"TX","address":"1500 Convention Center Drive","name":""},
  {"lat":32.78474,"lon":-96.794776,"city":"Dallas","state":"TX","address":"400 North Olive Street","name":""},
  {"lat":32.801012,"lon":-96.825719,"city":"Dallas","state":"TX","address":"2101 North Stemmons Freeway","name":""},
  {"lat":32.927049,"lon":-96.824864,"city":"Dallas","state":"TX","address":"4801 Lyndon B. Johnson Freeway","name":""},
  {"lat":32.74785,"lon":-97.3256,"city":"Fort Worth","state":"TX","address":"1701 Commerce Street","name":""},
  {"lat":33.085559,"lon":-96.845085,"city":"Frisco","state":"TX","address":"5444 State Highway 121","name":""},
  {"lat":30.648686,"lon":-97.686453,"city":"Georgetown","state":"TX","address":"1101 Woodlawn Avenue","name":""},
  {"lat":29.947667,"lon":-95.331494,"city":"Houston","state":"TX","address":"15700 John F. Kennedy Boulevard","name":""},
  {"lat":29.804817,"lon":-95.447417,"city":"Houston","state":"TX","address":"3000 North Loop W","name":""},
  {"lat":32.913561,"lon":-97.006732,"city":"Irving","state":"TX","address":"4440 West John Carpenter Freeway","name":""},
  {"lat":33.163694,"lon":-96.642804,"city":"McKinney","state":"TX","address":"1900 Gateway Boulevard","name":""},
  {"lat":40.664146,"lon":-111.496254,"city":"Park City","state":"UT","address":"1895 Sidewinder Drive","name":""},
  {"lat":40.758637,"lon":-111.895459,"city":"Salt Lake City","state":"UT","address":"150 West 500 South","name":""},
  {"lat":38.812964,"lon":-77.044249,"city":"Alexandria","state":"VA","address":"801 North Saint Asaph Street","name":""},
  {"lat":38.867259,"lon":-77.072446,"city":"Arlington","state":"VA","address":"900 South Orme Street","name":""},
  {"lat":36.844017,"lon":-76.287285,"city":"Norfolk","state":"VA","address":"777 Waterside Drive","name":""},
  {"lat":38.948493,"lon":-77.355962,"city":"Reston","state":"VA","address":"11810 Sunrise Valley Drive","name":""},
  {"lat":37.511042,"lon":-77.338856,"city":"Sandston","state":"VA","address":"5501 Eubank Road","name":""},
  {"lat":36.8642,"lon":-75.9794,"city":"Virginia Beach","state":"VA","address":"3501 Atlantic Avenue","name":""},
  {"lat":47.61039,"lon":-122.333444,"city":"Seattle","state":"WA","address":"1400 6th Avenue","name":""},
  {"lat":43.027678,"lon":-88.107186,"city":"Brookfield","state":"WI","address":"375 South Moorland Road","name":""}]}