{"key":"sunoco","displayName":"Sunoco","category":"gas_station","useLocationName":false,"locations":[
  {"lat":42.796143,"lon":-84.35109,"city":"HASLETT","state":"MI","address":"10800 LANSING ROAD","name":""},
  {"lat":43.010689,"lon":-83.594656,"city":"BURTON","state":"MI","address":"6026 LAPEER RD","name":""},
  {"lat":42.284857,"lon":-83.163399,"city":"DETROIT","state":"MI","address":"2215 S SCHAEFER HWY","name":""},
  {"lat":25.900133,"lon":-97.494729,"city":"BROWNSVILLE","state":"TX","address":"635 INTERNATIONAL BLVD","name":""},
  {"lat":39.08675,"lon":-81.92531,"city":"LONG BOTTOM","state":"OH","address":"36270 OH-7","name":""},
  {"lat":38.99956,"lon":-81.97901,"city":"SYRACUSE","state":"OH","address":"2377 3RD ST","name":""},
  {"lat":42.62882,"lon":-83.032213,"city":"UTICA","state":"MI","address":"45310 VAN DYKE AVE","name":""},
  {"lat":39.723085,"lon":-86.111656,"city":"BEECH GROVE","state":"IN","address":"3131 TROY AVE","name":""},
  {"lat":43.957622,"lon":-84.77262,"city":"HARRISON","state":"MI","address":"3600 E MANNSIDING RD","name":""},
  {"lat":42.251302,"lon":-84.383932,"city":"JACKSON","state":"MI","address":"1601 E MICHIGAN AVE","name":""},
  {"lat":41.473139,"lon":-81.735269,"city":"CLEVELAND","state":"OH","address":"7310 LORAIN AVE","name":""},
  {"lat":37.62041,"lon":-84.58827,"city":"LANCASTER","state":"KY","address":"323 DANVILLE ST","name":""},
  {"lat":37.15509,"lon":-84.19555,"city":"LONDON","state":"KY","address":"21 HAWK CREEK RD","name":""},
  {"lat":43.280884,"lon":-85.81071,"city":"BAILEY","state":"MI","address":"1547 NEWAYGO RD","name":""},
  {"lat":40.798992,"lon":-85.821131,"city":"WABASH","state":"IN","address":"6 W HILL ST","name":""},
  {"lat":43.292752,"lon":-85.082633,"city":"STANTON","state":"MI","address":"134 W MAIN ST","name":""},
  {"lat":32.587046,"lon":-96.942727,"city":"CEDAR HILL","state":"TX","address":"207 S CLARK RD","name":""},
  {"lat":28.5779,"lon":-81.469187,"city":"ORLANDO","state":"FL","address":"6325 SILVER STAR RD","name":""},
  {"lat":32.937674,"lon":-86.833846,"city":"JEMISON","state":"AL","address":"2421 COUNTY ROAD 42","name":""},
  {"lat":42.981823,"lon":-83.692589,"city":"FLINT","state":"MI","address":"4619 FENTON RD","name":""},
  {"lat":37.85606,"lon":-83.91455,"city":"CLAY CITY","state":"KY","address":"4045 MAIN ST","name":""},
  {"lat":32.09606,"lon":-98.33924,"city":"DUBLIN","state":"TX","address":"720 N PATRICK ST","name":""},
  {"lat":36.392907,"lon":-87.64122,"city":"CUMBERLAND CITY","state":"TN","address":"606 CUMBERLAND CITY RD","name":""},
  {"lat":39.774878,"lon":-86.101933,"city":"INDIANAPOLIS","state":"IN","address":"3816 E MICHIGAN ST","name":""},
  {"lat":38.08302,"lon":-120.559199,"city":"ANGELS CAMP","state":"CA","address":"36 N MAIN STREET","name":""},
  {"lat":35.5832,"lon":-79.155788,"city":"SANFORD","state":"NC","address":"3101 DEEP RIVER RD","name":""},
  {"lat":35.072301,"lon":-89.885694,"city":"MEMPHIS","state":"TN","address":"2799 S MENDENHALL RD","name":""},
  {"lat":42.310599,"lon":-73.74403,"city":"HUDSON","state":"NY","address":"177 UNION TPKE","name":""},
  {"lat":43.104249,"lon":-83.733789,"city":"MOUNT MORRIS","state":"MI","address":"7006 N CLIO RD","name":""},
  {"lat":43.610198,"lon":-83.91445,"city":"BAY CITY","state":"MI","address":"806 N EUCLID AVE","name":""},
  {"lat":42.093598,"lon":-83.373357,"city":"CARLETON","state":"MI","address":"440 WILL CARLETON RD","name":""},
  {"lat":43.178034,"lon":-85.07337,"city":"SHERIDAN","state":"MI","address":"8075 S SHERIDAN RD","name":""},
  {"lat":30.89898,"lon":-102.8796,"city":"FORT STOCKTON","state":"TX","address":"101 W HORNBECK BLVD","name":""},
  {"lat":41.43307,"lon":-85.01973,"city":"WATERLOO","state":"IN","address":"105 E UNION ST","name":""},
  {"lat":38.02715,"lon":-120.40573,"city":"SONORA","state":"CA","address":"22277 PARROTTS FERRY RD","name":""},
  {"lat":38.354488,"lon":-120.93573,"city":"IONE","state":"CA","address":"39 PRESTON AVE","name":""},
  {"lat":41.931762,"lon":-83.410609,"city":"MONROE","state":"MI","address":"643 N TELEGRAPH RD","name":""},
  {"lat":41.6155,"lon":-83.52761,"city":"NORTHWOOD","state":"OH","address":"395 E ANDRUS ROAD","name":""},
  {"lat":30.255571,"lon":-81.772848,"city":"JACKSONVILLE","state":"FL","address":"7575 MELVIN RD","name":""},
  {"lat":40.56199,"lon":-74.52321,"city":"MIDDLESEX","state":"NJ","address":"26 LINCOLN BLVD","name":""},
  {"lat":41.678484,"lon":-83.561061,"city":"TOLEDO","state":"OH","address":"3100 N DETROIT AVE","name":""},
  {"lat":32.086984,"lon":-81.113008,"city":"SAVANNAH","state":"GA","address":"1028 W BAY ST","name":""},
  {"lat":31.169876,"lon":-83.805068,"city":"MOULTRIE","state":"GA","address":"2011 WEST BLVD","name":""},
  {"lat":41.41857,"lon":-82.13407,"city":"LORAIN","state":"OH","address":"5411 PEARL AVENUE","name":""},
  {"lat":43.250202,"lon":-85.298375,"city":"GOWEN","state":"MI","address":"11340 W SIDNEY RD","name":""},
  {"lat":38.17383,"lon":-84.91417,"city":"FRANKFORT","state":"KY","address":"1520 LOUISVILLE RD","name":""},
  {"lat":29.506006,"lon":-95.067431,"city":"LEAGUE CITY","state":"TX","address":"1465 S EGRET BAY BLVD","name":""},
  {"lat":34.22573,"lon":-89.92398,"city":"POPE","state":"MS","address":"860 HENTZ RD","name":""},
  {"lat":37.83682,"lon":-94.33641,"city":"NEVADA","state":"MO","address":"1518 E AUSTIN BLVD","name":""},
  {"lat":32.050717,"lon":-84.185391,"city":"AMERICUS","state":"GA","address":"506 US HWY 280 E","name":""},
  {"lat":34.91089,"lon":-89.82975,"city":"OLIVE BRANCH","state":"MS","address":"3490 HIGHWAY 305 N","name":""},
  {"lat":34.592659,"lon":-86.962895,"city":"DECATUR","state":"AL","address":"1010 19TH AVE SE","name":""},
  {"lat":31.708782,"lon":-81.753632,"city":"UDOWICI","state":"GA","address":"525 W CYPRESS ST","name":""},
  {"lat":34.514538,"lon":-87.018195,"city":"HARTSELLE","state":"AL","address":"4702 DANVILLE RD","name":""},
  {"lat":40.413024,"lon":-86.873991,"city":"LAFAYETTE","state":"IN","address":"2001 MAIN ST","name":""},
  {"lat":38.678568,"lon":-121.304134,"city":"CITRUS HEIGHTS","state":"CA","address":"6825 GREENBACK LN","name":""},
  {"lat":40.484043,"lon":-84.57095,"city":"CELINA","state":"OH","address":"6029 STATE ROUTE 219","name":""},
  {"lat":43.519853,"lon":-85.083275,"city":"BLANCHARD","state":"MI","address":"206 MAIN ST","name":""},
  {"lat":35.70637,"lon":-77.87797,"city":"WILSON","state":"NC","address":"2407 MARTIN LUTHER KING JR PKWY E","name":""},
  {"lat":37.663735,"lon":-121.869694,"city":"PLEASANTON","state":"CA","address":"4191 FIRST STREET","name":""},
  {"lat":34.867978,"lon":-85.530281,"city":"TRENTON","state":"GA","address":"4343 HIGHWAY 136","name":""},
  {"lat":32.681863,"lon":-97.373014,"city":"FORT WORTH","state":"TX","address":"4501 TRAIL LAKE DR","name":""},
  {"lat":40.08743,"lon":-79.76044,"city":"PERRYOPOLIS","state":"PA","address":"3452 PITTSBURGH RD","name":""},
  {"lat":28.375148,"lon":-82.190428,"city":"DADE CITY","state":"FL","address":"14922 US 301","name":""},
  {"lat":35.69604,"lon":-77.82006,"city":"WILSON","state":"NC","address":"5033 US-264 ALT E","name":""},
  {"lat":35.00274,"lon":-90.79935,"city":"FORREST CITY","state":"AR","address":"1333 W BROADWAY ST","name":""},
  {"lat":37.297903,"lon":-87.12607,"city":"CENTRAL CITY","state":"KY","address":"135 E RESERVOIR AVE","name":""},
  {"lat":39.94817,"lon":-82.94121,"city":"COLUMBUS","state":"OH","address":"2097 E LIVINGSTON AVE","name":""},
  {"lat":30.50705,"lon":-99.77582,"city":"JUNCTION","state":"TX","address":"2350 N MAIN ST","name":""},
  {"lat":42.38885,"lon":-83.119477,"city":"DETROIT","state":"MI","address":"12619 LINWOOD ST","name":""},
  {"lat":33.044439,"lon":-81.714462,"city":"GIRARD","state":"GA","address":"10208 GA HIGHWAY 23 S","name":""},
  {"lat":42.402069,"lon":-83.169812,"city":"DETROIT","state":"MI","address":"12721 FENKELL ST","name":""},
  {"lat":42.106504,"lon":-85.075933,"city":"BURLINGTON","state":"MI","address":"210 E LEROY ST","name":""},
  {"lat":40.359328,"lon":-79.907838,"city":"WEST MIFFLIN","state":"PA","address":"4731 BUTTERMILK HOLLOW RD","name":""},
  {"lat":41.82164,"lon":-73.155961,"city":"LITCHFIELD","state":"CT","address":"59 F TORRINGTON RD","name":""},
  {"lat":28.073021,"lon":-82.522929,"city":"TAMPA","state":"FL","address":"4550 W VILLAGE DR","name":""},
  {"lat":41.37313,"lon":-81.51632,"city":"BEDFORD","state":"OH","address":"1483 BROADWAY AVE","name":""},
  {"lat":41.44014,"lon":-81.71807,"city":"CLEVELAND","state":"OH","address":"4702 MEMPHIS AVE","name":""},
  {"lat":39.78877,"lon":-79.77098,"city":"SMITHFIELD","state":"PA","address":"1340 GEORGES FAIRCHANCE RD","name":""},
  {"lat":39.94108,"lon":-79.73152,"city":"UNIONTOWN","state":"PA","address":"1156 PITTSBURGH RD","name":""},
  {"lat":39.14125,"lon":-84.6132,"city":"CINCINNATI","state":"OH","address":"3290 WERK RD","name":""},
  {"lat":35.25502,"lon":-77.6017,"city":"KINSTON","state":"NC","address":"1101 WEST NEW BERN ROAD","name":""},
  {"lat":33.2447,"lon":-81.37423,"city":"BARNWELL","state":"SC","address":"10354 DUNBARTON BLVD","name":""},
  {"lat":33.32622,"lon":-81.13184,"city":"DENMARK","state":"SC","address":"18076 HERITAGE HWY","name":""},
  {"lat":33.456881,"lon":-82.008049,"city":"AUGUSTA","state":"GA","address":"1649 OLIVE RD","name":""},
  {"lat":41.661811,"lon":-83.66799,"city":"TOLEDO","state":"OH","address":"5303 W BANCROFT ST","name":""},
  {"lat":42.752878,"lon":-84.74537,"city":"GRAND LEDGE","state":"MI","address":"115 E JEFFERSON ST","name":""},
  {"lat":42.317681,"lon":-83.11023,"city":"DETROIT","state":"MI","address":"2200 LIVERNOIS AVE","name":""},
  {"lat":35.11777,"lon":-90.00241,"city":"MEMPHIS","state":"TN","address":"1796 LAMAR AVE","name":""},
  {"lat":32.608483,"lon":-83.270076,"city":"DANVILLE","state":"GA","address":"20980 HWY 80","name":""},
  {"lat":29.96411,"lon":-95.46398,"city":"HOUSTON","state":"TX","address":"2833 SPEARS RD","name":""},
  {"lat":40.02767,"lon":-81.56757,"city":"CAMBRIDGE","state":"OH","address":"2180 E WHEELING AVE","name":""},
  {"lat":43.941669,"lon":-83.27246,"city":"CASEVILLE","state":"MI","address":"6631 MAIN ST","name":""},
  {"lat":39.29214,"lon":-83.99185,"city":"BLANCHESTER","state":"OH","address":"310 W MAIN ST","name":""},
  {"lat":36.31661,"lon":-78.3787,"city":"HENDERSON","state":"NC","address":"1727 NC 39 HWY S","name":""},
  {"lat":38.10242,"lon":-85.86931,"city":"LOUISVILLE","state":"KY","address":"10501 DIXIE HWY","name":""},
  {"lat":35.558007,"lon":-77.335713,"city":"GREENVILLE","state":"NC","address":"4391 CHARLES BLVD","name":""},
  {"lat":33.528052,"lon":-85.100251,"city":"CARROLLTON","state":"GA","address":"2018 HAYS MILL RD","name":""},
  {"lat":33.764754,"lon":-86.40918,"city":"SPRINGVILLE","state":"AL","address":"98 JONES RD","name":""},
  {"lat":37.690224,"lon":-86.1249,"city":"CECILIA","state":"KY","address":"10765 HARDINSBURG RD","name":""},
  {"lat":40.07566,"lon":-75.12823,"city":"PHILADELPHIA","state":"PA","address":"5026 WYNNEFIELD AVE","name":""},
  {"lat":39.60296,"lon":-82.08752,"city":"CORNING","state":"OH","address":"105 11TH ST","name":""},
  {"lat":39.67257,"lon":-82.02777,"city":"MALTA","state":"OH","address":"10840 STATE ROUTE 37","name":""},
  {"lat":38.71331,"lon":-76.65806,"city":"DUNKIRK","state":"MD","address":"9880 SOUTHERN MARYLAND BLVD","name":""},
  {"lat":39.97307,"lon":-75.32142,"city":"HAVERTOWN","state":"PA","address":"1320 W CHESTER PIKE","name":""},
  {"lat":38.03037,"lon":-85.34267,"city":"TAYLORSVILLE","state":"KY","address":"100 JEFFERSON ST","name":""},
  {"lat":39.69418,"lon":-76.10264,"city":"COLORA","state":"MD","address":"1897 CONOWINGO RD","name":""},
  {"lat":32.717,"lon":-97.4532,"city":"BENBROOK","state":"TX","address":"8000 CHAPIN RD","name":""},
  {"lat":39.738748,"lon":-85.5719,"city":"CARTHAGE","state":"IN","address":"12 N MAIN ST","name":""},
  {"lat":42.88116,"lon":-84.44942,"city":"LAINGSBURG","state":"MI","address":"5748 ROUND LAKE RD","name":""},
  {"lat":43.040992,"lon":-72.79013,"city":"WARDSBORO","state":"VT","address":"23 MAIN ST","name":""},
  {"lat":34.1916,"lon":-88.72017,"city":"TUPELO","state":"MS","address":"5059 RAYMOND AVE","name":""},
  {"lat":43.210799,"lon":-83.45844,"city":"OTTER LAKE","state":"MI","address":"5909 LAKE RD","name":""},
  {"lat":41.473401,"lon":-81.699683,"city":"CLEVELAND","state":"OH","address":"2850 WEST 25TH ST","name":""},
  {"lat":44.493979,"lon":-73.186379,"city":"WINOOSKI","state":"VT","address":"155 MAIN ST","name":""},
  {"lat":35.15875,"lon":-89.71,"city":"CORDOVA","state":"TN","address":"10581 MACON RD","name":""},
  {"lat":33.226226,"lon":-88.266661,"city":"CARROLLTON","state":"AL","address":"16801 ALABAMA 14","name":""},
  {"lat":39.92548,"lon":-75.22148,"city":"PHILADELPHIA","state":"PA","address":"5945 LINDBERGH BLVD","name":""},
  {"lat":40.19622,"lon":-74.86594,"city":"YARDLEY","state":"PA","address":"61 OXFORD VALLEY RD","name":""},
  {"lat":33.50524,"lon":-112.05648,"city":"PHOENIX","state":"AZ","address":"4644 N 12TH ST","name":""},
  {"lat":34.99604,"lon":-88.89415,"city":"MIDDLETON","state":"TN","address":"225 TENNESSEE 125","name":""},
  {"lat":33.242818,"lon":-84.297702,"city":"GRIFFIN","state":"GA","address":"1601 W POPLAR ST","name":""},
  {"lat":34.448649,"lon":-97.516072,"city":"RATLIFF CITY","state":"OK","address":"10851 STATE HWY 7","name":""},
  {"lat":37.48896,"lon":-83.4767,"city":"JACKSON","state":"KY","address":"9719 KENTUCKY 30","name":""},
  {"lat":42.02719,"lon":-85.82511,"city":"MARCELLUS","state":"MI","address":"52990 MICHIGAN 40","name":""},
  {"lat":32.00228,"lon":-102.13665,"city":"MIDLAND","state":"TX","address":"4324 ANDREWS HWY","name":""},
  {"lat":31.84795,"lon":-102.378,"city":"ODESSA","state":"TX","address":"801 GOLDER AVE","name":""},
  {"lat":31.84137,"lon":-102.38978,"city":"ODESSA","state":"TX","address":"721 N COUNTY RD W","name":""},
  {"lat":32.25569,"lon":-101.46911,"city":"BIG SPRING","state":"TX","address":"300 OWENS ST","name":""},
  {"lat":31.848026,"lon":102.403163,"city":"ODESSA","state":"TX","address":"1523 HARLESS AVE","name":""},
  {"lat":31.987472,"lon":-102.132784,"city":"MIDLAND","state":"TX","address":"4401 W ILLINOIS AVE","name":""},
  {"lat":31.85278,"lon":-102.35806,"city":"ODESSA","state":"TX","address":"317 N DIXIE BLVD","name":""},
  {"lat":31.89566,"lon":-102.27049,"city":"ODESSA","state":"TX","address":"13920 W HWY 80 E","name":""},
  {"lat":31.838994,"lon":-102.442941,"city":"ODESSA","state":"TX","address":"1509 N FM 1936","name":""},
  {"lat":31.86153,"lon":-102.34573,"city":"ODESSA","state":"TX","address":"800 N GRANDVIEW AVE","name":""},
  {"lat":31.86419,"lon":-102.38776,"city":"ODESSA","state":"TX","address":"2455 KERMIT HIGHWAY","name":""},
  {"lat":40.0519,"lon":-77.9611,"city":"FORT LITTLETON","state":"PA","address":"29459 GREAT COVE RD","name":""},
  {"lat":40.18561,"lon":-77.86584,"city":"SHADE GAP","state":"PA","address":"11622 BANK ST","name":""},
  {"lat":40.68948,"lon":-76.25715,"city":"MINERSVILLE","state":"PA","address":"43 S DELAWARE AVE","name":""},
  {"lat":41.81185,"lon":-86.22469,"city":"NILES","state":"MI","address":"33974 U.S. 12","name":""},
  {"lat":34.87173,"lon":-89.68567,"city":"BYHALIA","state":"MS","address":"8039 HIGHWAY 178","name":""},
  {"lat":36.12176,"lon":-89.25982,"city":"NEWBERN","state":"TN","address":"302 E HIGHWAY 77","name":""},
  {"lat":35.14964,"lon":-89.94071,"city":"MEMPHIS","state":"TN","address":"3608 SUMMER AVE","name":""},
  {"lat":35.27987,"lon":-83.287,"city":"SYLVA","state":"NC","address":"8227 US HIGHWAY 441 S","name":""},
  {"lat":32.34988,"lon":-90.87825,"city":"VICKSBURG","state":"MS","address":"1217 CHERRY ST","name":""},
  {"lat":35.70475,"lon":-89.97019,"city":"OSCEOLA","state":"AR","address":"229 N WALNUT ST","name":""},
  {"lat":34.84413,"lon":-89.61688,"city":"BYHALIA","state":"MS","address":"59 VICTORIA RD","name":""},
  {"lat":40.32994,"lon":-79.73229,"city":"IRWIN","state":"PA","address":"11339 CENTER HWY","name":""},
  {"lat":34.69955,"lon":-89.81301,"city":"COLDWATER","state":"MS","address":"9670 HIGHWAY 306","name":""},
  {"lat":28.044024,"lon":-81.891129,"city":"LAKELAND","state":"FL","address":"3405 E COUNTY ROAD 542","name":""},
  {"lat":43.315495,"lon":-73.653686,"city":"QUEENSBURY","state":"NY","address":"474 AVIATION RD","name":""},
  {"lat":38.949553,"lon":-122.631113,"city":"CLEARLAKE","state":"CA","address":"15105 LAKESHORE DR","name":""},
  {"lat":43.06108,"lon":-77.47544,"city":"PITTSFORD","state":"NY","address":"690 PITTSFORD VICTOR RD","name":""},
  {"lat":40.83565,"lon":-80.53948,"city":"EAST PALESTINE","state":"OH","address":"212 N MARKET ST","name":""},
  {"lat":37.95618,"lon":-83.7279,"city":"FRENCHBURG","state":"KY","address":"6033 US HIGHWAY 460 W","name":""},
  {"lat":30.769287,"lon":-85.204776,"city":"MARIANNA","state":"FL","address":"4678 HIGHWAY 90","name":""},
  {"lat":32.691921,"lon":-97.132205,"city":"ARLINGTON","state":"TX","address":"1506 W MAYFIELD RD","name":""},
  {"lat":31.879312,"lon":-102.331472,"city":"ODESSA","state":"TX","address":"4525 E UNIVERSITY BLVD","name":""},
  {"lat":32.771928,"lon":-97.352603,"city":"FORT WORTH","state":"TX","address":"810 W NORTHSIDE DR","name":""},
  {"lat":29.71677,"lon":-95.48913,"city":"HOUSTON","state":"TX","address":"6116 GULFTON ST","name":""},
  {"lat":41.4096,"lon":-81.52825,"city":"BEDFORD","state":"OH","address":"400 NORTHFIELD RD","name":""},
  {"lat":42.415227,"lon":-83.24149,"city":"DETROIT","state":"MI","address":"20300 W MCNICHOLS RD","name":""},
  {"lat":38.703636,"lon":-83.08755,"city":"WEST PORTSMOUTH","state":"OH","address":"13352 US HIGHWAY 52","name":""},
  {"lat":41.41617,"lon":-81.56578,"city":"MAPLE HEIGHTS","state":"OH","address":"5321 LEE RD","name":""},
  {"lat":39.86996,"lon":-74.84438,"city":"MEDFORD","state":"NJ","address":"103 TAUNTON RD","name":""},
  {"lat":41.45953,"lon":-81.73852,"city":"CLEVELAND","state":"OH","address":"3580 RIDGE RD","name":""},
  {"lat":41.4698,"lon":-81.72194,"city":"CLEVELAND","state":"OH","address":"5110 CLARK AVE","name":""},
  {"lat":41.42873,"lon":-81.77988,"city":"CLEVELAND","state":"OH","address":"4611 W 130TH ST","name":""},
  {"lat":28.027315,"lon":-97.07757,"city":"ROCKPORT","state":"TX","address":"1405 W MARKET ST","name":""},
  {"lat":42.667964,"lon":-84.28165,"city":"WILLIAMSTON","state":"MI","address":"2810 N WILLIAMSTON RD","name":""},
  {"lat":37.62779,"lon":-84.77512,"city":"DANVILLE","state":"KY","address":"1003 HUSTONVILLE RD","name":""},
  {"lat":30.538205,"lon":-95.842024,"city":"RICHARDS","state":"TX","address":"11035 FM 149","name":""},
  {"lat":41.143471,"lon":-87.046013,"city":"WHEATFIELD","state":"IN","address":"8956 N STATE ROAD 49","name":""},
  {"lat":37.983591,"lon":-83.10664,"city":"WEST LIBERTY","state":"KY","address":"13042 HIGHWAY 172","name":""},
  {"lat":37.48649,"lon":-84.0922,"city":"MC KEE","state":"KY","address":"57 HIGHWAY 2004","name":""},
  {"lat":34.2455,"lon":-89.0167,"city":"PONTOTOC","state":"MS","address":"152 HIGHWAY 15 S","name":""},
  {"lat":41.621467,"lon":-72.873059,"city":"SOUTHINGTON","state":"CT","address":"181 QUEEN ST","name":""},
  {"lat":41.018673,"lon":-84.07231,"city":"OTTAWA","state":"OH","address":"10959 STATE RT 224","name":""},
  {"lat":31.87834,"lon":-102.401662,"city":"ODESSA","state":"TX","address":"4121 N COUNTY RD W","name":""},
  {"lat":35.57425,"lon":-88.81511,"city":"JACKSON","state":"TN","address":"1425 S HIGHLAND AVE","name":""},
  {"lat":38.599196,"lon":-83.67251,"city":"MAYSVILLE","state":"KY","address":"9519 MASON LEWIS RD","name":""},
  {"lat":42.358156,"lon":-83.18688,"city":"DETROIT","state":"MI","address":"14537 JOY RD","name":""},
  {"lat":40.92365,"lon":-72.70862,"city":"RIVERHEAD","state":"NY","address":"1879 OLD COUNTRY RD","name":""},
  {"lat":40.777361,"lon":-73.564998,"city":"JERICHO","state":"NY","address":"39 JERICHO TPKE","name":""},
  {"lat":40.450237,"lon":-80.044868,"city":"PITTSBURGH","state":"PA","address":"293 CORLISS ST","name":""},
  {"lat":37.738236,"lon":-86.25442,"city":"CUSTER","state":"KY","address":"6058 KENTUCKY 86","name":""},
  {"lat":41.469224,"lon":-75.610727,"city":"DICKSON CTY","state":"PA","address":"1511 MAIN ST","name":""},
  {"lat":35.2412,"lon":-89.84446,"city":"BARTLETT","state":"TN","address":"4230 ALTRURIA RD","name":""},
  {"lat":40.462048,"lon":-74.29601,"city":"SOUTH AMBOY","state":"NJ","address":"974 US HIGHWAY 9","name":""},
  {"lat":43.07974,"lon":-70.77154,"city":"PORTSMOUTH","state":"NH","address":"955 US RT 1 BY PASS","name":""},
  {"lat":42.892672,"lon":-71.327411,"city":"DERRY","state":"NH","address":"72 CRYSTAL AVE","name":""},
  {"lat":42.881832,"lon":-70.867853,"city":"SEABROOK","state":"NH","address":"265 LAFAYETTE ROAD","name":""},
  {"lat":42.81527,"lon":-70.87861,"city":"NEWBURYPORT","state":"MA","address":"1 KENT STREET","name":""},
  {"lat":42.538222,"lon":-82.98852,"city":"STERLING HEIGHTS","state":"MI","address":"13651 E 14 MILE RD","name":""},
  {"lat":42.373363,"lon":-83.1783,"city":"DETROIT","state":"MI","address":"11611 SCHAEFER HWY","name":""},
  {"lat":42.344005,"lon":-83.1302,"city":"DETROIT","state":"MI","address":"6011 LIVERNOIS AVE","name":""},
  {"lat":42.351727,"lon":-83.12895,"city":"DETROIT","state":"MI","address":"5815 TIREMAN ST","name":""},
  {"lat":42.359305,"lon":-83.13803,"city":"DETROIT","state":"MI","address":"8890 LIVERNOIS AVE","name":""},
  {"lat":41.910596,"lon":-83.4021,"city":"MONROE","state":"MI","address":"629 S MONROE ST","name":""},
  {"lat":42.416724,"lon":-83.18923,"city":"DETROIT","state":"MI","address":"14530 W MCNICHOLS RD","name":""},
  {"lat":32.771071,"lon":-96.599502,"city":"MESQUITE","state":"TX","address":"501 N GALLOWAY AVE","name":""},
  {"lat":30.36514,"lon":-103.63932,"city":"ALPINE","state":"TX","address":"2303 E HIGHWAY 90","name":""},
  {"lat":35.05386,"lon":-90.01908,"city":"MEMPHIS","state":"TN","address":"1341 WINCHESTER RD","name":""},
  {"lat":27.66918,"lon":-97.75109,"city":"DRISCOLL","state":"TX","address":"2204 HWY 77","name":""},
  {"lat":29.49476,"lon":-98.43069,"city":"SAN ANTONIO","state":"TX","address":"1540 AUSTIN HWY","name":""},
  {"lat":29.4364,"lon":-98.49683,"city":"SAN ANTONIO","state":"TX","address":"333 SAN PEDRO AVE","name":""},
  {"lat":29.51119,"lon":-98.30862,"city":"CONVERSE","state":"TX","address":"9145 FM 78","name":""},
  {"lat":30.51081,"lon":-94.98829,"city":"SHEPHERD","state":"TX","address":"4730 US?59","name":""},
  {"lat":30.32549,"lon":-82.96553,"city":"LIVE OAK","state":"FL","address":"6886 SUWANEE PLAZA LN","name":""},
  {"lat":34.55694,"lon":-92.81165,"city":"LONSDALE","state":"AR","address":"7209 E. GRAND AVE","name":""},
  {"lat":40.70098,"lon":-73.89076,"city":"GLENDALE","state":"NY","address":"6440 MYRTLE AVE","name":""},
  {"lat":43.871794,"lon":-84.32567,"city":"BEAVERTON","state":"MI","address":"1057 ESTEY RD","name":""},
  {"lat":37.52204,"lon":-77.30894,"city":"SANDSTON","state":"VA","address":"200 E WILLIAMSBURG RD","name":""},
  {"lat":32.815386,"lon":-97.432456,"city":"FORT WORTH","state":"TX","address":"6597 AZLE AVE","name":""},
  {"lat":32.333339,"lon":-81.809624,"city":"STATESBORO","state":"GA","address":"6862 SINKHOLE RD","name":""},
  {"lat":29.99126,"lon":-92.22728,"city":"KAPLAN","state":"LA","address":"15107 VETERANS MEMORIAL DR","name":""},
  {"lat":41.319907,"lon":-75.84615,"city":"WYOMING","state":"PA","address":"805 SHOEMAKER AVE","name":""},
  {"lat":32.37598,"lon":-93.76332,"city":"SHREVEPORT","state":"LA","address":"10277 LINWOOD AVE","name":""},
  {"lat":30.572291,"lon":-84.39539,"city":"HAVANA","state":"FL","address":"1437 FLORIDA GEORGIA HW","name":""},
  {"lat":40.787935,"lon":-74.454931,"city":"MORRISTOWN","state":"NJ","address":"196 MADISON AVE","name":""},
  {"lat":35.00831,"lon":-90.79535,"city":"FORREST CITY","state":"AR","address":"512 W BROADWAY ST","name":""},
  {"lat":41.399113,"lon":-73.431523,"city":"DANBURY","state":"CT","address":"300 WHITE ST","name":""},
  {"lat":42.433526,"lon":-83.053,"city":"DETROIT","state":"MI","address":"5041 E 7 MILE RD","name":""},
  {"lat":28.042448,"lon":-81.968685,"city":"LAKELAND","state":"FL","address":"117 LAKE BEULAH DR","name":""},
  {"lat":35.4882,"lon":-88.71745,"city":"PINSON","state":"TN","address":"4078 US HIGHWAY 45 S","name":""},
  {"lat":40.805745,"lon":-75.600489,"city":"PALMERTON","state":"PA","address":"643 DELAWARE AVE","name":""},
  {"lat":41.440704,"lon":-75.660171,"city":"SCRANTON","state":"PA","address":"337 W MARKET ST","name":""},
  {"lat":41.468944,"lon":-75.611331,"city":"DICKSON CTY","state":"PA","address":"1417 MAIN ST","name":""},
  {"lat":41.411541,"lon":-75.662382,"city":"SCRANTON","state":"PA","address":"401 WYOMING AVE","name":""},
  {"lat":41.265201,"lon":-75.893862,"city":"KINGSTON","state":"PA","address":"366 WYOMING AVE","name":""},
  {"lat":41.472353,"lon":-75.679091,"city":"SOUTH ABINGTON TOWNSHIP","state":"PA","address":"330 NORTHERN BLVD","name":""},
  {"lat":41.303882,"lon":-75.804196,"city":"PITTSTON","state":"PA","address":"610 S MAIN ST","name":""},
  {"lat":41.426179,"lon":-75.635483,"city":"SCRANTON","state":"PA","address":"438 W DRINKER ST","name":""},
  {"lat":43.473783,"lon":-70.526666,"city":"ARUNDEL","state":"ME","address":"661 ALFRED RD","name":""},
  {"lat":34.40962,"lon":-89.01554,"city":"NEW ALBANY","state":"MS","address":"1035 MISSISSIPPI 15","name":""},
  {"lat":42.411283,"lon":-83.00536,"city":"DETROIT","state":"MI","address":"11846 CONNER ST","name":""},
  {"lat":37.54961,"lon":-83.7222,"city":"BEATTYVILLE","state":"KY","address":"1924 KENTUCKY 11","name":""},
  {"lat":39.28489,"lon":-76.74293,"city":"CATONSVILLE","state":"MD","address":"5931 BALTIMORE NATIONAL PIKE","name":""},
  {"lat":42.60257,"lon":-82.87471,"city":"MOUNT CLEMENS","state":"MI","address":"186 N GRATIOT AVE","name":""},
  {"lat":39.955012,"lon":-83.070828,"city":"COLUMBUS","state":"OH","address":"2635 W BROAD ST","name":""},
  {"lat":34.576706,"lon":-86.99052,"city":"DECATUR","state":"AL","address":"127 AUSTINVILLE RD SW","name":""},
  {"lat":35.13824,"lon":-76.75742,"city":"BAYBORO","state":"NC","address":"15818 NORTH CAROLINA 55","name":""},
  {"lat":30.98188,"lon":-91.81076,"city":"SIMMESPORT","state":"LA","address":"16675 LA-1","name":""},
  {"lat":34.26734,"lon":-88.55799,"city":"MOOREVILLE","state":"MS","address":"3836 MISSISSIPPI 178","name":""},
  {"lat":42.925061,"lon":-83.98936,"city":"DURAND","state":"MI","address":"8982 E LANSING RD","name":""},
  {"lat":42.822971,"lon":-83.94403,"city":"BYRON","state":"MI","address":"135 S SAGINAW ST","name":""},
  {"lat":43.001416,"lon":-84.56826,"city":"SAINT JOHNS","state":"MI","address":"709 W STATE ST","name":""},
  {"lat":42.906491,"lon":-84.22179,"city":"OWOSSO","state":"MI","address":"6015 N STATE RD # 52","name":""},
  {"lat":43.0012,"lon":-84.38665,"city":"OVID","state":"MI","address":"8998 E STATE ROUTE 21","name":""},
  {"lat":34.562411,"lon":-87.15912,"city":"TRINITY","state":"AL","address":"6096 COUNTY ROAD 434","name":""},
  {"lat":40.831007,"lon":-83.28089,"city":"UPPER SANDUSKY","state":"OH","address":"325 N SANDUSKY AVE","name":""},
  {"lat":38.13869,"lon":-80.2084,"city":"HILLSBORO","state":"WV","address":"7797 SENECA TRL","name":""},
  {"lat":28.000168,"lon":-82.309823,"city":"SEFFNER","state":"FL","address":"11305 E US HIGHWAY 92","name":""},
  {"lat":37.947737,"lon":-87.49828,"city":"EVANSVILLE","state":"IN","address":"4301 POLLACK AVE","name":""},
  {"lat":35.14774,"lon":-89.96161,"city":"MEMPHIS","state":"TN","address":"2980 BROAD AVE","name":""},
  {"lat":33.9006,"lon":-80.35402,"city":"SUMTER","state":"SC","address":"706 S GUIGNARD DR","name":""},
  {"lat":42.203096,"lon":-83.55937,"city":"YPSILANTI","state":"MI","address":"10131 TEXTILE RD","name":""},
  {"lat":41.062121,"lon":-73.814984,"city":"ELMSFORD","state":"NY","address":"215 SAW MILL RIVER RD","name":""},
  {"lat":28.82285,"lon":-81.69139,"city":"EUSTIS","state":"FL","address":"16014 U.S. 441","name":""},
  {"lat":28.8736,"lon":-81.68707,"city":"EUSTIS","state":"FL","address":"1905 FLORIDA 19","name":""},
  {"lat":28.36847,"lon":-81.68359,"city":"CLERMONT","state":"FL","address":"1525 U.S. 27","name":""},
  {"lat":39.492079,"lon":-75.04235,"city":"VINELAND","state":"NJ","address":"345 N DELSEA DR","name":""},
  {"lat":41.492975,"lon":-78.679259,"city":"JOHNSONBURG","state":"PA","address":"135 W CENTER ST","name":""},
  {"lat":39.79268,"lon":-86.117042,"city":"INDIANAPOLIS","state":"IN","address":"1856 N RURAL ST","name":""},
  {"lat":38.355002,"lon":-87.56416,"city":"PRINCETON","state":"IN","address":"315 E BROADWAY ST","name":""},
  {"lat":34.949654,"lon":-81.341215,"city":"SHARON","state":"SC","address":"3600 YORK ST","name":""},
  {"lat":35.11155,"lon":-92.43879,"city":"CONWAY","state":"AR","address":"1030 U.S. 65","name":""},
  {"lat":29.89659,"lon":-90.13936,"city":"WESTWEGO","state":"LA","address":"1200 WESTBANK EXPY","name":""},
  {"lat":29.92421,"lon":-90.01853,"city":"NEW ORLEANS","state":"LA","address":"3622 GENERAL DEGAULLE DR","name":""},
  {"lat":30.48477,"lon":-91.08329,"city":"BATON ROUGE","state":"LA","address":"9410 GREENWELL SPRINGS RD","name":""},
  {"lat":29.91672,"lon":-90.00707,"city":"NEW ORLEANS","state":"LA","address":"4662 GENERAL DEGAULLE DR","name":""},
  {"lat":29.9452,"lon":-90.03706,"city":"NEW ORLEANS","state":"LA","address":"1926 NEWTON ST","name":""},
  {"lat":29.90758,"lon":-90.16012,"city":"WESTWEGO","state":"LA","address":"9000 WESTBANK EXPY","name":""},
  {"lat":32.528229,"lon":-92.14784,"city":"WEST MONROE","state":"LA","address":"700 ARKANSAS RD","name":""},
  {"lat":29.95669,"lon":-90.10416,"city":"NEW ORLEANS","state":"LA","address":"1308 S NORMAN C FRANCIS PKWY","name":""},
  {"lat":30.02783,"lon":-89.99181,"city":"NEW ORLEANS","state":"LA","address":"2601 GENERAL DEGAULLE DR","name":""},
  {"lat":30.83762,"lon":-91.21712,"city":"JACKSON","state":"LA","address":"1511 CHARTER ST","name":""},
  {"lat":29.94905,"lon":-90.23224,"city":"WESTWEGO","state":"LA","address":"8692 RIVER RD","name":""},
  {"lat":30.00711,"lon":-91.81486,"city":"NEW IBERIA","state":"LA","address":"100 MARIE ST","name":""},
  {"lat":29.76088,"lon":-90.10032,"city":"LAFITTE","state":"LA","address":"798 JEAN LAFITTE BLVD","name":""},
  {"lat":29.88045,"lon":-90.03078,"city":"GRETNA","state":"LA","address":"468 LAPALCO BLVD","name":""},
  {"lat":29.9628,"lon":-90.15841,"city":"NEW ORLEANS","state":"LA","address":"3220 JEFFERSON HWY","name":""},
  {"lat":29.85977,"lon":-90.04642,"city":"HARVEY","state":"LA","address":"3441 MANHATTAN BLVD","name":""},
  {"lat":29.90833,"lon":-90.03031,"city":"TERRYTOWN","state":"LA","address":"502 TERRY PKWY","name":""},
  {"lat":29.92016,"lon":-90.03398,"city":"TERRYTOWN","state":"LA","address":"123 TERRY PKWY","name":""},
  {"lat":32.83304,"lon":-91.87841,"city":"BASTROP","state":"LA","address":"11765 CROSSETT RD","name":""},
  {"lat":30.00995,"lon":-90.26685,"city":"KENNER","state":"LA","address":"3049 LOYOLA DR","name":""},
  {"lat":32.53921,"lon":-92.61817,"city":"RUSTON","state":"LA","address":"1601 FARMERVILLE HWY","name":""},
  {"lat":29.97558,"lon":-90.17294,"city":"METAIRIE","state":"LA","address":"4115 AIRLINE DR","name":""},
  {"lat":30.28424,"lon":-89.75237,"city":"SLIDELL","state":"LA","address":"1675 GAUSE BLVD","name":""},
  {"lat":30.86557,"lon":-91.01583,"city":"CLINTON","state":"LA","address":"12425 SAINT HELENA ST","name":""},
  {"lat":30.58669,"lon":-91.14697,"city":"BAKER","state":"LA","address":"4940 GROOM RD","name":""},
  {"lat":36.497547,"lon":-86.88198,"city":"SPRINGFIELD","state":"TN","address":"1609 MEMORIAL BLVD","name":""},
  {"lat":43.062287,"lon":-83.86209,"city":"FLUSHING","state":"MI","address":"441 W MAIN ST","name":""},
  {"lat":42.999694,"lon":-83.98708,"city":"CORUNNA","state":"MI","address":"8995 E M 21","name":""},
  {"lat":42.997836,"lon":-84.19848,"city":"OWOSSO","state":"MI","address":"1740 W M 21","name":""},
  {"lat":41.35097,"lon":-81.85788,"city":"BEREA","state":"OH","address":"640 PROSPECT ST","name":""},
  {"lat":35.22105,"lon":-89.92885,"city":"MEMPHIS","state":"TN","address":"3491 RALEIGH MILLINGTON RD","name":""},
  {"lat":35.08333,"lon":-89.95955,"city":"MEMPHIS","state":"TN","address":"3095 LAMAR AVENUE","name":""},
  {"lat":35.08606,"lon":-90.04419,"city":"MEMPHIS","state":"TN","address":"563 EAST MALLORY AVENUE","name":""},
  {"lat":40.17423,"lon":-74.98663,"city":"SOUTHAMPTON","state":"PA","address":"287 HOLLAND RD","name":""},
  {"lat":35.16965,"lon":-90.02145,"city":"MEMPHIS","state":"TN","address":"1050 CHELSEA AVE","name":""},
  {"lat":35.61756,"lon":-88.80837,"city":"JACKSON","state":"TN","address":"405 N HAYS AVE","name":""},
  {"lat":35.83301,"lon":-88.89842,"city":"HUMBOLDT","state":"TN","address":"2990 EASTEND DR","name":""},
  {"lat":41.478518,"lon":-74.913798,"city":"BARRYVILLE","state":"NY","address":"3392 STATE ROUTE 97","name":""},
  {"lat":43.117991,"lon":-83.85104,"city":"FLUSHING","state":"MI","address":"8464 W MOUNT MORRIS RD","name":""},
  {"lat":31.2972,"lon":-93.53808,"city":"FLORIEN","state":"LA","address":"8301 HIGHWAY 473","name":""},
  {"lat":34.51027,"lon":-89.94076,"city":"COMO","state":"MS","address":"101 OAK ST","name":""},
  {"lat":41.04173,"lon":-75.12928,"city":"EAST STROUDSBURG","state":"PA","address":"2583 MILFORD RD","name":""},
  {"lat":29.97181,"lon":-96.49845,"city":"INDUSTRY","state":"TX","address":"16693 FORDTRAN BLVD","name":""},
  {"lat":35.6484,"lon":-88.80191,"city":"JACKSON","state":"TN","address":"1586 N PARKWAY","name":""},
  {"lat":31.54338,"lon":-97.15309,"city":"WACO","state":"TX","address":"2429 W WACO DR","name":""},
  {"lat":30.585296,"lon":-98.28668,"city":"MARBLE FALLS","state":"TX","address":"2101 RM 1431","name":""},
  {"lat":35.10777,"lon":-89.97013,"city":"MEMPHIS","state":"TN","address":"2771 PARK AVE","name":""},
  {"lat":31.2972,"lon":-93.53808,"city":"BLOSSOM","state":"TX","address":"1235 W FRONT ST","name":""},
  {"lat":31.1154,"lon":-97.90452,"city":"COPPERAS COVE","state":"TX","address":"102 W BUSINESS 190","name":""},
  {"lat":31.0565,"lon":-98.17834,"city":"LAMPASAS","state":"TX","address":"1401 S KEY AVE","name":""},
  {"lat":42.606865,"lon":-82.897779,"city":"MOUNT CLEMENS","state":"MI","address":"173 N GROESBECK HWY","name":""},
  {"lat":29.74366,"lon":-95.32828,"city":"HOUSTON","state":"TX","address":"315 LOCKWOOD DR","name":""},
  {"lat":31.5296,"lon":-97.16886,"city":"WACO","state":"TX","address":"4200 W WACO DR","name":""},
  {"lat":36.202591,"lon":-84.031164,"city":"ANDERSONVILLE","state":"TN","address":"111 PARK LN","name":""},
  {"lat":38.189911,"lon":-83.47694,"city":"MOREHEAD","state":"KY","address":"1694 FLEMINGSBURG RD","name":""},
  {"lat":40.349985,"lon":-76.43095,"city":"LEBANON","state":"PA","address":"1041 MAPLE ST","name":""},
  {"lat":34.27665,"lon":-86.92951,"city":"FALKVILLE","state":"AL","address":"4707 COUNTY ROAD 1223","name":""},
  {"lat":34.250609,"lon":-86.88593,"city":"CULLMAN","state":"AL","address":"11 COUNTY ROAD 1291","name":""},
  {"lat":35.2169,"lon":-89.98588,"city":"MEMPHIS","state":"TN","address":"2331 FRAYSER BLVD","name":""},
  {"lat":38.21614,"lon":-84.53221,"city":"GEORGETOWN","state":"KY","address":"2003 PARIS PIKE","name":""},
  {"lat":40.82014,"lon":-84.9371,"city":"DECATUR","state":"IN","address":"927 S 13TH ST","name":""},
  {"lat":26.370783,"lon":-97.969716,"city":"EDCOUCH","state":"TX","address":"25003 FM 88","name":""},
  {"lat":38.10583,"lon":-122.21947,"city":"VALLEJO","state":"CA","address":"1921 SPRINGS RD","name":""},
  {"lat":40.89586,"lon":-75.50436,"city":"KRESGEVILLE","state":"PA","address":"458 INTERCHANGE ROAD","name":""},
  {"lat":43.00259,"lon":-77.6672,"city":"RUSH","state":"NY","address":"7283 W HENRIETTA RD","name":""},
  {"lat":34.19094,"lon":-90.5755,"city":"CLARKSDALE","state":"MS","address":"435 S STATE ST","name":""},
  {"lat":40.442121,"lon":-79.2358,"city":"BLAIRSVILLE","state":"PA","address":"951 U.S. 22","name":""},
  {"lat":35.65024,"lon":-88.13258,"city":"PARSONS","state":"TN","address":"326 W MAIN ST","name":""},
  {"lat":29.65616,"lon":-95.35517,"city":"HOUSTON","state":"TX","address":"9323 CULLEN BLVD","name":""},
  {"lat":35.06215,"lon":-89.88442,"city":"MEMPHIS","state":"TN","address":"5372 KNIGHT ARNOLD RD","name":""},
  {"lat":32.475184,"lon":-83.704645,"city":"PERRY","state":"GA","address":"1818 HOUSTON LAKE RD","name":""},
  {"lat":29.197757,"lon":-98.58554,"city":"VON ORMY","state":"TX","address":"21887 TEXAS 16","name":""},
  {"lat":40.397983,"lon":-79.901629,"city":"MUNHALL","state":"PA","address":"122 EAST 22ND AVENUE","name":""},
  {"lat":41.02718,"lon":-78.44025,"city":"CLEARFIELD","state":"PA","address":"104 NICHOLS ST","name":""},
  {"lat":41.809015,"lon":-83.454622,"city":"ERIE","state":"MI","address":"3949 LUNA PIER","name":""},
  {"lat":41.03827,"lon":-75.31499,"city":"TANNERSVILLE","state":"PA","address":"2558 PENNSYLVANIA 715","name":""},
  {"lat":38.64823,"lon":-121.33017,"city":"CARMICHAEL","state":"CA","address":"5740 WINDING WAY","name":""},
  {"lat":31.75661,"lon":-96.65016,"city":"COOLIDGE","state":"TX","address":"110 TEXAS 171","name":""},
  {"lat":41.363372,"lon":-86.312887,"city":"PLYMOUTH","state":"IN","address":"2405 N MICHIGAN ST","name":""},
  {"lat":31.922265,"lon":-92.622268,"city":"WINNFIELD","state":"LA","address":"7348 U.S. 167","name":""},
  {"lat":29.88634,"lon":-81.29125,"city":"ST. AUGUSTINE","state":"FL","address":"855 ANASTASIA BOULEVARD","name":""},
  {"lat":29.43798,"lon":-97.18034,"city":"SHINER","state":"TX","address":"1701 N AVENUE E","name":""},
  {"lat":33.539793,"lon":-89.124626,"city":"MATHISTON","state":"MS","address":"18390 U S HIGHWAY 82","name":""},
  {"lat":28.553628,"lon":-81.345183,"city":"ORLANDO","state":"FL","address":"3025 E COLONIAL DR","name":""},
  {"lat":39.766919,"lon":-81.119136,"city":"WOODSFIELD","state":"OH","address":"224 OAKLAWN AVE","name":""},
  {"lat":37.63276,"lon":-77.53991,"city":"HENRICO","state":"VA","address":"8430 W BROAD ST","name":""},
  {"lat":38.358565,"lon":-75.5889,"city":"SALISBURY","state":"MD","address":"444 SNOW HILL RD","name":""},
  {"lat":34.899876,"lon":-76.929311,"city":"HAVELOCK","state":"NC","address":"101 KETNER BLVD","name":""},
  {"lat":45.636448,"lon":-84.631378,"city":"CHEBOYGAN","state":"MI","address":"7045 LEVERING RD","name":""},
  {"lat":42.27585,"lon":-73.95846,"city":"SOUTH CAIRO","state":"NY","address":"24 ROSS RULAND RD","name":""},
  {"lat":39.522746,"lon":-82.456216,"city":"LOGAN","state":"OH","address":"14216 STATE ROUTE 664 S","name":""},
  {"lat":42.684809,"lon":-84.64288,"city":"LANSING","state":"MI","address":"4930 S CREYTS RD","name":""},
  {"lat":35.393248,"lon":-77.996672,"city":"GOLDSBORO","state":"NC","address":"301 W GRANTHAM ST","name":""},
  {"lat":34.89869,"lon":-89.74197,"city":"BYHALIA","state":"MS","address":"2685 RED BANKS RD N","name":""},
  {"lat":34.44504,"lon":-92.88829,"city":"MALVERN","state":"AR","address":"2364 HIGHWAY 270","name":""},
  {"lat":30.24794,"lon":-81.76487,"city":"JACKSONVILLE","state":"FL","address":"7206 103RD ST","name":""},
  {"lat":35.05169,"lon":-89.91032,"city":"MEMPHIS","state":"TN","address":"4580 WINCHESTER RD","name":""},
  {"lat":35.2449,"lon":-81.76374,"city":"WAYNESBORO","state":"TN","address":"1616 COLLINWOOD HWY","name":""},
  {"lat":30.44494,"lon":-92.97626,"city":"KINDER","state":"LA","address":"5022 HIGHWAY 383","name":""},
  {"lat":40.112687,"lon":-74.77012,"city":"ROEBLING","state":"NJ","address":"2141 US HIGHWAY 130","name":""},
  {"lat":40.877997,"lon":-80.753335,"city":"LEETONIA","state":"OH","address":"311 COLUMBIA ST","name":""},
  {"lat":35.65022,"lon":-88.13256,"city":"POTTS CAMP","state":"MS","address":"6769 CHURCH AVE","name":""},
  {"lat":40.396682,"lon":-80.085467,"city":"CARNEGIE","state":"PA","address":"1200 WASHINGTON AVE","name":""},
  {"lat":42.90621,"lon":-77.75734,"city":"AVON","state":"NY","address":"337 WADSWORTH AVE","name":""},
  {"lat":33.8806,"lon":-84.58014,"city":"MARIETTA","state":"GA","address":"910 MILFORD CHURCH RD SW","name":""},
  {"lat":40.428118,"lon":-83.295875,"city":"RICHWOOD","state":"OH","address":"25 E BLAGROVE ST","name":""},
  {"lat":40.075098,"lon":-83.563156,"city":"MECHANICSBURG","state":"OH","address":"285 W MAIN ST","name":""},
  {"lat":30.2421,"lon":-93.38044,"city":"SULPHUR","state":"LA","address":"444 W BURTON ST","name":""},
  {"lat":37.739915,"lon":-81.231699,"city":"CRAB ORCHARD","state":"WV","address":"1362 ROBERT C BYRD DR","name":""},
  {"lat":41.886148,"lon":-73.975389,"city":"ULSTER PARK","state":"NY","address":"443 BROADWAY","name":""},
  {"lat":32.553841,"lon":-83.66739,"city":"WARNER ROBINS","state":"GA","address":"860 GA HIGHWAY 96","name":""},
  {"lat":26.403509,"lon":-99.013098,"city":"ROMA","state":"TX","address":"73 E GRANT ST","name":""},
  {"lat":32.52238,"lon":-92.08168,"city":"MONROE","state":"LA","address":"3201 DESIARD ST","name":""},
  {"lat":34.88201,"lon":-82.70293,"city":"PICKENS","state":"SC","address":"302 HAMPTON AVE","name":""},
  {"lat":29.55397,"lon":-95.5549,"city":"MISSOURI CITY","state":"TX","address":"7118 HIGHWAY 6","name":""},
  {"lat":33.68494,"lon":-78.89187,"city":"MYRTLE BEACH","state":"SC","address":"501 3RD AVE S","name":""},
  {"lat":35.476052,"lon":-81.241197,"city":"LINCOLNTON","state":"NC","address":"1210 E. MAIN ST","name":""},
  {"lat":37.955183,"lon":-87.52084,"city":"EVANSVILLE","state":"IN","address":"2345 COVERT AVE","name":""},
  {"lat":36.79585,"lon":-76.33495,"city":"PORTSMOUTH","state":"VA","address":"2599 VICTORY BLVD","name":""},
  {"lat":40.35105,"lon":-79.28247,"city":"DERRY","state":"PA","address":"1336 ROUTE 217","name":""},
  {"lat":42.005433,"lon":-83.958426,"city":"TECUMSEH","state":"MI","address":"805 W CHICAGO BLVD","name":""},
  {"lat":41.952512,"lon":-83.642147,"city":"DUNDEE","state":"MI","address":"549 E MONROE ST","name":""},
  {"lat":30.43168,"lon":-91.04402,"city":"BATON ROUGE","state":"LA","address":"12532 S HARRELLS FERRY RD","name":""},
  {"lat":42.72526,"lon":-73.8425,"city":"COLONIE","state":"NY","address":"1728 CENTRAL AVE","name":""},
  {"lat":41.265534,"lon":-80.802031,"city":"WARREN","state":"OH","address":"2851 LARCHMONT AVE NE","name":""},
  {"lat":40.45742,"lon":-74.24694,"city":"LAURENCE HARBOR","state":"NJ","address":"299 ROUTE 35","name":""},
  {"lat":39.796009,"lon":-86.064666,"city":"INDIANAPOLIS","state":"IN","address":"2070 N ARLINGTON AVE","name":""},
  {"lat":41.981259,"lon":-84.667387,"city":"JONESVILLE","state":"MI","address":"201 W CHICAGO ST","name":""},
  {"lat":29.952002,"lon":-82.111064,"city":"STARKE","state":"FL","address":"401 W BROWNLEE ST","name":""},
  {"lat":39.913565,"lon":-75.436536,"city":"MEDIA","state":"PA","address":"1157 W BALTIMORE PIKE","name":""},
  {"lat":31.6724,"lon":-96.588667,"city":"MEXIA","state":"TX","address":"3892 HIGHWAY 84 W","name":""},
  {"lat":34.18059,"lon":-97.24775,"city":"LONE GROVE","state":"OK","address":"6533 MERIDIAN RD","name":""},
  {"lat":32.23936,"lon":-98.16857,"city":"STEPHENVILLE","state":"TX","address":"4133 E WASHINGTON ST","name":""},
  {"lat":31.05571,"lon":-93.24417,"city":"LEESVILLE","state":"LA","address":"1171 ENTRANCE RD","name":""},
  {"lat":40.27297,"lon":-76.88633,"city":"HARRISBURG","state":"PA","address":"1423 N 6TH ST","name":""},
  {"lat":32.375555,"lon":-98.971589,"city":"CISCO","state":"TX","address":"2112 CONRAD HILTON BLVD","name":""},
  {"lat":31.774099,"lon":-81.633206,"city":"WALTHOURVILLE","state":"GA","address":"5879 W OGLETHORPE HWY","name":""},
  {"lat":41.44053,"lon":-82.23495,"city":"LORAIN","state":"OH","address":"5375 W ERIE AVE","name":""},
  {"lat":39.392039,"lon":-74.529965,"city":"PLEASANTVILLE","state":"NJ","address":"444 W BLACK HORSE PIKE","name":""},
  {"lat":29.83094,"lon":-95.66122,"city":"HOUSTON","state":"TX","address":"17126 PINE FOREST LN","name":""},
  {"lat":35.00663,"lon":-90.0081,"city":"MEMPHIS","state":"TN","address":"1672 E HOLMES RD","name":""},
  {"lat":27.584848,"lon":-97.80053,"city":"BISHOP","state":"TX","address":"102 W MAIN ST","name":""},
  {"lat":35.04387,"lon":-89.88543,"city":"MEMPHIS","state":"TN","address":"3834 S MENDENHALL RD","name":""},
  {"lat":36.56389,"lon":-82.45651,"city":"KINGSPORT","state":"TN","address":"3337 E STONE DR","name":""},
  {"lat":31.16267,"lon":-93.15958,"city":"LEESVILLE","state":"LA","address":"795 ALEXANDRIA HWY","name":""},
  {"lat":30.23484,"lon":-92.18319,"city":"DUSON","state":"LA","address":"9021 CAMERON ST","name":""},
  {"lat":41.956362,"lon":-80.581804,"city":"CONNEAUT","state":"OH","address":"1033 LAKE RD","name":""},
  {"lat":33.461889,"lon":-86.908686,"city":"BIRMINGHAM","state":"AL","address":"399 MIDFIELD ST","name":""},
  {"lat":39.447794,"lon":-83.847711,"city":"WILMINGTON","state":"OH","address":"1089 W LOCUST ST","name":""},
  {"lat":40.278417,"lon":-76.858302,"city":"HARRISBURG","state":"PA","address":"2201 HERR ST","name":""},
  {"lat":39.935279,"lon":-75.060134,"city":"PENNSAUKEN","state":"NJ","address":"5420 NJ-38","name":""},
  {"lat":40.01252,"lon":-74.961699,"city":"DELRAN","state":"NJ","address":"3029 ROUTE 130","name":""},
  {"lat":35.74048,"lon":-89.53933,"city":"RIPLEY","state":"TN","address":"285 S WASHINGTON ST","name":""},
  {"lat":41.553023,"lon":-75.651209,"city":"SCOTT TOWNSHIP","state":"PA","address":"98 HILL RD","name":""},
  {"lat":32.70688,"lon":-96.00369,"city":"WILLS POINT","state":"TX","address":"502 HOUSTON ST","name":""},
  {"lat":41.443613,"lon":-82.22987,"city":"LORAIN","state":"OH","address":"4935 W ERIE AVE","name":""},
  {"lat":39.954822,"lon":-89.07391,"city":"ZANESVILLE","state":"OH","address":"4106 WEST PIKE","name":""},
  {"lat":32.67061,"lon":-97.3858,"city":"FORT WORTH","state":"TX","address":"5375 GRANBURY RD","name":""},
  {"lat":34.0017,"lon":-95.5203,"city":"HUGO","state":"OK","address":"1101 SOUTH F ST","name":""},
  {"lat":39.859638,"lon":-86.64236,"city":"NORTH SALEM","state":"IN","address":"3 MAIN ST","name":""},
  {"lat":40.942853,"lon":-87.449576,"city":"MOROCCO","state":"IN","address":"403 S POLK ST","name":""},
  {"lat":33.789294,"lon":-81.927704,"city":"EDGEFIELD","state":"SC","address":"311 MAIN STREET","name":""},
  {"lat":40.042771,"lon":-82.977043,"city":"COLUMBUS","state":"OH","address":"3728 KARL RD","name":""},
  {"lat":28.494806,"lon":-81.396595,"city":"ORLANDO","state":"FL","address":"4683 S ORANGE BLOSSOM TRAIL","name":""},
  {"lat":32.543574,"lon":-93.673127,"city":"BOSSIER CITY","state":"LA","address":"4609 SHED ROAD","name":""},
  {"lat":30.109045,"lon":-83.589053,"city":"PERRY","state":"FL","address":"1200 S BYRON BUTLER PKWY","name":""},
  {"lat":29.79746,"lon":-95.38151,"city":"HOUSTON","state":"TX","address":"4620 N MAIN ST","name":""},
  {"lat":41.13248,"lon":-112.0312,"city":"CLEARFIELD","state":"UT","address":"275 W 1300 N","name":""},
  {"lat":40.58729,"lon":-122.38968,"city":"REDDING","state":"CA","address":"1220 SHASTA ST","name":""},
  {"lat":33.37868,"lon":-111.78222,"city":"GILBERT","state":"AZ","address":"2371 E BASELINE RD","name":""},
  {"lat":40.674485,"lon":-73.487586,"city":"SEAFORD","state":"NY","address":"3914 SUNRISE HWY","name":""},
  {"lat":43.48417,"lon":-71.53789,"city":"TILTON","state":"NH","address":"622 LACONIA RD","name":""},
  {"lat":34.72894,"lon":-80.75853,"city":"LANCASTER","state":"SC","address":"1313 E MEETING ST","name":""},
  {"lat":38.8721,"lon":-78.52958,"city":"WOODSTOCK","state":"VA","address":"443 W RESERVOIR RD","name":""},
  {"lat":43.98772,"lon":-84.58466,"city":"GLADWIN","state":"MI","address":"5489 W M 61","name":""},
  {"lat":43.533111,"lon":-71.462799,"city":"LACONIA","state":"NH","address":"297 UNION AVE","name":""},
  {"lat":32.57251,"lon":-93.204071,"city":"MINDEN","state":"LA","address":"2198 HIGHWAY 532","name":""},
  {"lat":48.34342,"lon":-103.61602,"city":"WILLISTON","state":"ND","address":"13553 64TH ST NW","name":""},
  {"lat":33.529405,"lon":-86.851133,"city":"BIRMINGHAM","state":"AL","address":"901 BANKHEAD HWY W","name":""},
  {"lat":47.93188,"lon":-97.09573,"city":"GRAND FORKS","state":"ND","address":"1212 N 47TH ST","name":""},
  {"lat":40.780951,"lon":-73.246404,"city":"BRENTWOOD","state":"NY","address":"780 SUFFOLK AVE","name":""},
  {"lat":43.06377,"lon":-77.22512,"city":"PALMYRA","state":"NY","address":"521 E MAIN ST","name":""},
  {"lat":28.181127,"lon":-82.46811,"city":"LUTZ","state":"FL","address":"1616 DALE MABRY HWY","name":""},
  {"lat":39.65973,"lon":-95.526038,"city":"HORTON","state":"KS","address":"729 1ST AVENUE EAST","name":""},
  {"lat":31.07066,"lon":-97.35909,"city":"TEMPLE","state":"TX","address":"321 SW H K DODGEN LOOP","name":""},
  {"lat":35.11485,"lon":-89.94608,"city":"MEMPHIS","state":"TN","address":"613 S HIGHLAND ST","name":""},
  {"lat":40.33475,"lon":-82.169953,"city":"WALHONDING","state":"OH","address":"32012 US HIGHWAY 36","name":""},
  {"lat":34.47658,"lon":-85.34943,"city":"SUMMERVILLE","state":"GA","address":"106 LYERLY ST","name":""},
  {"lat":40.41921,"lon":-79.85002,"city":"PITTSBURGH","state":"PA","address":"2110 ARDMORE BLVD","name":""},
  {"lat":33.67637,"lon":-80.35846,"city":"MANNING","state":"SC","address":"5783 SUMMERTON HWY","name":""},
  {"lat":41.200843,"lon":-75.920414,"city":"SUGAR NOTCH","state":"PA","address":"1334 NEW HANOVER ST.","name":""},
  {"lat":30.01208,"lon":-89.94423,"city":"NEW ORLEANS","state":"LA","address":"12170 OLD GENTILLY RD","name":""},
  {"lat":41.151448,"lon":-81.383815,"city":"KENT","state":"OH","address":"1152 W MAIN ST","name":""},
  {"lat":41.135172,"lon":-84.584225,"city":"PAULDING","state":"OH","address":"327 W WAYNE ST","name":""},
  {"lat":40.75601,"lon":-73.10898,"city":"BOHEMIA","state":"NY","address":"4740 SUNRISE HWY","name":""},
  {"lat":39.839186,"lon":-95.734005,"city":"FAIRVIEW","state":"KS","address":"201 OLD US HIGHWAY 75","name":""},
  {"lat":41.39986,"lon":-75.66412,"city":"SCRANTON","state":"PA","address":"501 PITTSTON AVE","name":""},
  {"lat":46.192504,"lon":-85.016378,"city":"TROUT LAKE","state":"MI","address":"21601 S M 123","name":""},
  {"lat":41.084059,"lon":-81.552383,"city":"AKRON","state":"OH","address":"853 COPLEY RD","name":""},
  {"lat":39.561105,"lon":-95.129145,"city":"ATCHISON","state":"KS","address":"1029 MAIN ST","name":""},
  {"lat":38.785958,"lon":-94.927068,"city":"GARDNER","state":"KS","address":"18865 S GARDNER RD","name":""},
  {"lat":33.62442,"lon":-97.133162,"city":"GAINESVILLE","state":"TX","address":"102 N GRAND AVE","name":""},
  {"lat":40.732715,"lon":-76.297057,"city":"POTTSVILLE","state":"PA","address":"1297 KEYSTONE BLVD","name":""},
  {"lat":30.311025,"lon":-81.70569,"city":"JACKSONVILLE","state":"FL","address":"1060 MCDUFF AVE S","name":""},
  {"lat":43.298819,"lon":-85.621023,"city":"SAND LAKE","state":"MI","address":"14150 CYPRESS AVE","name":""},
  {"lat":42.24645,"lon":-71.15376,"city":"DEDHAM","state":"MA","address":"37 MILTON ST","name":""},
  {"lat":33.419347,"lon":-111.546524,"city":"APACHE JUNCTION","state":"AZ","address":"420 N APACHE TRL","name":""},
  {"lat":35.0204,"lon":-89.93744,"city":"MEMPHIS","state":"TN","address":"3799 E SHELBY DR","name":""},
  {"lat":39.759814,"lon":-86.102313,"city":"INDIANAPOLIS","state":"IN","address":"3747 ENGLISH AVE","name":""},
  {"lat":40.78559,"lon":-85.829021,"city":"WABASH","state":"IN","address":"1405 VERNON ST","name":""},
  {"lat":34.13293,"lon":-83.21502,"city":"DANIELSVILLE","state":"GA","address":"694 HIGHWAY 29 N","name":""},
  {"lat":42.622522,"lon":-83.282761,"city":"PONTIAC","state":"MI","address":"1 MOTORSPORTS DR","name":""},
  {"lat":40.074295,"lon":-74.866644,"city":"BURLINGTON","state":"NJ","address":"420 KEIM BLVD","name":""},
  {"lat":30.47986,"lon":-97.80401,"city":"CEDAR PARK","state":"TX","address":"2509 S BELL BLVD","name":""},
  {"lat":35.517757,"lon":-78.340162,"city":"SMITHFIELD","state":"NC","address":"608 BUFFALO RD","name":""},
  {"lat":35.501375,"lon":-78.347918,"city":"SMITHFIELD","state":"NC","address":"716 S BRIGHTLEAF BLVD","name":""},
  {"lat":38.03197,"lon":-84.368795,"city":"LEXINGTON","state":"KY","address":"3895 WINCHESTER RD","name":""},
  {"lat":40.01988,"lon":-75.17462,"city":"PHILADELPHIA","state":"PA","address":"5051 WISSAHICKON AVE","name":""},
  {"lat":32.251,"lon":-111.00017,"city":"TUCSON","state":"AZ","address":"1570 W GRANT RD","name":""},
  {"lat":29.572652,"lon":-97.964894,"city":"SEGUIN","state":"TX","address":"506 N AUSTIN ST","name":""},
  {"lat":40.07562,"lon":-75.12822,"city":"ELKINS PARK","state":"PA","address":"8009 OLD YORK RD","name":""},
  {"lat":39.78182,"lon":-75.97971,"city":"OXFORD","state":"PA","address":"203 S 3RD ST","name":""},
  {"lat":36.32976,"lon":-82.26612,"city":"ELIZABETHTON","state":"TN","address":"2226 WEST G STREET","name":""},
  {"lat":41.678804,"lon":-83.527001,"city":"TOLEDO","state":"OH","address":"750 E CENTRAL AVENUE","name":""},
  {"lat":37.204293,"lon":-113.196395,"city":"VIRGIN","state":"UT","address":"323 UTAH 9","name":""},
  {"lat":40.32943,"lon":-79.89282,"city":"GLASSPORT","state":"PA","address":"336 MONONGAHELA AVE","name":""},
  {"lat":39.922261,"lon":-82.863975,"city":"COLUMBUS","state":"OH","address":"2660 NOE BIXBY RD","name":""},
  {"lat":42.65494,"lon":-73.70743,"city":"RENSSELAER","state":"NY","address":"1208 WASHINGTON AVE","name":""},
  {"lat":38.716209,"lon":-77.131861,"city":"ALEXANDRIA","state":"VA","address":"5634 MOUNT VERNON MEMORIAL HWY","name":""},
  {"lat":37.99171,"lon":-87.491738,"city":"EVANSVILLE","state":"IN","address":"4810 E MORGAN AVE","name":""},
  {"lat":38.046332,"lon":-84.454381,"city":"LEXINGTON","state":"KY","address":"790 E NEW CIRCLE RD","name":""},
  {"lat":31.20686,"lon":-97.30265,"city":"TROY","state":"TX","address":"1 E MAIN ST","name":""},
  {"lat":35.693763,"lon":-88.111033,"city":"PARSONS","state":"TN","address":"3205 US HWY 641","name":""},
  {"lat":30.041269,"lon":-89.896655,"city":"NEW ORLEANS","state":"LA","address":"15200 CHEF MENTEUR HWY","name":""},
  {"lat":37.98833,"lon":-87.5294,"city":"EVANSVILLE","state":"IN","address":"1200 N WEINBACH AVE","name":""},
  {"lat":40.665263,"lon":-73.732514,"city":"ROSEDALE","state":"NY","address":"246-02 S CONDUIT AVE","name":""},
  {"lat":39.658944,"lon":-87.437016,"city":"CLINTON","state":"IN","address":"1458 INDIANA 163","name":""},
  {"lat":40.31392,"lon":-75.347756,"city":"SOUDERTON","state":"PA","address":"303 HARLEYSVILLE PIKE","name":""},
  {"lat":39.76056,"lon":-75.56049,"city":"WILMINGTON","state":"DE","address":"1712 LOVERING AVE","name":""},
  {"lat":40.603641,"lon":-75.490568,"city":"ALLENTOWN","state":"PA","address":"1441 W GORDON ST","name":""},
  {"lat":40.340416,"lon":-75.303828,"city":"TELFORD","state":"PA","address":"4802 BETHLEHEM PIKE","name":""},
  {"lat":40.617351,"lon":-75.44144,"city":"ALLENTOWN","state":"PA","address":"901 HANOVER AVE","name":""},
  {"lat":39.816054,"lon":-75.092093,"city":"WOODBURY","state":"NJ","address":"1400 HURFFVILLE RD","name":""},
  {"lat":39.656011,"lon":-75.122956,"city":"MONROEVILLE","state":"NJ","address":"600 BUCK RD","name":""},
  {"lat":40.196651,"lon":-75.471444,"city":"TRAPPE","state":"PA","address":"306 W MAIN ST","name":""},
  {"lat":35.219238,"lon":-112.497572,"city":"ASHFORK","state":"AZ","address":"950 W OLD HWY 66","name":""},
  {"lat":41.657022,"lon":-74.693171,"city":"MONTICELLO","state":"NY","address":"5 JEFFERSON ST","name":""},
  {"lat":35.167679,"lon":-89.864518,"city":"MEMPHIS","state":"TN","address":"1559 SYCAMORE VIEW RD","name":""},
  {"lat":35.074473,"lon":-89.905619,"city":"MEMPHIS","state":"TN","address":"2726 S PERKINS RD","name":""},
  {"lat":35.188897,"lon":-89.927751,"city":"MEMPHIS","state":"TN","address":"4185 JACKSON AVE","name":""},
  {"lat":40.203821,"lon":-74.773781,"city":"MORRISVILLE","state":"PA","address":"509 S PENNSYLVANIA AVE","name":""},
  {"lat":33.430583,"lon":-94.014326,"city":"TEXARKANA","state":"AR","address":"2700 E 9TH ST","name":""},
  {"lat":39.966056,"lon":-75.521144,"city":"WEST CHESTER","state":"PA","address":"1594 W CHESTER PIKE","name":""},
  {"lat":32.75557,"lon":-98.9228,"city":"BRECKENRIDGE","state":"TX","address":"1602 W WALKER ST","name":""},
  {"lat":38.768937,"lon":-93.536069,"city":"KNOB NOSTER","state":"MO","address":"1113 NORTHWEST US HIGHWAY 50","name":""},
  {"lat":39.070175,"lon":-84.303919,"city":"CINCINNATI","state":"OH","address":"533 OHIO PIKE","name":""},
  {"lat":38.157103,"lon":-85.590879,"city":"LOUISVILLE","state":"KY","address":"6102 BARDSTOWN RD","name":""},
  {"lat":38.967368,"lon":-85.889994,"city":"SEYMOUR","state":"IN","address":"829 N EWING ST","name":""},
  {"lat":38.367642,"lon":-85.753947,"city":"SELLERSBURG","state":"IN","address":"7305 APPLE LEAF LN","name":""},
  {"lat":32.447573,"lon":-99.705908,"city":"ABILENE","state":"TX","address":"981 US HIGHWAY 80 E","name":""},
  {"lat":32.25832,"lon":-101.45598,"city":"BIG SPRING","state":"TX","address":"1500 E 4TH ST","name":""},
  {"lat":30.489422,"lon":-90.414712,"city":"HAMMOND","state":"LA","address":"43370 S AIRPORT RD","name":""},
  {"lat":40.26202,"lon":-75.368034,"city":"HARLEYSVILLE","state":"PA","address":"161 MAIN ST","name":""},
  {"lat":31.14484,"lon":-92.4965,"city":"WOODWORTH","state":"LA","address":"9421 HIGHWAY 165 S","name":""},
  {"lat":33.698422,"lon":-86.522094,"city":"TRUSSVILLE","state":"AL","address":"335 US HIGHWAY 11","name":""},
  {"lat":34.13232,"lon":-85.14004,"city":"SILVER CREEK","state":"GA","address":"5729 ROCKMART RD SE","name":""},
  {"lat":32.386182,"lon":-96.849095,"city":"WAXAHACHIE","state":"TX","address":"100 S ELM ST","name":""},
  {"lat":38.500637,"lon":-86.014171,"city":"NEW PEKIN","state":"IN","address":"525 EAST STATE ROAD 60","name":""},
  {"lat":35.150327,"lon":-86.571254,"city":"FAYETTEVILLE","state":"TN","address":"313 MAIN AVE S","name":""},
  {"lat":40.22473,"lon":-122.31308,"city":"RED BLUFF","state":"CA","address":"19485 CALIFORNIA 36","name":""},
  {"lat":33.459999,"lon":-112.029893,"city":"PHOENIX","state":"AZ","address":"1045 N 24TH ST","name":""},
  {"lat":32.29213,"lon":-95.13931,"city":"TYLER","state":"TX","address":"16117 HIGHWAY 64 E","name":""},
  {"lat":32.20004,"lon":-98.1498,"city":"STEPHENVILLE","state":"TX","address":"5376 US HIGHWAY 67","name":""},
  {"lat":33.56784,"lon":-112.13463,"city":"PHOENIX","state":"AZ","address":"3502 W DUNLAP AVENUE","name":""},
  {"lat":43.220624,"lon":-77.935987,"city":"BROCKPORT","state":"NY","address":"4118 LAKE ROAD NORTH","name":""},
  {"lat":44.713974,"lon":-73.569445,"city":"MORRISONVILLE","state":"NY","address":"1346 STATE ROUTE 3","name":""},
  {"lat":41.180963,"lon":-73.180931,"city":"BRIDGEPORT","state":"CT","address":"458 E MAIN ST","name":""},
  {"lat":37.287763,"lon":-83.209398,"city":"HAZARD","state":"KY","address":"1376 COMBS RD","name":""},
  {"lat":39.403711,"lon":-74.51119,"city":"PLEASANTVILLE","state":"NJ","address":"864 N MAIN ST","name":""},
  {"lat":29.5354,"lon":-98.3309,"city":"CONVERSE","state":"TX","address":"8026 KITTY HAWK ROAD","name":""},
  {"lat":38.48468,"lon":-78.81401,"city":"HARRISONBURG","state":"VA","address":"4070 NORTH VALLEY PIKE","name":""},
  {"lat":38.206481,"lon":-85.775745,"city":"LOUISVILLE","state":"KY","address":"3039 TAYLOR BLVD","name":""},
  {"lat":40.465573,"lon":-74.29611,"city":"SOUTH AMBOY","state":"NJ","address":"949 US HIGHWAY 9","name":""},
  {"lat":39.458813,"lon":-82.928533,"city":"CHILLICOTHE","state":"OH","address":"9277 SR 159","name":""},
  {"lat":41.84662,"lon":-71.5005,"city":"JOHNSTON","state":"RI","address":"514 GREENVILLE AVE","name":""},
  {"lat":37.54163,"lon":-76.75161,"city":"SHACKLEFORDS","state":"VA","address":"5527 E LEWIS B PULLER MEM HWY EAST","name":""},
  {"lat":32.93531,"lon":-84.34745,"city":"THOMASTON","state":"GA","address":"424 JEFF DAVIS RD","name":""},
  {"lat":40.263537,"lon":-74.801556,"city":"EWING","state":"NJ","address":"1252 PARKWAY AVE","name":""},
  {"lat":40.634633,"lon":-75.47094,"city":"WHITEHALL","state":"PA","address":"844 3RD ST","name":""},
  {"lat":40.752624,"lon":-73.209126,"city":"ISLIP","state":"NY","address":"540 ISLIP AVE","name":""},
  {"lat":33.54463,"lon":-86.87458,"city":"BIRMINGHAM","state":"AL","address":"603 FORESTDALE BLVD","name":""},
  {"lat":43.91485,"lon":-75.97925,"city":"WATERTOWN","state":"NY","address":"19784 CADY ROAD","name":""},
  {"lat":34.75891,"lon":-84.927179,"city":"DALTON","state":"GA","address":"2900 AIRPORT ROAD","name":""},
  {"lat":39.942028,"lon":-75.349229,"city":"SPRINGFIELD","state":"PA","address":"705 W SPROUL RD","name":""},
  {"lat":39.93575,"lon":-75.589164,"city":"WEST CHESTER","state":"PA","address":"1014 WILMINGTON PIKE","name":""},
  {"lat":32.80142,"lon":-97.40758,"city":"FORT WORTH","state":"TX","address":"5724 JACKSBORO HWY","name":""},
  {"lat":30.47319,"lon":-91.97957,"city":"LEONVILLE","state":"LA","address":"3853 LOUISIANA 31","name":""},
  {"lat":30.247316,"lon":-91.879426,"city":"BREAUX BRIDGE","state":"LA","address":"4338 POYDRAS HWY","name":""},
  {"lat":27.69955,"lon":-97.36269,"city":"CORPUS CHRISTI","state":"TX","address":"6101 WILLIAMS DR","name":""},
  {"lat":40.99178,"lon":-75.1756,"city":"EAST STROUDSBURG","state":"PA","address":"350 PROSPECT ST","name":""},
  {"lat":40.242547,"lon":-75.282495,"city":"LANSDALE","state":"PA","address":"291 N BROAD ST","name":""},
  {"lat":33.004,"lon":-96.99928,"city":"LEWISVILLE","state":"TX","address":"301 W ROUND GROVE RD","name":""},
  {"lat":42.95623,"lon":-83.31453,"city":"METAMORA","state":"MI","address":"3492 S LAPEER RD","name":""},
  {"lat":32.456077,"lon":-93.79704,"city":"SHREVEPORT","state":"LA","address":"3655 HOLLYWOOD AVE","name":""},
  {"lat":35.548389,"lon":-85.988154,"city":"MANCHESTER","state":"TN","address":"7407 MCMINNVILLE HWY","name":""},
  {"lat":40.225069,"lon":-76.094331,"city":"DENVER","state":"PA","address":"2194 N READING RD","name":""},
  {"lat":30.31214,"lon":-95.454603,"city":"CONROE","state":"TX","address":"201 E DAVIS ST","name":""},
  {"lat":35.59915,"lon":-84.51187,"city":"SWEETWATER","state":"TN","address":"203 NEW HIGHWAY 68","name":""},
  {"lat":37.170466,"lon":-94.831541,"city":"COLUMBUS","state":"KS","address":"100 SOUTH EAST AVENUE","name":""},
  {"lat":39.31286,"lon":-76.58431,"city":"BALTIMORE","state":"MD","address":"1900 BELAIR ROAD","name":""},
  {"lat":39.342186,"lon":-76.682758,"city":"BALTIMORE","state":"MD","address":"5100 REISTERSTOWN ROAD","name":""},
  {"lat":29.675057,"lon":-95.336222,"city":"HOUSTON","state":"TX","address":"7111 MARTIN LUTHER KING BLVD","name":""},
  {"lat":40.155958,"lon":-75.890292,"city":"MORGANTOWN","state":"PA","address":"6350 MORGANTOWN RD","name":""},
  {"lat":40.378261,"lon":-76.658175,"city":"GRANTVILLE","state":"PA","address":"257 BOW CREEK ROAD","name":""},
  {"lat":40.43493,"lon":-75.41511,"city":"QUAKERTOWN","state":"PA","address":"2099 QUAKER POINTE DRIVE","name":""},
  {"lat":40.230696,"lon":-76.918101,"city":"CAMP HILL","state":"PA","address":"2205 GETTYSBURG ROAD","name":""},
  {"lat":35.53649,"lon":-89.65,"city":"COVINGTON","state":"TN","address":"5000 MUELLER BRASS ROAD","name":""},
  {"lat":38.215015,"lon":-78.080861,"city":"ORANGE","state":"VA","address":"16584 TOMAHAWK CREEK RD","name":""},
  {"lat":39.32772,"lon":-94.93024,"city":"LEAVENWORTH","state":"KS","address":"1301 METROPOLITAN AVENUE","name":""},
  {"lat":32.777704,"lon":-96.683086,"city":"DALLAS","state":"TX","address":"4625 S BUCKNER","name":""},
  {"lat":38.8414,"lon":-76.94882,"city":"TEMPLE HILLS","state":"MD","address":"2911 COLEBROOKE DR","name":""},
  {"lat":36.63706,"lon":-81.99865,"city":"ABINGDON","state":"VA","address":"22066 GREEN SPRING RD","name":""},
  {"lat":42.786173,"lon":-73.943508,"city":"ROTTERDAM","state":"NY","address":"1309 ALTAMONT AVE","name":""},
  {"lat":43.71972,"lon":-84.24682,"city":"MIDLAND","state":"MI","address":"3740 N EASTMAN RD","name":""},
  {"lat":37.709705,"lon":-76.381919,"city":"KILMARNOCK","state":"VA","address":"80 IRVINGTON ROAD","name":""},
  {"lat":37.645292,"lon":-76.39515,"city":"WHITE STONE","state":"VA","address":"895 RAPPAHANNOCK DRIVE","name":""},
  {"lat":33.46659,"lon":-86.8503,"city":"BIRMINGHAM","state":"AL","address":"1416 SPAULDING-ISHKOODA ROAD","name":""},
  {"lat":42.22756,"lon":-84.41157,"city":"JACKSON","state":"MI","address":"250 W PROSPECT ST","name":""},
  {"lat":40.403592,"lon":-79.88297,"city":"HOMESTEAD","state":"PA","address":"1408 RIVER ROAD","name":""},
  {"lat":29.74772,"lon":-95.37071,"city":"HOUSTON","state":"TX","address":"2111 FANNIN ST","name":""},
  {"lat":29.983497,"lon":-90.057487,"city":"NEW ORLEANS","state":"LA","address":"2411 ELYSIAN FIELDS AVE","name":""},
  {"lat":40.468263,"lon":-76.932677,"city":"HALIFAX","state":"PA","address":"200 MARKET STREET","name":""},
  {"lat":39.81761,"lon":-94.84432,"city":"SAINT JOSEPH","state":"MO","address":"5530 K HWY","name":""},
  {"lat":43.286187,"lon":-85.732405,"city":"KENT CITY","state":"MI","address":"17645 TYRONE AVENUE","name":""},
  {"lat":30.49424,"lon":-97.67521,"city":"ROUND ROCK","state":"TX","address":"1717 SOUTH MAYS STREET","name":""},
  {"lat":43.431837,"lon":-85.258083,"city":"LAKEVIEW","state":"MI","address":"8700 HOWARD CITY EDMORE RD","name":""},
  {"lat":32.734728,"lon":-80.241573,"city":"HOLLYWOOD","state":"SC","address":"5221 SOUTH CAROLINA 162","name":""},
  {"lat":42.06845,"lon":-79.95459,"city":"ERIE","state":"PA","address":"9633 WATTSBURG RD","name":""},
  {"lat":31.256593,"lon":-89.768533,"city":"COLUMBIA","state":"MS","address":"1674 HIGHWAY 98 E","name":""},
  {"lat":39.241889,"lon":-94.659379,"city":"KANSAS CITY","state":"MO","address":"8108 NW PRAIRIE VIEW RD","name":""},
  {"lat":39.263653,"lon":-77.544425,"city":"LEESBURG","state":"VA","address":"12709 JAMES MONROE HIGHWAY","name":""},
  {"lat":27.73191,"lon":-97.39163,"city":"CORPUS CHRISTI","state":"TX","address":"4422 WEBER ROAD","name":""},
  {"lat":34.20432,"lon":-85.17184,"city":"LINDALE","state":"GA","address":"3021 MAPLE ROAD SE","name":""},
  {"lat":40.32223,"lon":-78.91518,"city":"JOHNSTOWN","state":"PA","address":"335 BEDFORD ST","name":""},
  {"lat":40.2641,"lon":-78.85342,"city":"JOHNSTOWN","state":"PA","address":"1650 SCALP AVENUE","name":""},
  {"lat":36.88741,"lon":-113.9398,"city":"LITTLEFIELD","state":"AZ","address":"3225 E. RINCON RD","name":""},
  {"lat":40.73128,"lon":-114.05736,"city":"WEST WENDOVER","state":"NV","address":"800 LEPPY HILLS BOULEVARD","name":""},
  {"lat":36.773175,"lon":-81.781245,"city":"GLADE SPRING","state":"VA","address":"12322 MAPLE ST","name":""},
  {"lat":38.650914,"lon":-85.628791,"city":"LEXINGTON","state":"IN","address":"7887 E MAIN ST","name":""},
  {"lat":40.734361,"lon":-73.262474,"city":"BAY SHORE","state":"NY","address":"1310 5TH AVENUE","name":""},
  {"lat":39.995939,"lon":-75.09272,"city":"PHILADELPHIA","state":"PA","address":"2300 E BUTLER ST","name":""},
  {"lat":40.838238,"lon":-81.764176,"city":"ORRVILLE","state":"OH","address":"304 S MAIN STREET","name":""},
  {"lat":39.081184,"lon":-94.520354,"city":"KANSAS CITY","state":"MO","address":"2410 HARDESTY AVENUE","name":""},
  {"lat":32.643497,"lon":-83.641787,"city":"WARNER ROBINS","state":"GA","address":"1101 NORTH HOUSTON ROAD","name":""},
  {"lat":33.492433,"lon":-81.265044,"city":"SPRINGFIELD","state":"SC","address":"7006 CAPITAL WAY","name":""},
  {"lat":38.9839,"lon":-76.97102,"city":"HYATTSVILLE","state":"MD","address":"2301 UNIVERSITY BOULEVARD EAST","name":""},
  {"lat":40.98013,"lon":-75.52819,"city":"ALBRIGHTSVILLE","state":"PA","address":"1295 STATE ROUTE 534","name":""},
  {"lat":38.366153,"lon":-76.968339,"city":"NEWBURG","state":"MD","address":"12615 CRAIN HWY","name":""},
  {"lat":37.17937,"lon":-85.90766,"city":"HORSE CAVE","state":"KY","address":"100 S DIXIE ST","name":""},
  {"lat":33.00039,"lon":-89.06328,"city":"NOXAPATER","state":"MS","address":"9307 KILPATRICK STREET","name":""},
  {"lat":37.1663,"lon":-85.84,"city":"HORSE CAVE","state":"KY","address":"7015 S JACKSON HWY","name":""},
  {"lat":27.74093,"lon":-97.40557,"city":"CORPUS CHRISTI","state":"TX","address":"4301 KOSTORYZ RD","name":""},
  {"lat":39.573755,"lon":-82.953692,"city":"CIRCLEVILLE","state":"OH","address":"24539 U.S. 23","name":""},
  {"lat":29.12481,"lon":-80.97849,"city":"PORT ORANGE","state":"FL","address":"201 COMMONWEALTH BOULEVARD","name":""},
  {"lat":40.55477,"lon":-78.92443,"city":"STRONGSTOWN","state":"PA","address":"14345 U.S. 422","name":""},
  {"lat":40.29064,"lon":-79.35676,"city":"LATROBE","state":"PA","address":"3590 ROUTE 30","name":""},
  {"lat":39.578682,"lon":-78.847068,"city":"CUMBERLAND","state":"MD","address":"15808 MCMULLEN HIGHWAY SOUTHWEST","name":""},
  {"lat":40.59729,"lon":-78.70938,"city":"CARROLLTOWN","state":"PA","address":"246 SOUTH MAIN STREET","name":""},
  {"lat":39.92052,"lon":-78.94023,"city":"BERLIN","state":"PA","address":"1401 MAIN STREET","name":""},
  {"lat":33.476287,"lon":-80.882702,"city":"ORANGEBURG","state":"SC","address":"305 CANNON BRIDGE ROAD SW","name":""},
  {"lat":29.28021,"lon":-94.83365,"city":"GALVESTON","state":"TX","address":"1819 61ST STREET","name":""},
  {"lat":31.255836,"lon":-85.43424,"city":"DOTHAN","state":"AL","address":"1421 WESTGATE PARKWAY","name":""},
  {"lat":40.533961,"lon":-74.185866,"city":"STATEN ISLAND","state":"NY","address":"5270 AMBOY ROAD","name":""},
  {"lat":30.662741,"lon":-84.411288,"city":"HAVANA","state":"FL","address":"8549 FL GA HWY","name":""},
  {"lat":30.18604,"lon":-81.62872,"city":"JACKSONVILLE","state":"FL","address":"10550 SAN JOSE BLVD","name":""},
  {"lat":30.267186,"lon":-81.388313,"city":"JACKSONVILLE","state":"FL","address":"2517 3RD ST S","name":""},
  {"lat":38.048992,"lon":-84.523561,"city":"LEXINGTON","state":"KY","address":"641 RED MILE RD","name":""},
  {"lat":32.69413,"lon":-97.35346,"city":"FORT WORTH","state":"TX","address":"3756 MCCART AVENUE","name":""},
  {"lat":27.981713,"lon":-82.33966,"city":"TAMPA","state":"FL","address":"9702 E DR MARTIN LUTHER KING BLVD","name":""},
  {"lat":32.37229,"lon":-81.31498,"city":"SPRINGFIELD","state":"GA","address":"702 NORTH LAUREL STREET","name":""},
  {"lat":41.308783,"lon":-80.849453,"city":"WARREN","state":"OH","address":"5710 MAHONING AVENUE NORTHWEST","name":""},
  {"lat":42.515893,"lon":-73.609523,"city":"NASSAU","state":"NY","address":"2 CHURCH STREET","name":""},
  {"lat":43.14083,"lon":-75.301147,"city":"MARCY","state":"NY","address":"5773 NEW YORK 291","name":""},
  {"lat":41.271854,"lon":-80.779518,"city":"WARREN","state":"OH","address":"3860 ELM ROAD","name":""},
  {"lat":41.236284,"lon":-80.801092,"city":"WARREN","state":"OH","address":"1290 EAST MARKET STREET","name":""},
  {"lat":32.42532,"lon":-93.76282,"city":"SHREVEPORT","state":"LA","address":"8601 LINWOOD AVE","name":""},
  {"lat":40.617103,"lon":-73.999786,"city":"BROOKLYN","state":"NY","address":"7310 NEW UTRECHT AVE","name":""},
  {"lat":40.698035,"lon":-73.961766,"city":"BROOKLYN","state":"NY","address":"75 CLASSON AVE","name":""},
  {"lat":32.55036,"lon":-83.69046,"city":"WARNER ROBBINS","state":"GA","address":"1080 HWY 96","name":""},
  {"lat":31.87194,"lon":-85.15495,"city":"EUFAULA","state":"AL","address":"1637 SOUTH EUFAULA AVENUE","name":""},
  {"lat":37.9638,"lon":-83.938191,"city":"JEFFERSONVILLE","state":"KY","address":"6899 LEVEE ROAD","name":""},
  {"lat":40.293547,"lon":-78.030892,"city":"CASSVILLE","state":"PA","address":"359 SEMINARY ST","name":""},
  {"lat":39.914636,"lon":-75.221045,"city":"PHILADELPHIA","state":"PA","address":"6600 ESSINGTON AVE","name":""},
  {"lat":37.260484,"lon":-81.246259,"city":"BLUEFIELD","state":"WV","address":"2001 BLUEFIELD AVE","name":""},
  {"lat":41.505744,"lon":-81.633816,"city":"CLEVELAND","state":"OH","address":"1930 E 79TH ST","name":""},
  {"lat":40.27821,"lon":-75.12694,"city":"DOYLESTOWN","state":"PA","address":"1770 SOUTH EASTON ROAD","name":""},
  {"lat":40.126104,"lon":-74.83665,"city":"LEVITTOWN","state":"PA","address":"7000 BRISTOL PIKE","name":""},
  {"lat":42.35738,"lon":-83.23557,"city":"DETROIT","state":"MI","address":"19839 JOY RD","name":""},
  {"lat":40.04276,"lon":-86.89691,"city":"CRAWFORDSVILLE","state":"IN","address":"405 E MARKET ST","name":""},
  {"lat":31.088,"lon":-97.65618,"city":"HARKER HEIGHTS","state":"TX","address":"519 EAST VETERANS MEMORIAL BLVD","name":""},
  {"lat":41.4642,"lon":-81.58069,"city":"CLEVELAND","state":"OH","address":"14510 KINSMAN RD","name":""},
  {"lat":39.763302,"lon":-84.16987,"city":"DAYTON","state":"OH","address":"1627 E THIRD ST","name":""},
  {"lat":40.63357,"lon":-79.71382,"city":"NATRONA HEIGHTS","state":"PA","address":"2602 FREEPORT ROAD","name":""},
  {"lat":36.70242,"lon":-84.46564,"city":"STEARNS","state":"KY","address":"361 WILBURNE K ROSS HWY","name":""},
  {"lat":40.581999,"lon":-79.778748,"city":"CREIGHTON","state":"PA","address":"899 FREEPORT RD","name":""},
  {"lat":40.49306,"lon":-77.11565,"city":"NEWPORT","state":"PA","address":"315 BRETZ COURT","name":""},
  {"lat":38.771313,"lon":-77.452286,"city":"MANASSAS PARK","state":"VA","address":"8501 CENTREVILLE ROAD","name":""},
  {"lat":37.309724,"lon":-94.77055,"city":"WEIR","state":"KS","address":"202 E MAIN ST","name":""},
  {"lat":41.48839,"lon":-81.65208,"city":"CLEVELAND","state":"OH","address":"5307 WOODLAND AVE","name":""},
  {"lat":36.79307,"lon":-76.23948,"city":"CHESAPEAKE","state":"VA","address":"1644 SOUTH MILITARY HIGHWAY","name":""},
  {"lat":29.377696,"lon":-95.102929,"city":"SANTA FE","state":"TX","address":"13204 HWY 6","name":""},
  {"lat":40.348418,"lon":-76.386934,"city":"LEBANON","state":"PA","address":"1499 CUMBERLAND STREET","name":""},
  {"lat":40.36376,"lon":-76.46378,"city":"LEBANON","state":"PA","address":"1730 STATE ROUTE 72 N","name":""},
  {"lat":41.54151,"lon":-81.5995,"city":"CLEVELAND","state":"OH","address":"12307 ST CLAIR","name":""},
  {"lat":32.865266,"lon":-96.803724,"city":"DALLAS","state":"TX","address":"8424 PRESTON RD","name":""},
  {"lat":32.484977,"lon":-80.978155,"city":"RIDGELAND","state":"SC","address":"11122 NORTH JACOB SMART BOULEVARD","name":""},
  {"lat":40.76289,"lon":-72.85418,"city":"MASTIC BEACH","state":"NY","address":"310 NEIGHBORHOOD ROAD","name":""},
  {"lat":39.201065,"lon":-96.310748,"city":"WAMEGO","state":"KS","address":"403 SPRUCE STREET","name":""},
  {"lat":35.907962,"lon":-79.96439,"city":"ARCHDALE","state":"NC","address":"10509 NORTH MAIN STREET","name":""},
  {"lat":28.829019,"lon":-96.987904,"city":"VICTORIA","state":"TX","address":"3801 HALSEY STREET","name":""},
  {"lat":39.087361,"lon":-84.449013,"city":"FORT THOMAS","state":"KY","address":"2179 MEMORIAL PARK","name":""},
  {"lat":32.763389,"lon":-96.657122,"city":"DALLAS","state":"TX","address":"9595 SCYENE RD","name":""},
  {"lat":41.44933,"lon":-81.273907,"city":"NEWBURY","state":"OH","address":"12418 KINSMAN RD","name":""},
  {"lat":40.74128,"lon":-111.88848,"city":"SALT LAKE CITY","state":"UT","address":"1302 SOUTH STATE STREET","name":""},
  {"lat":30.29205,"lon":-91.91509,"city":"BREAUX BRIDGE","state":"LA","address":"2021 REES STREET","name":""},
  {"lat":42.31289,"lon":-83.09067,"city":"DETROIT","state":"MI","address":"731 CLARK ST","name":""},
  {"lat":38.04848,"lon":-87.26652,"city":"BOONVILLE","state":"IN","address":"707 E MAIN ST","name":""},
  {"lat":32.706968,"lon":-97.436435,"city":"FORT WORTH","state":"TX","address":"4470 SOUTHWEST BLVD","name":""},
  {"lat":30.97762,"lon":-92.58458,"city":"GLENMORA","state":"LA","address":"13342 U.S. 165","name":""},
  {"lat":36.82509,"lon":-76.40351,"city":"CHESAPEAKE","state":"VA","address":"3920 PORTSMOUTH BLVD","name":""},
  {"lat":36.79939,"lon":-76.35071,"city":"PORTSMOUTH","state":"VA","address":"3300 VICTORY BLVD","name":""},
  {"lat":31.11808,"lon":-97.73082,"city":"KILLEN","state":"TX","address":"101 EAST VETERANS MEMORIAL BLVD","name":""},
  {"lat":29.5076,"lon":-98.64983,"city":"SAN ANTONIO","state":"TX","address":"7425 MAINLAND DRIVE","name":""},
  {"lat":41.182382,"lon":-80.718372,"city":"NILES","state":"OH","address":"2670 ROBBINS AVENUE","name":""},
  {"lat":41.060289,"lon":-80.616174,"city":"YOUNGSTOWN","state":"OH","address":"2069 EAST MIDLOTHIAN BOULEVARD","name":""},
  {"lat":41.237966,"lon":-80.74089,"city":"WARREN","state":"OH","address":"110 NILES CORTLAND ROAD SOUTHEAST","name":""},
  {"lat":28.98033,"lon":-81.98656,"city":"SUMMERFIELD","state":"FL","address":"16644 S US HIGHWAY 441","name":""},
  {"lat":34.227441,"lon":-84.818021,"city":"CARTERSVILLE","state":"GA","address":"71 OLD GRASSDALE ROAD NORTHEAST","name":""},
  {"lat":43.20488,"lon":-86.245,"city":"MUSKEGON HEIGHTS","state":"MI","address":"1 W SHERMAN BLVD","name":""},
  {"lat":37.7419,"lon":-87.12915,"city":"OWENSBORO","state":"KY","address":"1701 SCHERM RD","name":""},
  {"lat":33.66086,"lon":-95.57563,"city":"PARIS","state":"TX","address":"1805 BONHAM STREET","name":""},
  {"lat":29.5076,"lon":-98.64983,"city":"SAN ANTONIO","state":"TX","address":"7425 MAINLAND DRIVE","name":""},
  {"lat":42.028472,"lon":-88.297564,"city":"ELGIN","state":"IL","address":"771 WALNUT AVE","name":""},
  {"lat":41.48259,"lon":-81.590274,"city":"CLEVELAND","state":"OH","address":"2781 S MORELAND BLVD","name":""},
  {"lat":40.38057,"lon":-82.50765,"city":"MT. VERNON","state":"OH","address":"700 HARCOURT RD","name":""},
  {"lat":44.22252,"lon":-75.821678,"city":"THERESA","state":"NY","address":"38235 NEW YORK 37","name":""},
  {"lat":32.834817,"lon":-97.161161,"city":"BEDFORD","state":"TX","address":"501 BEDFORD RD","name":""},
  {"lat":41.66421,"lon":-83.53772,"city":"TOLEDO","state":"OH","address":"1526 CHERRY ST","name":""},
  {"lat":39.615185,"lon":-77.417732,"city":"THURMONT","state":"MD","address":"140 FREDERICK ROAD","name":""},
  {"lat":39.028697,"lon":-77.076559,"city":"KENSINGTON","state":"MD","address":"10550 CONNECTICUT AVE","name":""},
  {"lat":39.26083,"lon":-77.64339,"city":"LOVETTSVILLE","state":"VA","address":"12842 BERLIN TURNPIKE","name":""},
  {"lat":39.238472,"lon":-77.2824,"city":"CLARKSBURG","state":"MD","address":"23000 CLARKSBURG ROAD","name":""},
  {"lat":42.25891,"lon":-84.60014,"city":"PARMA","state":"MI","address":"107 W MAIN ST","name":""},
  {"lat":42.397769,"lon":-83.12538,"city":"DETROIT","state":"MI","address":"14127 LINWOOD ST","name":""},
  {"lat":42.35836,"lon":-83.20107,"city":"DETROIT","state":"MI","address":"15800 JOY RD","name":""},
  {"lat":42.23841,"lon":-83.58027,"city":"YPSILANTI","state":"MI","address":"350 S. FORD BLVD","name":""},
  {"lat":29.86804,"lon":-95.48894,"city":"HOUSTON","state":"TX","address":"8415 NORTH HOUSTON ROSSLYN ROAD","name":""},
  {"lat":42.29342,"lon":-83.32133,"city":"INKSTER","state":"MI","address":"28474 MICHIGAN AVENUE","name":""},
  {"lat":38.66625,"lon":-87.51159,"city":"VINCENNES","state":"IN","address":"606 SHIRLEE ST","name":""},
  {"lat":39.20169,"lon":-84.52059,"city":"CINCINNATI","state":"OH","address":"6464 WINTON ROAD","name":""},
  {"lat":39.15883,"lon":-84.5674,"city":"CINCINNATI","state":"OH","address":"2110 MONTANA AVE","name":""},
  {"lat":37.82892,"lon":-85.41814,"city":"BARDSTOWN","state":"KY","address":"1151 BLOOMFIELD RD","name":""},
  {"lat":38.867629,"lon":-76.892305,"city":"CAPTIOL HEIGHTS","state":"MD","address":"6700 WALKER MILL ROAD","name":""},
  {"lat":32.34867,"lon":-97.40979,"city":"CLEBURNE","state":"TX","address":"811 WOODARD AVENUE","name":""},
  {"lat":32.649596,"lon":-96.839607,"city":"DALLAS","state":"TX","address":"8008 SOUTH POLK STREET","name":""},
  {"lat":41.405519,"lon":-79.685262,"city":"OIL CITY","state":"PA","address":"1719 RIVERSIDE DR.","name":""},
  {"lat":35.85531,"lon":-77.68346,"city":"ROCKY MOUNT","state":"NC","address":"7995 NORTH CAROLINA 43","name":""},
  {"lat":34.50336,"lon":-84.9153,"city":"CALHOUN","state":"GA","address":"1600 DEWS POND ROAD NORTHEAST","name":""},
  {"lat":37.269169,"lon":-95.556004,"city":"CHERRYVILLE","state":"KS","address":"100 NORTH LIBERTY STREET","name":""},
  {"lat":39.128993,"lon":-95.718003,"city":"TOPEKA","state":"KS","address":"506 SOUTHWEST TOPEKA BOULEVARD","name":""},
  {"lat":32.58959,"lon":-96.8527,"city":"DESOTO","state":"TX","address":"240 EAST BELT LINE ROAD","name":""},
  {"lat":37.56572,"lon":-86.2181,"city":"LEITCHFIELD","state":"KY","address":"3670 ST PAUL RD","name":""},
  {"lat":40.999604,"lon":-78.346764,"city":"WOODLAND","state":"PA","address":"2829 WOODLAND BIGLER HIGHWAY","name":""},
  {"lat":37.437994,"lon":-76.577866,"city":"GLOUCESTER","state":"VA","address":"9502 GEORGE WASHINGTON MEMORIAL HWY","name":""},
  {"lat":34.308661,"lon":-86.296432,"city":"GUNTERSVILLE","state":"AL","address":"12976 U.S. 431","name":""},
  {"lat":40.688365,"lon":-73.719409,"city":"ELMONT","state":"NY","address":"245 LINDEN BOULEVARD","name":""},
  {"lat":37.602509,"lon":-77.562679,"city":"RICHMOND","state":"VA","address":"1504 EASTRIDGE ROAD","name":""},
  {"lat":33.53721,"lon":-85.26458,"city":"BOWDON","state":"GA","address":"701 WEST COLLEGE STREET","name":""},
  {"lat":43.30665,"lon":-84.81924,"city":"SUMNER","state":"MI","address":"10673 W. ST CHARLES ROAD","name":""},
  {"lat":37.62029,"lon":-77.45708,"city":"RICHMOND","state":"VA","address":"7101 BROOK ROAD","name":""},
  {"lat":39.522856,"lon":-76.188922,"city":"ABERDEEN","state":"MD","address":"804 WEST BEL AIR AVENUE","name":""},
  {"lat":38.94971,"lon":-95.22287,"city":"LAWRENCE","state":"KS","address":"1900 HASKELL AVENUE","name":""},
  {"lat":39.868661,"lon":-75.428586,"city":"ASTON","state":"PA","address":"298 PENNELL ROAD","name":""},
  {"lat":41.372053,"lon":-81.869859,"city":"BEREA","state":"OH","address":"455 W BAGLEY ROAD","name":""},
  {"lat":33.02159,"lon":-85.08112,"city":"LAGRANGE","state":"GA","address":"2255 WEST POINT ROAD","name":""},
  {"lat":40.482831,"lon":-78.022973,"city":"HUNTINGDON","state":"PA","address":"10142 FAIRGROUNDS ROAD","name":""},
  {"lat":40.189766,"lon":-75.103454,"city":"HATBORO","state":"PA","address":"555 NORTH YORK ROAD","name":""},
  {"lat":41.80646,"lon":-80.9457,"city":"GENEVA","state":"OH","address":"125 EAST MAIN STREET","name":""},
  {"lat":38.1656,"lon":-76.37822,"city":"LEXINGTON PARK","state":"MD","address":"18161 THREE NOTCH ROAD","name":""},
  {"lat":39.08229,"lon":-84.18645,"city":"BATAVIA","state":"OH","address":"520 W MAIN STREET","name":""},
  {"lat":32.82424,"lon":-97.18966,"city":"HURST","state":"TX","address":"844 WEST PIPELINE ROAD","name":""},
  {"lat":30.22768,"lon":-93.20461,"city":"LAKE CHARLES","state":"LA","address":"750 ENTERPRISE BLVD","name":""},
  {"lat":39.149108,"lon":-76.638426,"city":"GLEN BURNIE","state":"MD","address":"7690 QUARTERFIELD ROAD","name":""},
  {"lat":30.33884,"lon":-81.65448,"city":"JACKSONVILLE","state":"FL","address":"1255 NORTH MAIN STREET","name":""},
  {"lat":42.11561,"lon":-83.28148,"city":"FLAT ROCK","state":"MI","address":"26102 TELEGRAPH RD","name":""},
  {"lat":37.732364,"lon":-84.126473,"city":"WACO","state":"KY","address":"4100 NEW IRVINE ROAD","name":""},
  {"lat":38.62825,"lon":-83.79917,"city":"MAYSVILLE","state":"KY","address":"1690 US-68","name":""},
  {"lat":30.328148,"lon":-81.417705,"city":"ATLANTIC BEACH","state":"FL","address":"501 MAYPORT ROAD","name":""},
  {"lat":38.05221,"lon":-85.67667,"city":"SHEPHERDSVILLE","state":"KY","address":"3390 BURKLAND BLVD","name":""},
  {"lat":29.70372,"lon":-82.34483,"city":"GAINESVILLE","state":"FL","address":"5310 NORTHWEST 13TH ST","name":""},
  {"lat":34.987804,"lon":-80.53087,"city":"MONROE","state":"NC","address":"531 WEST ROOSEVELT BLVD","name":""},
  {"lat":42.35167,"lon":-71.54657,"city":"MARLBOROUGH","state":"MA","address":"121 BOLTON STREET","name":""},
  {"lat":33.74823,"lon":-84.83126,"city":"DOUGLASVILLE","state":"GA","address":"7826 VILLAGE ENTRANCE ROAD","name":""},
  {"lat":30.337743,"lon":-81.560668,"city":"SNOW CAMP","state":"FL","address":"8804 LONE STAR ROAD","name":""},
  {"lat":30.406448,"lon":-81.64573,"city":"JACKSONVILLE","state":"FL","address":"169 ZOO PARKWAY","name":""},
  {"lat":35.8588,"lon":-83.9592,"city":"LOUISVILLE","state":"TN","address":"4510 AIRPORT HWY","name":""},
  {"lat":32.73555,"lon":-96.27155,"city":"TERRELL","state":"TX","address":"600 U.S. 80","name":""},
  {"lat":29.78926,"lon":-95.12489,"city":"CHANNELVIEW","state":"TX","address":"817 SHELDON ROAD","name":""},
  {"lat":39.376308,"lon":-81.502413,"city":"MARIETTA","state":"OH","address":"17785 STATE ROUTE 7","name":""},
  {"lat":41.429,"lon":-74.4036,"city":"MIDDLETOWN","state":"NY","address":"1308 DOLSONTOWN ROAD","name":""},
  {"lat":40.6097,"lon":-73.6465,"city":"ISLAND PARK","state":"NY","address":"4096 AUSTIN AVE","name":""},
  {"lat":40.76658,"lon":-73.0032,"city":"PATCHOGUE","state":"NY","address":"343 E MAIN STREET","name":""},
  {"lat":39.341024,"lon":-76.667094,"city":"BALTIMORE","state":"MD","address":"4419 PARK HEIGHTS AVENUE","name":""},
  {"lat":26.086855,"lon":-81.728527,"city":"NAPLES","state":"FL","address":"11225 TAMIAMI TRAIL EAST","name":""},
  {"lat":28.224129,"lon":-82.723432,"city":"NEW PORT RICHEY","state":"FL","address":"4449 GRAND BOULEVARD","name":""},
  {"lat":34.292213,"lon":-99.755658,"city":"QUANAH","state":"TX","address":"1200 W. 11TH ST","name":""},
  {"lat":39.330915,"lon":-82.100807,"city":"ATHENS","state":"OH","address":"50 NORTH COURT ST.","name":""},
  {"lat":30.402522,"lon":-91.93269,"city":"ARNAUDVILLE","state":"LA","address":"398 MAIN STREET","name":""},
  {"lat":26.706229,"lon":-81.867563,"city":"NORTH FORT MYERS","state":"FL","address":"2238 LAUREL LANE","name":""},
  {"lat":40.279476,"lon":-75.387356,"city":"HARLEYSVILLE","state":"PA","address":"495 MAIN STREET","name":""},
  {"lat":41.469679,"lon":-81.696785,"city":"CLEVELAND","state":"OH","address":"3101 SCRANTON ROAD","name":""},
  {"lat":38.20712,"lon":-84.68362,"city":"GEORGETOWN","state":"KY","address":"3775 FRANKFORT PIKE","name":""},
  {"lat":43.60391,"lon":-84.08919,"city":"AUBURN","state":"MI","address":"998 W MIDLAND ROAD","name":""},
  {"lat":40.75352,"lon":-73.65841,"city":"NEW HYDE","state":"NY","address":"3369 HILLSIDE AVENUE","name":""},
  {"lat":39.62163,"lon":-76.07825,"city":"PORT DEPOSIT","state":"MD","address":"712 CRAIGTOWN ROAD","name":""},
  {"lat":41.152665,"lon":-74.767231,"city":"BRANCHVILLE","state":"NJ","address":"348 U.S. 206","name":""},
  {"lat":40.69483,"lon":-75.15969,"city":"PHILLIPSBURG","state":"NJ","address":"1075 U.S. 22","name":""},
  {"lat":31.22301,"lon":-81.47789,"city":"BRUNSWICK","state":"GA","address":"6090 ALTAMA AVE","name":""},
  {"lat":40.61115,"lon":-79.66445,"city":"NEW KENSINGTON","state":"PA","address":"4580 LEECHBURG RD","name":""},
  {"lat":32.37855,"lon":-82.59349,"city":"SOPERTON","state":"GA","address":"4157 WEST MAIN STREET","name":""},
  {"lat":40.677481,"lon":-73.927889,"city":"BROOKLYN","state":"NY","address":"1998 ATLANTIC AVENUE","name":""},
  {"lat":35.638293,"lon":-88.782394,"city":"JACKSON","state":"TN","address":"1215 WHITEHALL STREET","name":""},
  {"lat":29.666812,"lon":-91.128359,"city":"MORGAN CITY","state":"LA","address":"9731 LA-182","name":""},
  {"lat":35.263769,"lon":-88.98563,"city":"BOLIVAR","state":"TN","address":"670 NORTH MAIN STREET","name":""},
  {"lat":33.67881,"lon":-84.99945,"city":"CARROLLTON","state":"GA","address":"1789 SANDHILL HICKORY LEVEL ROAD","name":""},
  {"lat":40.964905,"lon":-80.146604,"city":"PORTERSVILLE","state":"PA","address":"2019 NEW CASTLE ROAD","name":""},
  {"lat":37.88182,"lon":-86.0988,"city":"VINE GROVE","state":"KY","address":"369 HOGWALLOW LANE","name":""},
  {"lat":37.82009,"lon":-86.01167,"city":"VINE GROVE","state":"KY","address":"6820 FLAHERTY RD","name":""},
  {"lat":38.63161,"lon":-76.90472,"city":"WALDORF","state":"MD","address":"2890 CRAIN HIGHWAY","name":""},
  {"lat":37.990417,"lon":-84.520816,"city":"LEXINGTON","state":"KY","address":"155 E REYNOLDS RD","name":""},
  {"lat":39.09464,"lon":-84.61271,"city":"CINCINNATI","state":"OH","address":"5091 DELHI PIKE","name":""},
  {"lat":42.204491,"lon":-85.886973,"city":"PAW PAW","state":"MI","address":"279 CO RD 665","name":""},
  {"lat":36.21476,"lon":-115.0992,"city":"NORTH LAS VEGAS","state":"NV","address":"3025 LAS VEGAS BLVD NORTH","name":""},
  {"lat":41.267092,"lon":-80.161792,"city":"JACKSON CENTER","state":"PA","address":"953 FRANKLIN ROAD","name":""},
  {"lat":40.54587,"lon":-79.90194,"city":"PITTSBURGH","state":"PA","address":"3565 HARTS RUN RD","name":""},
  {"lat":39.782978,"lon":-75.102323,"city":"SEWELL","state":"NJ","address":"109 DELSEA DRIVE","name":""},
  {"lat":32.87432,"lon":-79.9804,"city":"NORTH CHARLESTON","state":"SC","address":"4327 SPRUILL AVE.","name":""},
  {"lat":38.875485,"lon":-86.434896,"city":"BEDFORD","state":"IN","address":"1911 U.S. 50","name":""},
  {"lat":37.85734,"lon":-85.95341,"city":"RADCLIFF","state":"KY","address":"1500 N DIXIE BLVD","name":""},
  {"lat":41.7679,"lon":-81.1433,"city":"PERRY","state":"OH","address":"5068 NORTH RIDGE RD","name":""},
  {"lat":33.004795,"lon":-81.316388,"city":"ALLENDALE","state":"SC","address":"1206 SOUTH MAIN STREET","name":""},
  {"lat":29.79245,"lon":-95.26702,"city":"HOUSTON","state":"TX","address":"9199 NORTH LOOP EAST","name":""},
  {"lat":38.90085,"lon":-87.18754,"city":"SANDBORN","state":"IN","address":"15209 INDIANA 67","name":""},
  {"lat":39.67818,"lon":-85.13825,"city":"CONNERSVILLE","state":"IN","address":"3676 N. WESTERN AVE.","name":""},
  {"lat":42.65237,"lon":-73.767621,"city":"ALBANY","state":"NY","address":"422 MADISON AVE.","name":""},
  {"lat":33.64193,"lon":-86.44486,"city":"ODENVILLE","state":"AL","address":"9887 U.S. 411","name":""},
  {"lat":42.20399,"lon":-83.26789,"city":"TAYLOR","state":"MI","address":"14055 TELEGRAPH ROAD","name":""},
  {"lat":32.27599,"lon":-81.08048,"city":"HARDEEVILLE","state":"SC","address":"18226 WHYTE HARDEE BOULEVARD","name":""},
  {"lat":37.533588,"lon":-77.362591,"city":"RICHMOND","state":"VA","address":"4105 SOUTH LABURNUM AVE","name":""},
  {"lat":41.516201,"lon":-81.596137,"city":"CLEVELAND","state":"OH","address":"12436 EUCLID AVE","name":""},
  {"lat":42.66044,"lon":-82.84495,"city":"CHESTERFIELD","state":"MI","address":"49031 GRATIOT AVE","name":""},
  {"lat":43.36194,"lon":-85.40283,"city":"CORAL","state":"MI","address":"4668 N BAILEY RD","name":""},
  {"lat":26.766679,"lon":-80.060759,"city":"RIVIERA BEACH","state":"FL","address":"411 PRESIDENT BARACK OBAMA HWY","name":""},
  {"lat":32.63294,"lon":-97.07447,"city":"ARLINGTON","state":"TX","address":"6900 NEW YORK AVE.","name":""},
  {"lat":38.319107,"lon":-85.778788,"city":"CLARKSVILLE","state":"IN","address":"1894 BLACKISTON MILL RD","name":""},
  {"lat":39.92572,"lon":-82.88304,"city":"COLUMBUS","state":"OH","address":"4251 KIMBERLY PKWY","name":""},
  {"lat":41.403503,"lon":-73.582511,"city":"BREWSTER","state":"NY","address":"1224 NEW YORK 22","name":""},
  {"lat":39.046204,"lon":-76.06582,"city":"CENTREVILLE","state":"MD","address":"201 N. LIBERTY STREET","name":""},
  {"lat":29.66501,"lon":-95.02853,"city":"LA PORTE","state":"TX","address":"105 HWY 146 S","name":""},
  {"lat":39.77646,"lon":-85.96258,"city":"INDIANAPOLIS","state":"IN","address":"11430 E WASHINGTON ST","name":""},
  {"lat":42.639847,"lon":-84.484433,"city":"HOLT","state":"MI","address":"3517 HOLT RD","name":""},
  {"lat":43.259277,"lon":-75.18486,"city":"BARNEVELD","state":"NY","address":"8170 STATE ROUTE 12","name":""},
  {"lat":43.31156,"lon":-85.35312,"city":"TRUFANT","state":"MI","address":"1101 KOHLER RD","name":""},
  {"lat":39.444079,"lon":-80.169044,"city":"FAIRMONT","state":"WV","address":"1135 AIRPORT RD","name":""},
  {"lat":39.60272,"lon":-83.22926,"city":"NEW HOLLAND","state":"OH","address":"14761 CROWNOVER MILL RD","name":""},
  {"lat":39.970849,"lon":-75.146753,"city":"PHILADELPHIA","state":"PA","address":"601 WEST GIRARD AVENUE","name":""},
  {"lat":40.159162,"lon":-74.912734,"city":"PENNDEL","state":"PA","address":"111 EAST LINCOLN HIGHWAY","name":""},
  {"lat":43.579281,"lon":-83.895268,"city":"BAY CITY","state":"MI","address":"302 LAFAYETTE AVE","name":""},
  {"lat":40.00334,"lon":-82.67217,"city":"PATASKALA","state":"OH","address":"87 E. BROAD ST.","name":""},
  {"lat":41.300987,"lon":-73.882343,"city":"CORTLANDT MANOR","state":"NY","address":"2071 E MAIN ST","name":""},
  {"lat":30.15809,"lon":-93.15782,"city":"LAKE CHARLES","state":"LA","address":"3247 LA-14","name":""},
  {"lat":43.24648,"lon":-83.93274,"city":"BURT","state":"MI","address":"12245 ALBEE RD","name":""},
  {"lat":39.267049,"lon":-94.919049,"city":"LEAVENWORTH","state":"KS","address":"700 EISENHOWER ROAD","name":""},
  {"lat":39.774694,"lon":-104.924261,"city":"DENVER","state":"CO","address":"4140 GRAPE STREET","name":""},
  {"lat":33.703672,"lon":-85.141961,"city":"BREMEN","state":"GA","address":"871 ALABAMA AVENUE","name":""},
  {"lat":37.057783,"lon":-76.427269,"city":"HAMPTON","state":"VA","address":"1116 BIG BETHEL ROAD","name":""},
  {"lat":33.854621,"lon":-98.501612,"city":"WICHITA FALLS","state":"TX","address":"1508 SOUTHWEST PARKWAY","name":""},
  {"lat":32.102586,"lon":-81.148534,"city":"GARDEN CITY","state":"GA","address":"4207 AUGUSTA ROAD","name":""},
  {"lat":32.289569,"lon":-81.23478,"city":"RINCON","state":"GA","address":"101 S COLUMBIA AVE","name":""},
  {"lat":37.681021,"lon":-78.515102,"city":"SCOTTSVILLE","state":"VA","address":"4659 GLENMORE ROAD","name":""},
  {"lat":35.242134,"lon":-89.331867,"city":"SOMERVILLE","state":"TN","address":"17825 US 64","name":""},
  {"lat":35.319076,"lon":-89.157558,"city":"WHITEVILLE","state":"TN","address":"1835 US 64","name":""},
  {"lat":38.000025,"lon":-85.753346,"city":"SHEPHERDSVILLE","state":"KY","address":"2329 HWY 44","name":""},
  {"lat":37.042917,"lon":-84.964239,"city":"RUSSELL SPRINGS","state":"KY","address":"3955 KY 76","name":""},
  {"lat":38.315906,"lon":-82.955302,"city":"GRAYSON","state":"KY","address":"1103 HWY 7","name":""},
  {"lat":40.859282,"lon":-73.867212,"city":"BRONX","state":"NY","address":"2290 BOSTON RD","name":""},
  {"lat":40.315287,"lon":-75.690938,"city":"BOYERTOWN","state":"PA","address":"7947 BOYERTOWN PIKE","name":""},
  {"lat":40.372127,"lon":-75.20387,"city":"DUBLIN","state":"PA","address":"112 NORTH MAIN STREET","name":""},
  {"lat":27.7239,"lon":-97.41558,"city":"CORPUS CHRISTI","state":"TX","address":"3202 TIGER LANE","name":""},
  {"lat":40.657168,"lon":-74.0042,"city":"BROOKLYN","state":"NY","address":"889 3RD AVE","name":""},
  {"lat":40.751614,"lon":-73.634764,"city":"MINEOLA","state":"NY","address":"2 JERICHO TURNPIKE","name":""},
  {"lat":29.636183,"lon":-82.388349,"city":"GAINESVILLE","state":"FL","address":"4234 SW 20TH AVE","name":""},
  {"lat":37.980635,"lon":-87.592328,"city":"EVANSVILLE","state":"IN","address":"1905 W FRANKLIN ST","name":""},
  {"lat":28.509495,"lon":-82.580295,"city":"SPRING HILL","state":"FL","address":"5574 COMMERCIAL WAY","name":""},
  {"lat":41.135483,"lon":-81.665753,"city":"COPLEY","state":"OH","address":"4640 MEDINA RD.","name":""},
  {"lat":25.550798,"lon":-80.396221,"city":"MIAMI","state":"FL","address":"23215 SOUTH DIXIE HIGHWAY","name":""},
  {"lat":39.094721,"lon":-77.531861,"city":"LEESBURG","state":"VA","address":"115 ROBINSON MILL PLAZA NE","name":""},
  {"lat":31.829745,"lon":-86.631329,"city":"GREENVILLE","state":"AL","address":"100 NORTH COLLEGE STREET","name":""},
  {"lat":40.866805,"lon":-73.838551,"city":"BRONX","state":"NY","address":"1665 BARTOW AVE","name":""},
  {"lat":40.867963,"lon":-73.858745,"city":"BRONX","state":"NY","address":"2918 BOSTON RD","name":""},
  {"lat":40.855236,"lon":-74.11505,"city":"WALLINGTON","state":"NJ","address":"120 WALLINGTON AVE","name":""},
  {"lat":40.410642,"lon":-74.506803,"city":"MONMOUTH JUNCTION","state":"NJ","address":"2043 RT 130","name":""},
  {"lat":40.864702,"lon":-73.835726,"city":"BRONX","state":"NY","address":"1738 EAST GUN HILL RD","name":""},
  {"lat":40.544603,"lon":-74.162943,"city":"STATEN ISLAND","state":"NY","address":"4459 AMBOY RD","name":""},
  {"lat":40.814589,"lon":-73.858722,"city":"BRONX","state":"NY","address":"444 SOUNDVIEW AVE","name":""},
  {"lat":40.864681,"lon":-74.143792,"city":"CLIFTON","state":"NJ","address":"595 PAULISON AVE","name":""},
  {"lat":39.903157,"lon":-75.078195,"city":"OAKLYN","state":"NJ","address":"502 WHITE HORSE PIKE RT 30","name":""},
  {"lat":39.692837,"lon":-74.995599,"city":"WILLIAMSTOWN","state":"NJ","address":"328 NORTH BLACK HORSE PIKE","name":""},
  {"lat":32.147906,"lon":-96.089414,"city":"TRINIDAD","state":"TX","address":"312 STATE HWY 31 E, STE A","name":""},
  {"lat":32.917013,"lon":-96.69627,"city":"GARLAND","state":"TX","address":"4201 W WALNUT ST","name":""},
  {"lat":38.204916,"lon":-84.839295,"city":"FRANKFORT","state":"KY","address":"863 E MAIN ST","name":""},
  {"lat":42.96568,"lon":-78.7252,"city":"WILLIAMSVILLE","state":"NY","address":"6125 MAIN STREET","name":""},
  {"lat":40.345789,"lon":-79.936849,"city":"WEST MIFFLIN","state":"PA","address":"6999 CLAIRTON ROAD","name":""},
  {"lat":40.75608,"lon":-80.11848,"city":"ZELIENOPLE","state":"PA","address":"135 LINDSAY ROAD","name":""},
  {"lat":42.86227,"lon":-71.35179,"city":"LONDONDERRY","state":"NH","address":"66 NASHUA ROAD","name":""},
  {"lat":34.782492,"lon":-76.626043,"city":"BEAUFORT","state":"NC","address":"3294 U.S. 70","name":""},
  {"lat":43.05004,"lon":-76.121102,"city":"SYRACUSE","state":"NY","address":"1701 ERIE BOULEVARD EAST","name":""},
  {"lat":39.960011,"lon":-83.020203,"city":"COLUMBUS","state":"OH","address":"726 W BROAD ST","name":""},
  {"lat":39.66346,"lon":-85.941652,"city":"FAIRLAND","state":"IN","address":"12740 E SOUTHEASTERN AVE","name":""},
  {"lat":32.05128,"lon":-95.50421,"city":"FRANKSTON","state":"TX","address":"308 PINE STREET","name":""},
  {"lat":38.225179,"lon":-80.533666,"city":"RICHWOOD","state":"WV","address":"1 WEST MAIN STREET","name":""},
  {"lat":32.76306,"lon":-97.30872,"city":"FORT WORTH","state":"TX","address":"301 S SYLVANIA AVE.","name":""},
  {"lat":39.903,"lon":-75.32182,"city":"MORTON","state":"PA","address":"753 KEDRON AVENUE","name":""},
  {"lat":39.70395,"lon":-77.31697,"city":"EMMITSBURG","state":"MD","address":"110 SILO HILL ROAD","name":""},
  {"lat":39.65581,"lon":-77.17062,"city":"TANEYTOWN","state":"MD","address":"251 EAST BALTIMORE STREET","name":""},
  {"lat":39.38927,"lon":-77.31023,"city":"IJAMSVILLE","state":"MD","address":"10210 SILVERSIDE STREET","name":""},
  {"lat":40.856618,"lon":-79.895407,"city":"BUTLER","state":"PA","address":"408 SOUTH MAIN STREET","name":""},
  {"lat":40.1182,"lon":-76.0486,"city":"BLUE BALL","state":"PA","address":"1085 MAIN STREET","name":""},
  {"lat":35.888788,"lon":-89.917877,"city":"BLYTHEVILLE","state":"AR","address":"3702 SOUTH DIVISION STREET","name":""},
  {"lat":35.261059,"lon":-90.226036,"city":"MARION","state":"AR","address":"6934 INTERSTATE 55","name":""},
  {"lat":40.666394,"lon":-89.56789,"city":"EAST PEORIA","state":"IL","address":"721 EAST CAMP STREET","name":""},
  {"lat":41.120094,"lon":-85.061925,"city":"FORT WAYNE","state":"IN","address":"6230 Stellhorn Rd","name":""},
  {"lat":42.22856,"lon":-83.18043,"city":"LINCOLN PARK","state":"MI","address":"3869 FORT ST","name":""},
  {"lat":36.937162,"lon":-83.840347,"city":"GIRDLER","state":"KY","address":"5400 KENTUCKY 11","name":""},
  {"lat":37.240845,"lon":-85.189749,"city":"KNIFLEY","state":"KY","address":"5855 ELKHORN ROAD","name":""},
  {"lat":29.36236,"lon":-98.48166,"city":"SAN ANTONIO","state":"TX","address":"3215 ROOSEVELT AVENUE","name":""},
  {"lat":43.164789,"lon":-77.626678,"city":"ROCHESTER","state":"NY","address":"98 LYELL AVE","name":""},
  {"lat":37.98817,"lon":-87.56082,"city":"EVANSVILLE","state":"IN","address":"201 E LOUISIANA ST","name":""},
  {"lat":29.41991,"lon":-98.40516,"city":"SAN ANTONIO","state":"TX","address":"702 S WW WHITE RD","name":""},
  {"lat":29.54609,"lon":-98.40237,"city":"SAN ANTONIO","state":"TX","address":"4602 THOUSAND OAKS DR","name":""},