{"key":"topgolf","displayName":"TopGolf","category":"entertainment","useLocationName":false,"locations":[
  {"lat":30.398336,"lon":-97.717468,"city":"Austin","state":"TX","address":"2700 Esperanza Crossing","name":""},
  {"lat":32.869396,"lon":-96.746284,"city":"Dallas","state":"TX","address":"8787 Park Lane","name":""},
  {"lat":33.12323,"lon":-96.658598,"city":"Allen","state":"TX","address":"1500 Andrews Pkwy","name":""},
  {"lat":27.930129,"lon":-82.334238,"city":"Tampa","state":"FL","address":"10690 Palm River Road","name":""},
  {"lat":29.787004,"lon":-95.65009,"city":"Houston","state":"TX","address":"1030 Memorial Brook Blvd.","name":""},
  {"lat":33.070523,"lon":-96.88373,"city":"The Colony","state":"TX","address":"3760 Blair Oaks Drive","name":""},
  {"lat":30.048315,"lon":-95.426745,"city":"Spring","state":"TX","address":"560 Spring Park Center Blvd","name":""},
  {"lat":29.594102,"lon":-98.595094,"city":"San Antonio","state":"TX","address":"5539 North Loop 1604 W","name":""},
  {"lat":33.320271,"lon":-111.741612,"city":"Gilbert","state":"AZ","address":"1689 S. Santan Village Pkwy","name":""},
  {"lat":38.790906,"lon":-121.295754,"city":"Roseville","state":"CA","address":"1700 Freedom Way","name":""},
  {"lat":35.602791,"lon":-97.535102,"city":"Oklahoma City","state":"OK","address":"13313 Pawnee Dr","name":""},
  {"lat":39.052709,"lon":-77.446779,"city":"Ashburn","state":"VA","address":"20356 Commonwealth Center Dr.","name":""},
  {"lat":34.045013,"lon":-84.308198,"city":"Alpharetta","state":"GA","address":"10900 Westside Parkway","name":""},
  {"lat":33.541381,"lon":-111.876866,"city":"Scottsdale","state":"AZ","address":"9500 E. Talking Stick Way","name":""},
  {"lat":38.936815,"lon":-94.648175,"city":"Overland Park","state":"KS","address":"10611 Nall Ave","name":""},
  {"lat":39.589416,"lon":-104.865374,"city":"Centennial","state":"CO","address":"10601 E Easter Ave","name":""},
  {"lat":33.798793,"lon":-84.42766,"city":"Atlanta","state":"GA","address":"1600 Ellsworth Industrial Blvd NW","name":""},
  {"lat":41.808261,"lon":-88.209073,"city":"Naperville","state":"IL","address":"3211 Odyssey Ct","name":""},
  {"lat":36.843659,"lon":-76.170358,"city":"Virginia Beach","state":"VA","address":"5444 Greenwich Road","name":""},
  {"lat":29.517836,"lon":-95.120673,"city":"Webster","state":"TX","address":"21401 Gulf Fwy","name":""},
  {"lat":36.106316,"lon":-115.164762,"city":"Las Vegas","state":"NV","address":"4627 Koval Lane","name":""},
  {"lat":40.623347,"lon":-111.914602,"city":"Midvale","state":"UT","address":"920 Jordan River Blvd","name":""},
  {"lat":45.560008,"lon":-122.924078,"city":"Hillsboro","state":"OR","address":"5505 NE Huffman St","name":""},
  {"lat":39.316404,"lon":-84.425341,"city":"West Chester Township","state":"OH","address":"9568 Water Front Drive","name":""},
  {"lat":30.2635,"lon":-81.520508,"city":"Jacksonville","state":"FL","address":"10531 Brightman Blvd","name":""},
  {"lat":32.763874,"lon":-97.314226,"city":"Fort Worth","state":"TX","address":"2201 E 4th St.","name":""},
  {"lat":39.958121,"lon":-86.004474,"city":"Fishers","state":"IN","address":"9200 E 116th St.","name":""},
  {"lat":40.519758,"lon":-74.36836,"city":"Edison","state":"NJ","address":"1013 U.S. Route 1","name":""},
  {"lat":28.436239,"lon":-81.46357,"city":"Orlando","state":"FL","address":"9295 Universal Blvd.","name":""},
  {"lat":36.178159,"lon":-86.777861,"city":"Nashville","state":"TN","address":"500 Cowan St.","name":""},
  {"lat":35.153753,"lon":-80.9449,"city":"Charlotte","state":"NC","address":"8024 Savoy Corporate Dr.","name":""},
  {"lat":39.97344,"lon":-74.905134,"city":"Mount Laurel","state":"NJ","address":"104 Centerton Rd.","name":""},
  {"lat":31.811015,"lon":-106.525041,"city":"El Paso","state":"TX","address":"365 Vin Rambla Drive","name":""},
  {"lat":39.185187,"lon":-77.258594,"city":"Germantown","state":"MD","address":"20101 Century Blvd","name":""},
  {"lat":25.933351,"lon":-80.209224,"city":"Miami Gardens","state":"FL","address":"17321 NW 7th Ave.","name":""},
  {"lat":33.528835,"lon":-86.808077,"city":"Birmingham","state":"AL","address":"1111 24th St N","name":""},
  {"lat":34.738385,"lon":-86.668904,"city":"Huntsville","state":"AL","address":"6100 Topgolf Drive NW","name":""},
  {"lat":32.328669,"lon":-111.053349,"city":"Tucson","state":"AZ","address":"4050 W Costco Dr","name":""},
  {"lat":40.367037,"lon":-80.122768,"city":"Bridgeville","state":"PA","address":"400 Presto-Sygan Rd","name":""},
  {"lat":33.524619,"lon":-112.270802,"city":"Glendale","state":"AZ","address":"6101 N. 99th Ave.","name":""},
  {"lat":38.670859,"lon":-90.583145,"city":"Chesterfield","state":"MO","address":"16851 N Outer 40 Rd.","name":""},
  {"lat":45.071374,"lon":-93.288019,"city":"Brooklyn Center","state":"MN","address":"6420 Camden Ave N.","name":""},
  {"lat":25.793511,"lon":-80.389359,"city":"Doral","state":"FL","address":"11850 NW 22nd St","name":""},
  {"lat":26.196473,"lon":-98.201813,"city":"Pharr","state":"TX","address":"1901 W. Interstate 2","name":""},
  {"lat":40.150264,"lon":-82.963983,"city":"Columbus","state":"OH","address":"2000 IKEA Way","name":""},
  {"lat":41.267634,"lon":-96.074594,"city":"Omaha","state":"NE","address":"908 N 102nd St.","name":""},
  {"lat":42.70066,"lon":-83.288564,"city":"Auburn Hills","state":"MI","address":"500 Great Lakes Crossing Dr","name":""},
  {"lat":35.131888,"lon":-106.613791,"city":"Albuquerque","state":"NM","address":"1600 Desert Surf Circle NE","name":""},
  {"lat":30.374907,"lon":-91.05697,"city":"Baton Rouge","state":"LA","address":"10955 N. Mall Drive","name":""},
  {"lat":41.404231,"lon":-81.645285,"city":"Independence","state":"OH","address":"5820 Rockside Woods Blvd N","name":""},
  {"lat":34.85719,"lon":-82.261227,"city":"Greenville","state":"SC","address":"201 Clifton Court","name":""},
  {"lat":33.71404,"lon":-78.872024,"city":"Myrtle Beach","state":"SC","address":"2850 Robert Grissom Pkwy","name":""},
  {"lat":39.274505,"lon":-76.624763,"city":"Baltimore","state":"MD","address":"1411 Warner St.","name":""},
  {"lat":38.801041,"lon":-76.994401,"city":"Oxon Hill","state":"MD","address":"6400 Clipper Way","name":""},
  {"lat":37.423308,"lon":-121.969768,"city":"San Jose","state":"CA","address":"10 Topgolf Drive","name":""},
  {"lat":39.987163,"lon":-104.986534,"city":"Thornton","state":"CO","address":"16011 Grant Street","name":""},
  {"lat":37.577603,"lon":-77.477942,"city":"Richmond","state":"VA","address":"2308 Westwood Ave","name":""},
  {"lat":42.064849,"lon":-88.056764,"city":"Schaumburg","state":"IL","address":"2050 Progress Pkwy","name":""},
  {"lat":36.30034,"lon":-94.18274,"city":"Rogers","state":"AR","address":"3919 S. JB Hunt Drive","name":""},
  {"lat":28.751583,"lon":-81.361554,"city":"Lake Mary","state":"FL","address":"1010 Greenwood Blvd","name":""},
  {"lat":27.889176,"lon":-82.662515,"city":"St. Petersburg","state":"FL","address":"220 Carillon Pkwy N","name":""},
  {"lat":33.525736,"lon":-82.014984,"city":"Augusta","state":"GA","address":"437 Topgolf Way","name":""},
  {"lat":34.994985,"lon":-85.203379,"city":"East Ridge","state":"TN","address":"490 Camp Jordan Pkwy","name":""},
  {"lat":31.503794,"lon":-97.150602,"city":"Waco","state":"TX","address":"2301 Creekview Drive","name":""},
  {"lat":35.287752,"lon":-80.770008,"city":"Charlotte","state":"NC","address":"9110 Drivers Way","name":""},
  {"lat":40.819968,"lon":-73.064607,"city":"Holtsville","state":"NY","address":"5231 Express Dr N","name":""},
  {"lat":34.055358,"lon":-83.989404,"city":"Buford","state":"GA","address":"2935 Buford Dr","name":""},
  {"lat":33.910377,"lon":-118.393863,"city":"El Segundo","state":"CA","address":"400 S Pacific Coast Highway","name":""},
  {"lat":34.076629,"lon":-117.591912,"city":"Ontario","state":"CA","address":"1050 N. Archibald Avenue","name":""},
  {"lat":39.022611,"lon":-104.822894,"city":"Colorado Springs","state":"CO","address":"165 Spectrum Loop","name":""},
  {"lat":26.609536,"lon":-81.804017,"city":"Fort Myers","state":"FL","address":"2021 Topgolf Way","name":""},
  {"lat":47.49491,"lon":-122.206294,"city":"Renton","state":"WA","address":"780 Logan Ave N","name":""},
  {"lat":40.106648,"lon":-75.003146,"city":"Philadelphia","state":"PA","address":"2140 Byberry Rd","name":""},
  {"lat":35.879773,"lon":-78.834667,"city":"Durham","state":"NC","address":"4901 Topgolf Way","name":""},
  {"lat":35.903153,"lon":-84.162685,"city":"Farragut","state":"TN","address":"11400 Outlet Dr","name":""},
  {"lat":32.869441,"lon":-80.016515,"city":"North Charleston","state":"SC","address":"5000 Topgolf Way","name":""},
  {"lat":43.596232,"lon":-116.347362,"city":"Meridian","state":"ID","address":"1050 S Silverstone Way","name":""},
  {"lat":37.737067,"lon":-97.207095,"city":"Wichita","state":"KS","address":"2976 N Greenwich Rd","name":""},
  {"lat":38.245335,"lon":-85.610839,"city":"Louisville","state":"KY","address":"301 Oxmoor Lane","name":""},
  {"lat":40.305879,"lon":-111.736818,"city":"Vineyard","state":"UT","address":"484 N Entertainment Way","name":""},
  {"lat":40.093424,"lon":-75.414304,"city":"King of Prussia","state":"PA","address":"588 N Gulph Rd","name":""},
  {"lat":41.75251,"lon":-71.456994,"city":"Cranston","state":"RI","address":"120 Sockanosset Cross Road","name":""},
  {"lat":30.652377,"lon":-88.121875,"city":"Mobile","state":"AL","address":"1250 Satchel Paige Dr","name":""},
  {"lat":35.05432,"lon":-89.812245,"city":"Memphis","state":"TN","address":"3450 S Germantown Rd","name":""},
  {"lat":38.62478,"lon":-90.229751,"city":"St. Louis","state":"MO","address":"3201 Chouteau Ave","name":""},
  {"lat":42.194443,"lon":-71.151156,"city":"Canton","state":"MA","address":"777 Dedham St","name":""},
  {"lat":26.225464,"lon":-80.156317,"city":"Pompano Beach","state":"FL","address":"400 Lucky Lane","name":""},
  {"lat":30.15493,"lon":-92.041469,"city":"Lafayette","state":"LA","address":"301 Meadow Farm Rd","name":""},
  {"lat":34.717744,"lon":-92.403643,"city":"Little Rock","state":"AR","address":"5 Topgolf Way","name":""},
  {"lat":34.032183,"lon":-118.13342,"city":"Montebello","state":"CA","address":"100 Topgolf Drive","name":""},
  {"lat":36.062491,"lon":-79.902848,"city":"Greensboro","state":"NC","address":"609 Guilford College Rd","name":""},
  {"lat":41.562391,"lon":-93.812892,"city":"West Des Moines","state":"IA","address":"7680 Coachlight Drive","name":""},
  {"lat":37.59061,"lon":-122.35487,"city":"Burlingame","state":"CA","address":"258 Anza Boulevard","name":""},
  {"lat":32.447112,"lon":-90.13904,"city":"Ridgeland","state":"MS","address":"102 Topgolf Way","name":""},
  {"lat":30.636221,"lon":-96.365862,"city":"Bryan","state":"TX","address":"400 West Villa Maria Rd","name":""},
  {"lat":41.017388,"lon":-81.506752,"city":"Akron","state":"OH","address":"600 Swartz Rd","name":""},
  {"lat":30.216279,"lon":-85.868906,"city":"Panama City Beach","state":"FL","address":"15475 Topgolf Way","name":""},
  {"lat":29.726402,"lon":-98.068919,"city":"New Braunfels","state":"TX","address":"427 Creekside Way","name":""},
  {"lat":44.94215,"lon":-92.955194,"city":"Woodbury","state":"MN","address":"560 Bielenberg Drive","name":""},
  {"lat":41.465555,"lon":-82.005448,"city":"Avon","state":"OH","address":"35343 Chester Rd","name":""},
  {"lat":32.685853,"lon":-97.020943,"city":"Grand Prairie","state":"TX","address":"3670 South State Highway 161","name":""}]}