{"key":"travelodge","displayName":"Travelodge","category":"hotels","useLocationName":false,"locations":[
  {"lat":44.07812,"lon":-71.68573,"city":"Lincoln","state":"NH","address":"563 US Rt 3","name":""},
  {"lat":41.819105,"lon":-72.505035,"city":"Vernon","state":"CT","address":"51 Hartford Tpke","name":""},
  {"lat":45.7331,"lon":-91.931016,"city":"Shell Lake","state":"WI","address":"315 Hwy 63 South","name":""},
  {"lat":45.180375,"lon":-89.652602,"city":"Merrill","state":"WI","address":"200 South Pine Ridge Ave","name":""},
  {"lat":44.26288,"lon":-88.46418,"city":"Appleton","state":"WI","address":"3920 W College Ave","name":""},
  {"lat":42.75343,"lon":-87.8245,"city":"Racine","state":"WI","address":"3700 Northwestern Ave","name":""},
  {"lat":42.96002,"lon":-87.93687,"city":"Milwaukee","state":"WI","address":"1716 W Layton Ave","name":""},
  {"lat":38.913377,"lon":-79.838062,"city":"Elkins","state":"WV","address":"408 Allegheny Hwy","name":""},
  {"lat":39.2911,"lon":-77.851929,"city":"Charles Town","state":"WV","address":"642B E Washington St","name":""},
  {"lat":37.791246,"lon":-81.21363,"city":"Beckley","state":"WV","address":"1939 Harper Rd.","name":""},
  {"lat":39.26532,"lon":-81.506538,"city":"Parkersburg","state":"WV","address":"3604 East 7th Street","name":""},
  {"lat":44.7547,"lon":-108.7488,"city":"Powell","state":"WY","address":"777 E 2nd St","name":""},
  {"lat":44.83901,"lon":-108.39346,"city":"Lovell","state":"WY","address":"595 E Main St","name":""},
  {"lat":42.83012,"lon":-108.72157,"city":"Lander","state":"WY","address":"260 Grandview Dr","name":""},
  {"lat":44.01722,"lon":-107.936406,"city":"Worland","state":"WY","address":"2500 Big Horn Ave","name":""},
  {"lat":42.267148,"lon":-104.751685,"city":"Guernsey","state":"WY","address":"800 W Laramie St","name":""},
  {"lat":43.23086,"lon":-105.25727,"city":"Douglas","state":"WY","address":"3522 N Hwy 59","name":""},
  {"lat":41.15874,"lon":-104.80236,"city":"Cheyenne","state":"WY","address":"1625 Stillwater Avenue","name":""},
  {"lat":44.27354,"lon":-105.49063,"city":"Gillette","state":"WY","address":"2307 Wyoming Ave","name":""},
  {"lat":41.53835,"lon":-109.47909,"city":"Green River","state":"WY","address":"1170 W. Flaming Gorge Way","name":""},
  {"lat":39.119225,"lon":-100.848407,"city":"Oakley","state":"KS","address":"3506 US 40","name":""},
  {"lat":37.033607,"lon":-95.603296,"city":"Coffeyville","state":"KS","address":"820 East 11th Street","name":""},
  {"lat":38.893929,"lon":-101.751747,"city":"Sharon Springs","state":"KS","address":"109 east Commerce Street","name":""},
  {"lat":39.84089,"lon":-96.61444,"city":"Marysville","state":"KS","address":"1127 Pony Express Hwy","name":""},
  {"lat":37.80773,"lon":-94.70358,"city":"Fort Scott","state":"KS","address":"2505 US-69","name":""},
  {"lat":37.27438,"lon":-97.38412,"city":"Wellington","state":"KS","address":"1130A E 16th St","name":""},
  {"lat":46.859457,"lon":-96.838,"city":"Fargo","state":"ND","address":"1407 35th St S","name":""},
  {"lat":46.28931,"lon":-96.615065,"city":"Wahpeton","state":"ND","address":"995 21st Ave.N","name":""},
  {"lat":45.723898,"lon":-94.94995,"city":"Sauk Centre","state":"MN","address":"322 12th St S","name":""},
  {"lat":44.563262,"lon":-92.50313,"city":"Red Wing","state":"MN","address":"955 E. 7th St","name":""},
  {"lat":45.07157,"lon":-93.30561,"city":"Brooklyn Center","state":"MN","address":"6415 James Cir N","name":""},
  {"lat":44.54136,"lon":-95.11865,"city":"Redwood Falls","state":"MN","address":"1305 E. Bridge St.","name":""},
  {"lat":44.801521,"lon":-93.509254,"city":"Shakopee","state":"MN","address":"1251 East First Ave","name":""},
  {"lat":45.504373,"lon":-94.154389,"city":"Saint Cloud","state":"MN","address":"3820 Roosevelt Road","name":""},
  {"lat":39.634461,"lon":-75.806317,"city":"Elkton","state":"MD","address":"262 Belle Hill Rd","name":""},
  {"lat":38.412693,"lon":-75.566213,"city":"Salisbury","state":"MD","address":"2625b N Salisbury Blvd.","name":""},
  {"lat":39.09911,"lon":-76.80642,"city":"Laurel","state":"MD","address":"3380 Fort Meade Rd","name":""},
  {"lat":39.31888,"lon":-77.61512,"city":"Brunswick","state":"MD","address":"620 Souder Road","name":""},
  {"lat":38.98737,"lon":-77.028264,"city":"Silver Spring","state":"MD","address":"8040 13th Street","name":""},
  {"lat":39.52343,"lon":-76.189949,"city":"Aberdeen","state":"MD","address":"820 West Bel Air Avenue","name":""},
  {"lat":40.259138,"lon":-89.224008,"city":"Atlanta","state":"IL","address":"103 Empire Street","name":""},
  {"lat":40.736469,"lon":-89.623104,"city":"Peoria","state":"IL","address":"1822 W War Memorial Drive","name":""},
  {"lat":41.580707,"lon":-87.555188,"city":"Lansing","state":"IL","address":"17301 Oak Ave","name":""},
  {"lat":41.58047,"lon":-87.63456,"city":"South Holland","state":"IL","address":"17301A Halsted Street","name":""},
  {"lat":41.874274,"lon":-87.62535,"city":"Chicago","state":"IL","address":"65 East Harrison","name":""},
  {"lat":32.935334,"lon":-80.050853,"city":"North Charleston","state":"SC","address":"7415 Northside Dr","name":""},
  {"lat":33.48233,"lon":-80.464687,"city":"Santee","state":"SC","address":"9117 Old Number 6 Hwy","name":""},
  {"lat":32.927488,"lon":-80.687921,"city":"Walterboro","state":"SC","address":"1577 Bells Hwy","name":""},
  {"lat":33.552448,"lon":-80.826363,"city":"Orangeburg","state":"SC","address":"3620 Saint Matthews Rd","name":""},
  {"lat":36.367056,"lon":-97.89111,"city":"Enid","state":"OK","address":"2818 S. Van Buren St.","name":""},
  {"lat":36.68469,"lon":-101.47025,"city":"Guymon","state":"OK","address":"620 E Highway 54","name":""},
  {"lat":34.916204,"lon":-95.741617,"city":"McAlester","state":"OK","address":"2200 E South Ave","name":""},
  {"lat":35.220116,"lon":-97.483261,"city":"Norman","state":"OK","address":"225 North Interstate Dr","name":""},
  {"lat":40.671872,"lon":-73.844253,"city":"Ozone Park","state":"NY","address":"137-30 Redding St.","name":""},
  {"lat":40.728149,"lon":-73.231796,"city":"Bay Shore","state":"NY","address":"501 East Main St","name":""},
  {"lat":43.403605,"lon":-73.707941,"city":"Lake George","state":"NY","address":"2011 State Route 9","name":""},
  {"lat":43.093922,"lon":-78.956093,"city":"Niagara Falls","state":"NY","address":"9401 Niagara Falls Blvd","name":""},
  {"lat":42.713242,"lon":-73.818413,"city":"Albany","state":"NY","address":"42 Wolf Road","name":""},
  {"lat":40.791625,"lon":-73.702423,"city":"Manhasset","state":"NY","address":"1177 Northern Boulevard","name":""},
  {"lat":58.363758,"lon":-134.586212,"city":"Juneau","state":"AK","address":"9200 Glacier Highway","name":""},
  {"lat":40.855117,"lon":-96.648124,"city":"Lincoln","state":"NE","address":"5250 Cornhusker Hwy","name":""},
  {"lat":41.112435,"lon":-100.760189,"city":"North Platte","state":"NE","address":"451 Halligan Dr","name":""},
  {"lat":41.963553,"lon":-103.91769,"city":"Morrill","state":"NE","address":"707 E Webster St","name":""},
  {"lat":41.1173,"lon":-101.71181,"city":"Ogallala","state":"NE","address":"201 Stagecoach Trail","name":""},
  {"lat":40.908178,"lon":-98.339615,"city":"Grand Island","state":"NE","address":"1311 South Locust","name":""},
  {"lat":38.390906,"lon":-113.012531,"city":"Milford","state":"UT","address":"777 UT-21","name":""},
  {"lat":37.042221,"lon":-112.520042,"city":"Kanab","state":"UT","address":"386 East 300 South","name":""},
  {"lat":37.723669,"lon":-113.058409,"city":"Cedar City","state":"UT","address":"2555 North Freeway Drive","name":""},
  {"lat":35.651996,"lon":-93.284092,"city":"Branson","state":"MO","address":"3311 Shepherd of Hills Expy","name":""},
  {"lat":36.804797,"lon":-89.984287,"city":"Dexter","state":"MO","address":"1608 W Business US 60","name":""},
  {"lat":38.55707,"lon":-92.19484,"city":"Jefferson City","state":"MO","address":"1710 Jefferson Street","name":""},
  {"lat":39.373047,"lon":-94.77575,"city":"Platte City","state":"MO","address":"504 Prairie View Rd","name":""},
  {"lat":38.728889,"lon":-90.343369,"city":"Berkeley","state":"MO","address":"9645 Natural Bridge Road","name":""},
  {"lat":35.520937,"lon":-108.7637,"city":"Gallup","state":"NM","address":"1601 W Historic Hwy 66","name":""},
  {"lat":32.440936,"lon":-104.258535,"city":"Carlsbad","state":"NM","address":"2429 W Pierce St","name":""},
  {"lat":35.60404,"lon":-105.211521,"city":"Las Vegas","state":"NM","address":"1152 North Grand Avenue","name":""},
  {"lat":35.191608,"lon":-106.654366,"city":"Albuquerque","state":"NM","address":"6012 Iliff Rd NW 1521 Coors Blvd NW alternate","name":""},
  {"lat":36.732528,"lon":-108.194966,"city":"Farmington","state":"NM","address":"652 E Main St","name":""},
  {"lat":35.078163,"lon":-106.514352,"city":"Albuquerque","state":"NM","address":"601 Paisano St NE","name":""},
  {"lat":34.597564,"lon":-105.193183,"city":"Vaughn","state":"NM","address":"1005 Highway 285","name":""},
  {"lat":31.865193,"lon":-106.692908,"city":"Santa Teresa","state":"NM","address":"2680 Airport Rd","name":""},
  {"lat":34.65189,"lon":-106.7982,"city":"Belen","state":"NM","address":"2111 Camino Del Llano","name":""},
  {"lat":36.89583,"lon":-104.429999,"city":"Raton","state":"NM","address":"1600 Cedar St","name":""},
  {"lat":33.155758,"lon":-107.249845,"city":"Truth or Consequences","state":"NM","address":"2270 N Date St","name":""},
  {"lat":34.397095,"lon":-103.182716,"city":"Clovis","state":"NM","address":"1720 Mabry Drive","name":""},
  {"lat":33.3223,"lon":-105.62759,"city":"Ruidoso","state":"NM","address":"26000 US Highway 70","name":""},
  {"lat":42.888261,"lon":-72.55533,"city":"Brattleboro","state":"VT","address":"1254 Putney Road","name":""},
  {"lat":44.440986,"lon":-73.209935,"city":"South Burlington","state":"VT","address":"1016 Shelburne Road","name":""},
  {"lat":32.338656,"lon":-90.088548,"city":"Flowood","state":"MS","address":"4351 Lakeland Dr","name":""},
  {"lat":40.23253,"lon":-77.11706,"city":"Carlisle","state":"PA","address":"1800B Harrisburg Pike","name":""},
  {"lat":41.176406,"lon":-79.743284,"city":"Emlenton","state":"PA","address":"6318 Emlenton Clintonville Rd.","name":""},
  {"lat":39.86721,"lon":-75.30533,"city":"Essington","state":"PA","address":"43 Industrial Hwy","name":""},
  {"lat":40.295189,"lon":-76.625954,"city":"Hershey","state":"PA","address":"1043 East Chocolate Avenue","name":""},
  {"lat":39.934261,"lon":-77.649987,"city":"Chambersburg","state":"PA","address":"565 Lincoln Way East","name":""},
  {"lat":42.9244,"lon":-123.27809,"city":"Canyonville","state":"OR","address":"554 SW Pine St","name":""},
  {"lat":45.602955,"lon":-121.187988,"city":"The Dalles","state":"OR","address":"200 West 2nd Street","name":""},
  {"lat":43.976062,"lon":-124.103861,"city":"Florence","state":"OR","address":"1084 Hwy 101","name":""},
  {"lat":45.83205,"lon":-119.28647,"city":"Hermiston","state":"OR","address":"1110 SE 4th St.","name":""},
  {"lat":42.2211,"lon":-121.786949,"city":"Klamath Falls","state":"OR","address":"75 Main St","name":""},
  {"lat":44.814529,"lon":-124.062027,"city":"Depoe Bay","state":"OR","address":"50 Northeast Bechill Street","name":""},
  {"lat":44.646655,"lon":-124.053245,"city":"Newport","state":"OR","address":"1311 North Coast Highway","name":""},
  {"lat":44.388721,"lon":-123.05769,"city":"Halsey","state":"OR","address":"33180 Highway 228","name":""},
  {"lat":45.319427,"lon":-118.079231,"city":"La Grande","state":"OR","address":"2215 Adams Avenue","name":""},
  {"lat":42.461304,"lon":-123.323677,"city":"Grants Pass","state":"OR","address":"1950 Northwest Vine Street","name":""},
  {"lat":45.542953,"lon":-122.419356,"city":"Troutdale","state":"OR","address":"23705 NE Sandy Blvd","name":""},
  {"lat":45.304016,"lon":-122.951141,"city":"Newberg","state":"OR","address":"2816 Portland Road","name":""},
  {"lat":42.212292,"lon":-73.344688,"city":"Great Barrington","state":"MA","address":"400 Stockbridge Road","name":""},
  {"lat":41.664259,"lon":-70.176998,"city":"West Dennis","state":"MA","address":"99 Main Street","name":""},
  {"lat":30.554634,"lon":-91.551245,"city":"Livonia","state":"LA","address":"8233 Airline Highway","name":""},
  {"lat":32.486038,"lon":-93.771803,"city":"Shreveport","state":"LA","address":"2134 Greenwood Road","name":""},
  {"lat":41.618103,"lon":-83.690537,"city":"Holland","state":"OH","address":"1214B Corporate Drive","name":""},
  {"lat":41.418457,"lon":-81.792526,"city":"Brook Park","state":"OH","address":"14043 Brook Park Rd","name":""},
  {"lat":38.84459,"lon":-82.23971,"city":"Gallipolis","state":"OH","address":"260 Jackson Pike","name":""},
  {"lat":41.179349,"lon":-80.568204,"city":"Hubbard","state":"OH","address":"2375 North Main Street","name":""},
  {"lat":41.490158,"lon":-81.770943,"city":"Lakewood","state":"OH","address":"11837 Edgewater Drive","name":""},
  {"lat":40.696835,"lon":-82.514824,"city":"Mansfield","state":"OH","address":"90 West Hanley Road","name":""},
  {"lat":40.729359,"lon":-84.078247,"city":"Lima","state":"OH","address":"805 South Leonard Avenue","name":""},
  {"lat":38.52524,"lon":-118.6231,"city":"Hawthorne","state":"NV","address":"540 F St.","name":""},
  {"lat":39.533025,"lon":-119.815172,"city":"Reno","state":"NV","address":"636 North Virginia St.","name":""},
  {"lat":40.844181,"lon":-115.75132,"city":"Elko","state":"NV","address":"1785 Idaho Street","name":""},
  {"lat":37.33147,"lon":-79.99683,"city":"Roanoke","state":"VA","address":"6621 Thirlane Road","name":""},
  {"lat":37.143832,"lon":-77.357925,"city":"Petersburg","state":"VA","address":"12205 S Crater Rd Suite 102","name":""},
  {"lat":37.79141,"lon":-79.88477,"city":"Low Moor","state":"VA","address":"123 Westvaco Rd","name":""},
  {"lat":36.9112,"lon":-76.074692,"city":"Virginia Beach","state":"VA","address":"2968 Shore Drive","name":""},
  {"lat":36.847893,"lon":-75.974564,"city":"Virginia Beach","state":"VA","address":"1909 Atlantic Ave","name":""},
  {"lat":37.280865,"lon":-76.687523,"city":"Williamsburg","state":"VA","address":"834 Capitol Landing Road","name":""},
  {"lat":36.948289,"lon":-81.056939,"city":"Wytheville","state":"VA","address":"140 Lithia Road","name":""},
  {"lat":36.641239,"lon":-79.861626,"city":"Ridgeway","state":"VA","address":"3841 Greensboro Road","name":""},
  {"lat":39.160866,"lon":-78.157349,"city":"Winchester","state":"VA","address":"160 Front Royal Pike","name":""},
  {"lat":33.625922,"lon":-112.11468,"city":"Phoenix","state":"AZ","address":"2510 West Greenway Road","name":""},
  {"lat":34.153271,"lon":-114.290939,"city":"Parker","state":"AZ","address":"700 S California Ave","name":""},
  {"lat":32.69537,"lon":-114.6027,"city":"Yuma","state":"AZ","address":"1731 S. Sunridge Dr.","name":""},
  {"lat":35.223372,"lon":-114.005026,"city":"Kingman","state":"AZ","address":"3421 E Andy Devine Ave","name":""},
  {"lat":35.037993,"lon":-110.69785,"city":"Winslow","state":"AZ","address":"1706 N Park Dr","name":""},
  {"lat":32.337745,"lon":-111.068338,"city":"Tucson","state":"AZ","address":"4910 West Ina Road","name":""},
  {"lat":36.919643,"lon":-111.463165,"city":"Page","state":"AZ","address":"207 North Lake Powell Blvd","name":""},
  {"lat":33.4165,"lon":-110.827397,"city":"Globe","state":"AZ","address":"2119 West Highway 60","name":""},
  {"lat":34.485176,"lon":-114.352715,"city":"Lake Havasu City","state":"AZ","address":"480 London Bridge Road","name":""},
  {"lat":34.930998,"lon":-110.138597,"city":"Holbrook","state":"AZ","address":"2418 East Navajo Boulevard","name":""},
  {"lat":35.251949,"lon":-112.183113,"city":"Williams","state":"AZ","address":"430 East Route 66","name":""},
  {"lat":31.931305,"lon":-87.738741,"city":"Thomasville","state":"AL","address":"33691 Hwy 43 North","name":""},
  {"lat":30.584337,"lon":-88.171357,"city":"Mobile","state":"AL","address":"5472B Inn Road","name":""},
  {"lat":32.365396,"lon":-86.209894,"city":"Montgomery","state":"AL","address":"5837 Monticello Drive","name":""},
  {"lat":33.17018,"lon":-87.52737,"city":"Tuscaloosa","state":"AL","address":"4122 McFarland Blvd. E","name":""},
  {"lat":39.806669,"lon":-86.284222,"city":"Indianapolis","state":"IN","address":"2930 Waterfront Pkwy West Dr","name":""},
  {"lat":39.838392,"lon":-84.823769,"city":"Richmond","state":"IN","address":"5775 National Rd E","name":""},
  {"lat":41.734705,"lon":-85.975502,"city":"Elkhart","state":"IN","address":"115 Northpointe Blvd.","name":""},
  {"lat":41.734705,"lon":-85.975502,"city":"Elkhart","state":"IN","address":"115 Northpointe Blvd","name":""},
  {"lat":41.13047,"lon":-85.16264,"city":"Fort Wayne","state":"IN","address":"5710 Challenger Pkwy","name":""},
  {"lat":38.95771,"lon":-85.838632,"city":"Seymour","state":"IN","address":"306 South Commerce Drive","name":""},
  {"lat":39.164387,"lon":-86.499842,"city":"Bloomington","state":"IN","address":"2615 East Third Street","name":""},
  {"lat":39.461038,"lon":-87.413646,"city":"Terre Haute","state":"IN","address":"530 South 3rd Street","name":""},
  {"lat":38.372578,"lon":-85.757637,"city":"Sellersburg","state":"IN","address":"7618 Old State Road 60","name":""},
  {"lat":41.621582,"lon":-86.738571,"city":"LaPorte","state":"IN","address":"438 Pine Lake Ave.","name":""},
  {"lat":40.623017,"lon":-93.898455,"city":"Lamoni","state":"IA","address":"2013 East Main Street","name":""},
  {"lat":43.42266,"lon":-95.119577,"city":"Spirit Lake","state":"IA","address":"1905 18th St","name":""},
  {"lat":41.818839,"lon":-90.240984,"city":"Clinton","state":"IA","address":"2300 Valley West Ct","name":""},
  {"lat":41.5524,"lon":-95.9107,"city":"Missouri Valley","state":"IA","address":"128 Willow Rd","name":""},
  {"lat":41.684563,"lon":-91.503952,"city":"Iowa City","state":"IA","address":"2216 North Dodge Street","name":""},
  {"lat":44.397144,"lon":-103.508085,"city":"Sturgis","state":"SD","address":"2431 Junction Ave","name":""},
  {"lat":44.100439,"lon":-103.200884,"city":"Rapid City","state":"SD","address":"1550 N. LaCrosse Street","name":""},
  {"lat":44.371744,"lon":-100.361332,"city":"Pierre","state":"SD","address":"700 W Sioux Ave","name":""},
  {"lat":43.303286,"lon":-103.830988,"city":"Edgemont","state":"SD","address":"108 6th Ave","name":""},
  {"lat":44.38799,"lon":-103.716984,"city":"Deadwood","state":"SD","address":"250 Main St","name":""},
  {"lat":44.47664,"lon":-103.82157,"city":"Spearfish","state":"SD","address":"2275 E Colorado Blvd","name":""},
  {"lat":43.98716,"lon":-102.240318,"city":"Wall","state":"SD","address":"211 10th Ave","name":""},
  {"lat":44.061687,"lon":-103.234856,"city":"Rapid City","state":"SD","address":"2505 Mount Rushmore Road","name":""},
  {"lat":38.487568,"lon":-107.861646,"city":"Montrose","state":"CO","address":"1702 E Main Street","name":""},
  {"lat":38.320738,"lon":-104.617299,"city":"Pueblo","state":"CO","address":"4703 North Freeway Rd","name":""},
  {"lat":37.165807,"lon":-104.511481,"city":"Trinidad","state":"CO","address":"702 W Main St","name":""},
  {"lat":39.298674,"lon":-102.605002,"city":"Stratton","state":"CO","address":"700 Colorado Ave","name":""},
  {"lat":39.21733,"lon":-105.99345,"city":"Fairplay","state":"CO","address":"249 US Hwy 285","name":""},
  {"lat":38.838719,"lon":-104.698861,"city":"Colorado Springs","state":"CO","address":"6875 Space Village Ave","name":""},
  {"lat":40.14984,"lon":-106.90794,"city":"Yampa","state":"CO","address":"98 Moffat Ave","name":""},
  {"lat":40.407917,"lon":-105.051659,"city":"Loveland","state":"CO","address":"1655 East Eisenhower Blvd","name":""},
  {"lat":40.160563,"lon":-104.982573,"city":"Longmont","state":"CO","address":"3820 State Highway 119","name":""},
  {"lat":32.66682,"lon":-97.135822,"city":"Arlington","state":"TX","address":"1740 Oak Village Blvd","name":""},
  {"lat":33.467187,"lon":-94.065836,"city":"Texarkana","state":"TX","address":"1924 St. Michael Drive","name":""},
  {"lat":28.844834,"lon":-97.874084,"city":"Kenedy","state":"TX","address":"4312 S Hwy 181","name":""},
  {"lat":28.544463,"lon":-99.847506,"city":"Carrizo Springs","state":"TX","address":"122 Loop 517","name":""},
  {"lat":28.4432,"lon":-99.2424,"city":"Cotulla","state":"TX","address":"638 N Baylor St.","name":""},
  {"lat":28.4773,"lon":-98.179325,"city":"Three Rivers","state":"TX","address":"5842 Hwy 281","name":""},
  {"lat":32.25666,"lon":-101.46791,"city":"Big Spring","state":"TX","address":"901 East Interstate 20","name":""},
  {"lat":32.334524,"lon":-102.555113,"city":"Andrews","state":"TX","address":"2530 NW Mustang Drive","name":""},
  {"lat":29.451951,"lon":-98.421017,"city":"San Antonio","state":"TX","address":"3821 North Panam Expressway","name":""},
  {"lat":29.4034,"lon":-98.62689,"city":"San Antonio","state":"TX","address":"6861 W Highway 90","name":""},
  {"lat":29.917001,"lon":-95.618013,"city":"Houston","state":"TX","address":"13290 FM 1960 Road West","name":""},
  {"lat":28.80802,"lon":-96.98403,"city":"Victoria","state":"TX","address":"1906 Houston Hwy","name":""},
  {"lat":30.366288,"lon":-103.637467,"city":"Alpine","state":"TX","address":"2407 E Holland Ave","name":""},
  {"lat":31.42867,"lon":-103.49542,"city":"Pecos","state":"TX","address":"22 N Frontage Rd","name":""},
  {"lat":29.652539,"lon":-95.260096,"city":"Houston","state":"TX","address":"8850 Airport Blvd.","name":""},
  {"lat":29.699223,"lon":-98.091423,"city":"New Braunfels","state":"TX","address":"375 Hwy 46 W","name":""},
  {"lat":31.088884,"lon":-97.391031,"city":"Temple","state":"TX","address":"4001 South General Bruce DR","name":""},
  {"lat":32.834,"lon":-97.210197,"city":"North Richland Hills","state":"TX","address":"7920 Bedford Euless Road","name":""},
  {"lat":30.710235,"lon":-101.193849,"city":"Ozona","state":"TX","address":"8 11th Street","name":""},
  {"lat":31.094213,"lon":-97.734543,"city":"Killeen","state":"TX","address":"810 E Central Texas Expressway","name":""},
  {"lat":31.871164,"lon":-102.318298,"city":"Odessa","state":"TX","address":"3075 East Business Loop 20","name":""},
  {"lat":45.769252,"lon":-84.731402,"city":"Mackinaw City","state":"MI","address":"112 Old US 31 Hwy","name":""},
  {"lat":42.366741,"lon":-83.407357,"city":"Livonia","state":"MI","address":"36655B Plymouth Road","name":""},
  {"lat":42.280918,"lon":-83.43871,"city":"Canton","state":"MI","address":"40500 Michigan Ave","name":""},
  {"lat":42.532278,"lon":-83.111702,"city":"Madison Heights","state":"MI","address":"32700 Barrington St.","name":""},
  {"lat":45.0274,"lon":-84.6738,"city":"Gaylord..","state":"MI","address":"833 W Main St.","name":""},
  {"lat":42.741041,"lon":-84.658255,"city":"Lansing","state":"MI","address":"7326 W Saginaw Hwy","name":""},
  {"lat":43.014186,"lon":-85.688118,"city":"Grand Rapids","state":"MI","address":"777 Three Mile Rd Nw","name":""},
  {"lat":45.756489,"lon":-87.077084,"city":"Escanaba","state":"MI","address":"921 N Lincoln Rd","name":""},
  {"lat":42.238787,"lon":-83.347285,"city":"Romulus","state":"MI","address":"9095 Wickham Rd","name":""},
  {"lat":41.800251,"lon":-85.418694,"city":"Sturgis","state":"MI","address":"1301 South Centerville Road","name":""},
  {"lat":44.755096,"lon":-85.575798,"city":"Traverse City","state":"MI","address":"704 Munson Ave","name":""},
  {"lat":42.846836,"lon":-85.859367,"city":"Hudsonville","state":"MI","address":"3005 Corporate Grove Drive 2","name":""},
  {"lat":42.276197,"lon":-84.386521,"city":"Jackson","state":"MI","address":"901 Rosehill Drive","name":""},
  {"lat":42.261178,"lon":-85.191381,"city":"Battle Creek","state":"MI","address":"5395 Beckley Rd","name":""},
  {"lat":43.191034,"lon":-86.240562,"city":"Muskegon","state":"MI","address":"3380 Hoyt Street","name":""},
  {"lat":46.869075,"lon":-113.983871,"city":"Missoula","state":"MT","address":"800 E Broadway St","name":""},
  {"lat":46.396237,"lon":-105.822634,"city":"Miles City","state":"MT","address":"1314 S Haynes Ave","name":""},
  {"lat":45.920575,"lon":-111.597379,"city":"Three Forks","state":"MT","address":"10776 US Highway 287","name":""},
  {"lat":45.037451,"lon":-110.715747,"city":"Gardiner","state":"MT","address":"109 Hellroaring St","name":""},
  {"lat":45.646999,"lon":-110.574425,"city":"Livingston","state":"MT","address":"102 Rogers Lane","name":""},
  {"lat":48.203644,"lon":-114.316833,"city":"Kalispell","state":"MT","address":"350 North Main Street","name":""},
  {"lat":35.899869,"lon":-84.175957,"city":"Knoxville","state":"TN","address":"805 N Campbell Station Rd","name":""},
  {"lat":35.80051,"lon":-83.56878,"city":"Pigeon Forge","state":"TN","address":"2825 parkway","name":""},
  {"lat":35.783321,"lon":-83.549843,"city":"Pigeon Forge","state":"TN","address":"3661 Parkway","name":""},
  {"lat":35.679498,"lon":-88.830952,"city":"Jackson","state":"TN","address":"2659 N Highland Ave","name":""},
  {"lat":36.598552,"lon":-87.285841,"city":"Clarksville","state":"TN","address":"3100 Wilma Rudolph Blvd","name":""},
  {"lat":35.061261,"lon":-90.014849,"city":"Memphis","state":"TN","address":"1471 EAST BROOKS ROAD","name":""},
  {"lat":36.003941,"lon":-83.779236,"city":"Knoxville","state":"TN","address":"7471 Crosswood Blvd","name":""},
  {"lat":29.627606,"lon":-82.338947,"city":"Gainesville","state":"FL","address":"2649 SW 13th Street","name":""},
  {"lat":28.33492,"lon":-81.49828,"city":"Kissimmee","state":"FL","address":"5367 W Irlo Bronson","name":""},
  {"lat":28.334329,"lon":-81.586159,"city":"Kissimmee","state":"FL","address":"7475B W Irlo Bronson Memorial","name":""},
  {"lat":27.071733,"lon":-82.423438,"city":"Venice","state":"FL","address":"1710 S Tamiami Trail","name":""},
  {"lat":27.961711,"lon":-82.73068,"city":"Clearwater","state":"FL","address":"20788 US Highway 19 N","name":""},
  {"lat":28.462233,"lon":-81.461409,"city":"Orlando","state":"FL","address":"7200 International Dr","name":""},
  {"lat":28.874695,"lon":-81.280663,"city":"Deltona","state":"FL","address":"481 Deltona Blvd","name":""},
  {"lat":28.086785,"lon":-81.971269,"city":"Lakeland","state":"FL","address":"3425 Highway 98 North","name":""},
  {"lat":26.545933,"lon":-81.798882,"city":"Fort Myers","state":"FL","address":"13661 Indian Paint Lane","name":""},
  {"lat":27.206635,"lon":-80.812592,"city":"Okeechobee","state":"FL","address":"1527 US Highway 441 Southeast","name":""},
  {"lat":26.137627,"lon":-80.13089,"city":"Fort Lauderdale","state":"FL","address":"1251 East Sunrise Boulevard","name":""},
  {"lat":29.919443,"lon":-81.323853,"city":"Saint Augustine","state":"FL","address":"290 San Marco Avenue","name":""},
  {"lat":30.256,"lon":-82.121814,"city":"MacClenny","state":"FL","address":"1651 South 6th Street","name":""},
  {"lat":25.443953,"lon":-80.473781,"city":"Florida City","state":"FL","address":"409 S.E. 1st Ave","name":""},
  {"lat":26.661794,"lon":-81.886657,"city":"North Fort Myers","state":"FL","address":"13353 North Cleveland Avenue","name":""},
  {"lat":39.862236,"lon":-75.077079,"city":"Bellmawr","state":"NJ","address":"341 S. Blackhorse Pike","name":""},
  {"lat":39.40366,"lon":-74.494446,"city":"Absecon","state":"NJ","address":"539 East Absecon Blvd","name":""},
  {"lat":40.578857,"lon":-74.286674,"city":"Avenel","state":"NJ","address":"969 US 1","name":""},
  {"lat":40.759565,"lon":-74.051619,"city":"Jersey City","state":"NJ","address":"881 Tonnele Ave","name":""},
  {"lat":40.858173,"lon":-74.050339,"city":"South Hackensack","state":"NJ","address":"636 Huyler Street","name":""},
  {"lat":40.860916,"lon":-74.370789,"city":"Parsippany","state":"NJ","address":"625 Rt 46 East","name":""},
  {"lat":40.415845,"lon":-120.648075,"city":"Susanville","state":"CA","address":"1705 Main Street","name":""},
  {"lat":40.179037,"lon":-122.230014,"city":"Red Bluff","state":"CA","address":"38 Antelope Blvd","name":""},
  {"lat":38.153435,"lon":-122.253397,"city":"Vallejo","state":"CA","address":"4326 Sonoma Blvd","name":""},
  {"lat":34.073746,"lon":-117.780588,"city":"Pomona","state":"CA","address":"1700 Gillette Rd","name":""},
  {"lat":37.97088,"lon":-122.01106,"city":"Concord","state":"CA","address":"3555 Clayton road","name":""},
  {"lat":32.83822,"lon":-115.5704,"city":"Imperial","state":"CA","address":"1093 Airport Rd","name":""},
  {"lat":34.901569,"lon":-116.89006,"city":"Yermo","state":"CA","address":"35450 Yermo Road","name":""},
  {"lat":34.07328,"lon":-117.93663,"city":"West Covina","state":"CA","address":"1431 West Garvey Ave N","name":""},
  {"lat":33.789284,"lon":-118.302443,"city":"Harbor City","state":"CA","address":"1440 Pacific Coast Highway","name":""},
  {"lat":41.754768,"lon":-124.204369,"city":"Crescent City","state":"CA","address":"444 US Highway 101 S","name":""},
  {"lat":33.60832,"lon":-114.606588,"city":"Blythe","state":"CA","address":"900 W Rice Street","name":""},
  {"lat":33.801371,"lon":-116.533371,"city":"Palm Springs","state":"CA","address":"1269 E. Palm Canyon Dr.","name":""},
  {"lat":41.2354,"lon":-122.267,"city":"Dunsmuir","state":"CA","address":"4000 Siskiyou Ave.","name":""},
  {"lat":33.86594,"lon":-117.99439,"city":"Buena Park","state":"CA","address":"6532 Auto Center Dr","name":""},
  {"lat":33.976059,"lon":-118.186638,"city":"Bell","state":"CA","address":"6600 Atlantic Ave","name":""},
  {"lat":33.857334,"lon":-117.942223,"city":"Fullerton","state":"CA","address":"1415 South Euclid St","name":""},
  {"lat":37.05637,"lon":-120.858131,"city":"Los Banos","state":"CA","address":"349 West Pacheco Blvd.","name":""},
  {"lat":33.908058,"lon":-117.905357,"city":"Brea","state":"CA","address":"805 South Brea Blvd","name":""},
  {"lat":33.746704,"lon":-116.99958,"city":"Hemet","state":"CA","address":"2625 West Florida Avenue","name":""},
  {"lat":38.08734,"lon":-120.570219,"city":"Angels Camp","state":"CA","address":"600 North Main St","name":""},
  {"lat":34.238571,"lon":-116.935516,"city":"Big Bear Lake","state":"CA","address":"39471 Big Bear Blvd","name":""},
  {"lat":38.218411,"lon":-122.1341,"city":"Fairfield","state":"CA","address":"4625 Central Way","name":""},
  {"lat":32.79454,"lon":-116.96685,"city":"El Cajon","state":"CA","address":"425 West Main St","name":""},
  {"lat":35.366915,"lon":-119.038965,"city":"Bakersfield","state":"CA","address":"1011 Oak Street","name":""},
  {"lat":33.818684,"lon":-117.923141,"city":"Anaheim","state":"CA","address":"1057 West Ball Road","name":""},
  {"lat":34.890373,"lon":-116.999336,"city":"Barstow","state":"CA","address":"1630 East Main St","name":""},
  {"lat":34.933102,"lon":-120.435371,"city":"Santa Maria","state":"CA","address":"1514 South Broadway","name":""},
  {"lat":36.25573,"lon":-120.25174,"city":"Coalinga","state":"CA","address":"25278 West Dorris Ave","name":""},
  {"lat":37.473194,"lon":-120.850349,"city":"Turlock","state":"CA","address":"201 W Glenwood Ave","name":""},
  {"lat":37.366085,"lon":-118.393997,"city":"Bishop","state":"CA","address":"155 East Elm Street","name":""},
  {"lat":40.598946,"lon":-122.38549,"city":"Redding","state":"CA","address":"540 North Market Street","name":""},
  {"lat":38.626133,"lon":-122.87532,"city":"Healdsburg","state":"CA","address":"178 Dry Creek Road","name":""},
  {"lat":33.924919,"lon":-116.895508,"city":"Banning","state":"CA","address":"1700 West Ramsey Street","name":""},
  {"lat":37.805246,"lon":-122.417369,"city":"San Francisco","state":"CA","address":"1201 Columbus Avenue","name":""},
  {"lat":38.420574,"lon":-122.714134,"city":"Santa Rosa","state":"CA","address":"1815 Santa Rosa Avenue","name":""},
  {"lat":34.146488,"lon":-118.10672,"city":"Pasadena","state":"CA","address":"2131 East Colorado Blvd.","name":""},
  {"lat":37.89341,"lon":-122.517151,"city":"Mill Valley","state":"CA","address":"707 Redwood Highway","name":""},
  {"lat":33.926933,"lon":-118.211174,"city":"Lynwood","state":"CA","address":"11401 Long Beach Blvd.","name":""},
  {"lat":37.294769,"lon":-120.460274,"city":"Merced","state":"CA","address":"1260 Yosemite Parkway","name":""},
  {"lat":33.410976,"lon":-117.600266,"city":"San Clemente","state":"CA","address":"2441 South El Camino Real","name":""},
  {"lat":33.92775,"lon":-118.396767,"city":"El Segundo","state":"CA","address":"1804 East Sycamore Ave.","name":""},
  {"lat":37.801544,"lon":-122.425575,"city":"San Francisco","state":"CA","address":"1450 Lombard Street","name":""},
  {"lat":33.7073,"lon":-116.266097,"city":"Indio","state":"CA","address":"80651 Highway 111","name":""},
  {"lat":33.645611,"lon":-117.915749,"city":"Costa Mesa","state":"CA","address":"1951 Newport Blvd.","name":""},
  {"lat":34.00877,"lon":-118.413322,"city":"Culver City","state":"CA","address":"11180 Washington Place","name":""},
  {"lat":37.643997,"lon":-122.405548,"city":"South San Francisco","state":"CA","address":"326 South Airport Blvd","name":""},
  {"lat":32.748043,"lon":-117.20754,"city":"San Diego","state":"CA","address":"3275 Rosecrans Street","name":""},
  {"lat":38.94891,"lon":-122.631638,"city":"Clearlake","state":"CA","address":"4775 Old Highway 53","name":""},
  {"lat":33.973465,"lon":-118.122757,"city":"Commerce","state":"CA","address":"7810 East Telegraph Rd","name":""},
  {"lat":38.563213,"lon":-121.337448,"city":"Sacramento","state":"CA","address":"9646 Micron Avenue","name":""},
  {"lat":33.98325,"lon":-118.054733,"city":"Whittier","state":"CA","address":"11530 Whittier Blvd","name":""},
  {"lat":34.322902,"lon":-118.460563,"city":"Sylmar","state":"CA","address":"14955 Roxford Street","name":""},
  {"lat":36.595043,"lon":-121.865746,"city":"Monterey","state":"CA","address":"2030 North Fremont Street","name":""},
  {"lat":33.767804,"lon":-118.184894,"city":"Long Beach","state":"CA","address":"80 Atlantic Avenue","name":""},
  {"lat":40.801911,"lon":-124.171308,"city":"Eureka","state":"CA","address":"4 4th Street","name":""},
  {"lat":34.170212,"lon":-118.347763,"city":"Burbank","state":"CA","address":"1112 North Hollywood Way","name":""},
  {"lat":37.798264,"lon":-122.446747,"city":"San Francisco","state":"CA","address":"2755 Lombard Street","name":""},
  {"lat":33.712273,"lon":-118.063889,"city":"Sunset Beach","state":"CA","address":"17205 Pacific Coast Hwy","name":""},
  {"lat":46.645763,"lon":-122.955839,"city":"Chehalis","state":"WA","address":"122 SW Interstate Ave","name":""},
  {"lat":47.178271,"lon":-122.293125,"city":"Puyallup","state":"WA","address":"1409 S Meridian","name":""},
  {"lat":47.691101,"lon":-122.343956,"city":"Seattle","state":"WA","address":"8512 Aurora Avenue North","name":""},
  {"lat":46.971226,"lon":-123.823059,"city":"Aberdeen","state":"WA","address":"521 West Wishkah Street","name":""},
  {"lat":47.436241,"lon":-120.321831,"city":"Wenatchee","state":"WA","address":"1004 North Wenatchee Ave","name":""},
  {"lat":47.976978,"lon":-122.201965,"city":"Everett","state":"WA","address":"3030 Broadway","name":""},
  {"lat":47.620148,"lon":-122.344597,"city":"Seattle","state":"WA","address":"200 6th Avenue North","name":""},
  {"lat":34.643102,"lon":-79.013833,"city":"Lumberton","state":"NC","address":"3510 Capuano Road","name":""},
  {"lat":35.006533,"lon":-78.816843,"city":"Fayetteville","state":"NC","address":"2076 Cedar Creek Rd","name":""},
  {"lat":36.019238,"lon":-75.661186,"city":"Kill Devil Hills","state":"NC","address":"804 North Virginia Dare Trail NC 12","name":""},
  {"lat":30.899571,"lon":-84.568314,"city":"Bainbridge","state":"GA","address":"710 S Scott St","name":""},
  {"lat":32.505224,"lon":-84.948231,"city":"Columbus","state":"GA","address":"2919 Warm Springs Rd","name":""},
  {"lat":32.807112,"lon":-83.726835,"city":"Macon","state":"GA","address":"4952 Romeiser Drive","name":""},
  {"lat":34.47407,"lon":-84.92272,"city":"Calhoun","state":"GA","address":"716 HWY 53 East SE","name":""},
  {"lat":33.1432,"lon":-83.8752,"city":"Forsyth","state":"GA","address":"320 Cabiness Road","name":""},
  {"lat":34.275,"lon":-84.81,"city":"Cartersville","state":"GA","address":"35 Carson Loop NW","name":""},
  {"lat":30.789702,"lon":-81.657347,"city":"Kingsland","state":"GA","address":"1224 Boone Ave","name":""},
  {"lat":33.619144,"lon":-84.470726,"city":"College Park","state":"GA","address":"2471 Old National Parkway","name":""},
  {"lat":31.961306,"lon":-83.759806,"city":"Cordele","state":"GA","address":"1618 East 16th Avenue","name":""},
  {"lat":31.929433,"lon":-81.329285,"city":"Richmond Hill","state":"GA","address":"4120 Highway 17","name":""},
  {"lat":32.448456,"lon":-83.751656,"city":"Perry","state":"GA","address":"100 Westview Lane I-75, Exit 135","name":""},
  {"lat":33.59005,"lon":-84.377754,"city":"Forest Park","state":"GA","address":"6025 Old Dixie Highway","name":""}]}