{"key":"walmart","displayName":"Walmart","category":"shopping","useLocationName":false,"locations":[
  {"lat":39.938168,"lon":-91.332345,"city":"Quincy","state":"IL","address":"5211 Broadway St","name":""},
  {"lat":39.604775,"lon":-90.822308,"city":"Pittsfield","state":"IL","address":"151 Shetland Dr","name":""},
  {"lat":39.724869,"lon":-91.400117,"city":"Hannibal","state":"MO","address":"3650 Stardust Dr","name":""},
  {"lat":39.996828,"lon":-90.394454,"city":"Beardstown","state":"IL","address":"100 Lincoln Ave","name":""},
  {"lat":39.719871,"lon":-90.270787,"city":"Jacksonville","state":"IL","address":"1941 W Morton Ave","name":""},
  {"lat":39.330597,"lon":-91.181694,"city":"Bowling Green","state":"MO","address":"3 Town Center Dr","name":""},
  {"lat":40.461045,"lon":-90.641518,"city":"Macomb","state":"IL","address":"1730 E Jackson St","name":""},
  {"lat":40.417702,"lon":-91.410651,"city":"Keokuk","state":"IA","address":"300 No. Park Drive","name":""},
  {"lat":38.988754,"lon":-90.981993,"city":"Troy","state":"MO","address":"101 Highway 47 E","name":""},
  {"lat":40.814226,"lon":-91.160891,"city":"West","state":"IA","address":"324 W Agency Rd","name":""},
  {"lat":39.103554,"lon":-90.318415,"city":"Jerseyville","state":"IL","address":"1316 S State St","name":""},
  {"lat":39.752139,"lon":-89.710342,"city":"Springfield","state":"IL","address":"3401 Freedom Dr","name":""},
  {"lat":40.592292,"lon":-90.033266,"city":"Canton","state":"IL","address":"2071 N Main St","name":""},
  {"lat":39.744855,"lon":-89.639356,"city":"Springfield","state":"IL","address":"1100 Lejune Dr","name":""},
  {"lat":39.267994,"lon":-89.894417,"city":"Carlinville","state":"IL","address":"18600 Shipman Blackt","name":""},
  {"lat":39.839481,"lon":-89.600888,"city":"Springfield","state":"IL","address":"2760 N Dirksen Pkwy","name":""},
  {"lat":39.120571,"lon":-91.890755,"city":"Mexico","state":"MO","address":"4820 S Clark St","name":""},
  {"lat":38.823341,"lon":-91.142661,"city":"Warrenton","state":"MO","address":"500 Warren County Ctr","name":""},
  {"lat":38.814215,"lon":-90.878928,"city":"Wentzville","state":"MO","address":"1971 Wentzville Pkwy","name":""},
  {"lat":38.964634,"lon":-90.196267,"city":"Godfrey","state":"IL","address":"6660 Godfrey Rd","name":""},
  {"lat":38.794104,"lon":-90.702677,"city":"O Fallon","state":"MO","address":"1307 Highway K","name":""},
  {"lat":38.772398,"lon":-90.786615,"city":"Lake St. Louis","state":"MO","address":"6100 Ronald Reagan Dr","name":""},
  {"lat":38.774005,"lon":-90.626038,"city":"St. Peters","state":"MO","address":"3031 Mid Rivers Mall Dr","name":""},
  {"lat":38.778815,"lon":-90.580243,"city":"St. Peters","state":"MO","address":"45 Sutters Mill Rd","name":""},
  {"lat":39.753883,"lon":-92.463896,"city":"Macon","state":"MO","address":"705 E Briggs Dr","name":""},
  {"lat":40.979041,"lon":-91.541849,"city":"Mount Pleasant","state":"IA","address":"1045 N Grand Ave","name":""},
  {"lat":38.782374,"lon":-90.528043,"city":"St. Charles","state":"MO","address":"2897 Veterans Memorial Pkwy","name":""},
  {"lat":40.981599,"lon":-90.360042,"city":"Galesburg","state":"IL","address":"659 Knox Square Dr","name":""},
  {"lat":38.745007,"lon":-90.588538,"city":"St. Peters","state":"MO","address":"1661 Jungermann Rd","name":""},
  {"lat":38.811104,"lon":-90.292515,"city":"Florissant","state":"MO","address":"3390 N Highway 67","name":""},
  {"lat":39.447673,"lon":-92.420452,"city":"Moberly","state":"MO","address":"1301 E Highway 24","name":""},
  {"lat":40.537942,"lon":-89.594972,"city":"Pekin","state":"IL","address":"3320 Veterans Dr","name":""},
  {"lat":40.154263,"lon":-89.398031,"city":"Lincoln","state":"IL","address":"825 Malerich Dr","name":""},
  {"lat":39.185516,"lon":-89.668415,"city":"Litchfield","state":"IL","address":"1205 W Ferdon St","name":""},
  {"lat":38.744891,"lon":-90.418707,"city":"Bridgeton","state":"MO","address":"11900 St Charles Rock Rd","name":""},
  {"lat":38.870509,"lon":-90.070258,"city":"Wood River","state":"IL","address":"610 Wesley Dr","name":""},
  {"lat":38.765978,"lon":-90.283606,"city":"St. Louis","state":"MO","address":"10741 West Florissant Ave","name":""},
  {"lat":38.665861,"lon":-90.591551,"city":"Chesterfield","state":"MO","address":"100 Thf Blvd","name":""},
  {"lat":40.216654,"lon":-92.579573,"city":"Kirksville","state":"MO","address":"2206 N Baltimore St","name":""},
  {"lat":38.864222,"lon":-91.945748,"city":"Fulton","state":"MO","address":"1701 N Bluff St","name":""},
  {"lat":39.569623,"lon":-89.315248,"city":"Taylorville","state":"IL","address":"1530 W Springfield Rd","name":""},
  {"lat":41.197904,"lon":-90.731953,"city":"Aledo","state":"IL","address":"1500 Se 5th St","name":""},
  {"lat":40.683757,"lon":-89.584962,"city":"East Peoria","state":"IL","address":"401 River Rd","name":""},
  {"lat":40.728366,"lon":-89.615818,"city":"Peoria","state":"IL","address":"3315 N University St","name":""},
  {"lat":38.736533,"lon":-90.141487,"city":"Granite City","state":"IL","address":"379 W Pontoon Rd","name":""},
  {"lat":40.796213,"lon":-89.634432,"city":"Peoria","state":"IL","address":"8915 N Allen Rd","name":""},
  {"lat":38.595981,"lon":-90.506728,"city":"Manchester","state":"MO","address":"201 Highlands Boulevard Dr","name":""},
  {"lat":40.630189,"lon":-89.461783,"city":"Morton","state":"IL","address":"155 E Courtland St","name":""},
  {"lat":41.007653,"lon":-91.993235,"city":"Fairfield","state":"IA","address":"2701 W Burlington Ave","name":""},
  {"lat":38.540459,"lon":-90.995238,"city":"Washington","state":"MO","address":"1701 A Roy Dr","name":""},
  {"lat":40.840816,"lon":-115.792428,"city":"Elko","state":"NV","address":"2944 Mountain City Hwy","name":""},
  {"lat":42.590666,"lon":-114.483057,"city":"Twin Falls","state":"ID","address":"252 Cheney Dr W","name":""},
  {"lat":42.694065,"lon":-114.515193,"city":"Jerome","state":"ID","address":"2680 S Lincoln Ave","name":""},
  {"lat":61.140195,"lon":-149.869863,"city":"Anchorage","state":"AK","address":"8900 Old Seward Hwy","name":""},
  {"lat":61.211988,"lon":-149.743184,"city":"Anchorage","state":"AK","address":"7405 Debarr Road","name":""},
  {"lat":61.309037,"lon":-149.535439,"city":"Eagle River","state":"AK","address":"18600 Eagle River Rd","name":""},
  {"lat":61.192239,"lon":-149.879581,"city":"Anchorage","state":"AK","address":"3101 A St","name":""},
  {"lat":61.568719,"lon":-149.365105,"city":"Wasilla","state":"AK","address":"1350 S Seward Meridian Pkwy","name":""},
  {"lat":60.564278,"lon":-151.225228,"city":"Kenai","state":"AK","address":"10096 Kenai Spur Hwy","name":""},
  {"lat":42.263954,"lon":-89.628318,"city":"Freeport","state":"IL","address":"2545 Il Route 26 S","name":""},
  {"lat":42.609646,"lon":-89.663551,"city":"Monroe","state":"WI","address":"300 6th Ave West","name":""},
  {"lat":42.313061,"lon":-89.113867,"city":"Rockford","state":"IL","address":"3902 W Riverside Blvd","name":""},
  {"lat":42.453894,"lon":-89.024093,"city":"Roscoe","state":"IL","address":"4781 E Rockton Rd","name":""},
  {"lat":42.315262,"lon":-89.031824,"city":"Rockford","state":"IL","address":"3849 Northridge Dr","name":""},
  {"lat":42.526467,"lon":-88.986166,"city":"Beloit","state":"WI","address":"2785 Milwaukee Rd","name":""},
  {"lat":42.266166,"lon":-88.973392,"city":"Rockford","state":"IL","address":"7219 Walton St","name":""},
  {"lat":42.435047,"lon":-90.445777,"city":"Galena","state":"IL","address":"10000 Bartel Blvd","name":""},
  {"lat":42.919756,"lon":-89.252756,"city":"Stoughton","state":"WI","address":"2600 State Highway 138","name":""},
  {"lat":42.725718,"lon":-88.986589,"city":"Janesville","state":"WI","address":"3800 Deerfield Dr","name":""},
  {"lat":41.815564,"lon":-89.644796,"city":"Sterling","state":"IL","address":"4115 E Lincolnway","name":""},
  {"lat":41.827442,"lon":-89.471721,"city":"Dixon","state":"IL","address":"1640 S Galena Ave","name":""},
  {"lat":42.736083,"lon":-90.438061,"city":"Platteville","state":"WI","address":"1800 Progressive Pkwy","name":""},
  {"lat":42.973738,"lon":-90.120021,"city":"Dodgeville","state":"WI","address":"601 E Leffler St","name":""},
  {"lat":43.051987,"lon":-89.509157,"city":"Madison","state":"WI","address":"7202 Watts Rd","name":""},
  {"lat":41.763361,"lon":-89.687051,"city":"Rock Falls","state":"IL","address":"1901 1st Ave","name":""},
  {"lat":43.042519,"lon":-89.349918,"city":"Monona","state":"WI","address":"2151 Royal Ave","name":""},
  {"lat":42.238256,"lon":-88.817278,"city":"Belvidere","state":"IL","address":"2101 Gateway Center Dr","name":""},
  {"lat":41.937185,"lon":-89.051771,"city":"Rochelle","state":"IL","address":"311 E Route 38","name":""},
  {"lat":41.818652,"lon":-90.242685,"city":"Clinton","state":"IA","address":"2715 S 25th St","name":""},
  {"lat":43.111058,"lon":-89.312831,"city":"Madison","state":"WI","address":"4198 Nakoosa Trl","name":""},
  {"lat":42.487546,"lon":-90.736286,"city":"Dubuque","state":"IA","address":"4200 Dodge St","name":""},
  {"lat":42.406199,"lon":-88.611159,"city":"Harvard","state":"IL","address":"21101 Mcguire Rd","name":""},
  {"lat":42.836394,"lon":-88.756566,"city":"Whitewater","state":"WI","address":"1362 W Main St","name":""},
  {"lat":42.048821,"lon":-90.662826,"city":"Maquoketa","state":"IA","address":"103 E Carlisle","name":""},
  {"lat":43.173711,"lon":-89.246586,"city":"Sun Prairie","state":"WI","address":"1905 Mccoy Rd","name":""},
  {"lat":42.630718,"lon":-88.612483,"city":"Delavan","state":"WI","address":"1819 E Geneva St","name":""},
  {"lat":42.987614,"lon":-88.807869,"city":"Jefferson","state":"WI","address":"1520 S Main St","name":""},
  {"lat":41.949344,"lon":-88.721519,"city":"Dekalb","state":"IL","address":"2300 Sycamore Rd","name":""},
  {"lat":42.297594,"lon":-88.422922,"city":"Woodstock","state":"IL","address":"1275 Lake Ave","name":""},
  {"lat":42.591124,"lon":-88.412057,"city":"Lake Geneva","state":"WI","address":"201 S Edwards Blvd","name":""},
  {"lat":42.151522,"lon":-88.428895,"city":"Huntley","state":"IL","address":"12300 Route 47","name":""},
  {"lat":43.312611,"lon":-90.348978,"city":"Richland Center","state":"WI","address":"2401 Us Hwy 14 E","name":""},
  {"lat":43.162076,"lon":-88.730179,"city":"Watertown","state":"WI","address":"1901 Market Way","name":""},
  {"lat":43.458503,"lon":-89.772532,"city":"Baraboo","state":"WI","address":"920 State Road 136","name":""},
  {"lat":42.155217,"lon":-88.339729,"city":"Algonquin","state":"IL","address":"1410 S Randall Rd","name":""},
  {"lat":41.396549,"lon":-89.462833,"city":"Princeton","state":"IL","address":"2111 Claude Bailey Pkwy","name":""},
  {"lat":41.580751,"lon":-90.524325,"city":"Davenport","state":"IA","address":"5811 Elmore Ave","name":""},
  {"lat":41.432856,"lon":-90.155204,"city":"Geneseo","state":"IL","address":"125 E Bestor Dr","name":""},
  {"lat":42.368864,"lon":-88.271362,"city":"Johnsburg","state":"IL","address":"3801 Running Brk Farm Blvd","name":""},
  {"lat":42.209328,"lon":-88.282838,"city":"Crystal","state":"IL","address":"1205 S Il Route 31","name":""},
  {"lat":41.494392,"lon":-90.402201,"city":"Silvis","state":"IL","address":"1601 18th St","name":""},
  {"lat":42.003542,"lon":-88.339693,"city":"Elgin","state":"IL","address":"1100 S Randall Rd","name":""},
  {"lat":42.703441,"lon":-88.254122,"city":"Burlington","state":"WI","address":"1901 Milwaukee Ave","name":""},
  {"lat":42.854196,"lon":-88.314849,"city":"Mukwonago","state":"WI","address":"250 Wolf Run","name":""},
  {"lat":42.119505,"lon":-88.261654,"city":"Carpentersville","state":"IL","address":"365 Lake Marian Road","name":""},
  {"lat":41.557447,"lon":-90.622671,"city":"Davenport","state":"IA","address":"3101 W Kimberly Rd","name":""},
  {"lat":41.468532,"lon":-90.480049,"city":"Moline","state":"IL","address":"3930 44th Avenue Dr","name":""},
  {"lat":41.373099,"lon":-89.122693,"city":"Peru","state":"IL","address":"5307 Rt. 251","name":""},
  {"lat":41.652922,"lon":-88.563423,"city":"Plano","state":"IL","address":"6800 W Us Highway 34","name":""},
  {"lat":40.862262,"lon":-82.271282,"city":"Ashland","state":"OH","address":"1996 E Main St","name":""},
  {"lat":41.266577,"lon":-82.223781,"city":"Oberlin","state":"OH","address":"46440 Us Route 20","name":""},
  {"lat":40.762215,"lon":-82.594946,"city":"Ontario","state":"OH","address":"359 N Lexington Springmill Rd","name":""},
  {"lat":40.847577,"lon":-81.941671,"city":"Wooster","state":"OH","address":"3883 Burbank Rd","name":""},
  {"lat":40.691738,"lon":-82.508106,"city":"Mansfield","state":"OH","address":"2485 Possum Run Rd","name":""},
  {"lat":41.261711,"lon":-82.617059,"city":"Norwalk","state":"OH","address":"340 Westwind Dr","name":""},
  {"lat":41.162035,"lon":-81.859196,"city":"Medina","state":"OH","address":"4141 Pearl Rd","name":""},
  {"lat":41.350947,"lon":-82.067295,"city":"Elyria","state":"OH","address":"1000 Chestnut Commons Dr","name":""},
  {"lat":41.052608,"lon":-81.724969,"city":"Wadsworth","state":"OH","address":"222 E Smokerise Dr","name":""},
  {"lat":41.430204,"lon":-82.208011,"city":"Lorain","state":"OH","address":"4380 Leavitt Rd","name":""},
  {"lat":41.404731,"lon":-82.655651,"city":"Sandusky","state":"OH","address":"5500 Milan Rd Ste 200","name":""},
  {"lat":40.810123,"lon":-82.946357,"city":"Bucyrus","state":"OH","address":"1875 E Mansfield St","name":""},
  {"lat":41.346314,"lon":-81.819635,"city":"Strongsville","state":"OH","address":"8585 Pearl Rd","name":""},
  {"lat":41.466354,"lon":-82.016057,"city":"Avon","state":"OH","address":"35901 Chester Rd","name":""},
  {"lat":41.134603,"lon":-81.632005,"city":"Fairlawn","state":"OH","address":"3750 W Market St","name":""},
  {"lat":41.417864,"lon":-81.896852,"city":"North Olmsted","state":"OH","address":"24801 Brookpark Rd","name":""},
  {"lat":40.533463,"lon":-81.919583,"city":"Millersburg","state":"OH","address":"1640 S Washington St","name":""},
  {"lat":41.382354,"lon":-81.744403,"city":"Parma","state":"OH","address":"8303 W Ridgewood Dr","name":""},
  {"lat":40.404811,"lon":-82.441578,"city":"Mount Vernon","state":"OH","address":"1575 Coshocton Ave","name":""},
  {"lat":41.420513,"lon":-81.754117,"city":"Cleveland","state":"OH","address":"10000 Brookpark Rd","name":""},
  {"lat":40.992552,"lon":-81.489164,"city":"Akron","state":"OH","address":"2887 S Arlington Rd","name":""},
  {"lat":40.765473,"lon":-81.522918,"city":"Massillon","state":"OH","address":"1 Massillon Marketplace Dr Sw","name":""},
  {"lat":41.165835,"lon":-81.480055,"city":"Stow","state":"OH","address":"3520 Hudson Dr","name":""},
  {"lat":41.461581,"lon":-81.692713,"city":"Cleveland","state":"OH","address":"3400 Steelyard Dr","name":""},
  {"lat":40.870926,"lon":-81.433373,"city":"North Canton","state":"OH","address":"4572 Mega St Nw","name":""},
  {"lat":41.520074,"lon":-82.863167,"city":"Port Clinton","state":"OH","address":"2826 East Harbor Rd","name":""},
  {"lat":41.310017,"lon":-81.519326,"city":"Macedonia","state":"OH","address":"8160 Macedonia Commons Blvd","name":""},
  {"lat":41.112105,"lon":-83.221498,"city":"Tiffin","state":"OH","address":"2801 W State Route 18","name":""},
  {"lat":40.794098,"lon":-81.422166,"city":"Canton","state":"OH","address":"4004 Tuscarawas St W","name":""},
  {"lat":40.584009,"lon":-83.088355,"city":"Marion","state":"OH","address":"1546 Marion-mt. Gilead Road","name":""},
  {"lat":41.097718,"lon":-81.383771,"city":"Kent","state":"OH","address":"250 Tallmadge Rd","name":""},
  {"lat":40.834561,"lon":-83.232302,"city":"Upper Sandusky","state":"OH","address":"1855 E Wyandot Ave","name":""},
  {"lat":41.374632,"lon":-83.119987,"city":"Fremont","state":"OH","address":"2052 N State Route 53","name":""},
  {"lat":40.833989,"lon":-81.329163,"city":"Canton","state":"OH","address":"3200 Atlantic Blvd Ne","name":""},
  {"lat":41.252664,"lon":-81.362039,"city":"Streetsboro","state":"OH","address":"905 Singletary Dr","name":""},
  {"lat":40.295123,"lon":-81.850449,"city":"Coshocton","state":"OH","address":"23605 Airport Rd","name":""},
  {"lat":41.156052,"lon":-81.299615,"city":"Ravenna","state":"OH","address":"2600 State Route 59","name":""},
  {"lat":41.508862,"lon":-81.540276,"city":"South Euclid","state":"OH","address":"1868 Warrensville Center Rd","name":""},
  {"lat":41.349361,"lon":-81.389644,"city":"Aurora","state":"OH","address":"7235 Market Place Dr","name":""},
  {"lat":40.495942,"lon":-81.470256,"city":"New","state":"OH","address":"231 Bluebell Dr Sw","name":""},
  {"lat":40.899959,"lon":-81.160812,"city":"Alliance","state":"OH","address":"2700 W State St","name":""},
  {"lat":40.085707,"lon":-82.430723,"city":"Newark","state":"OH","address":"1315 N 21st St","name":""},
  {"lat":40.265998,"lon":-83.073637,"city":"Delaware","state":"OH","address":"1760 Columbus Pike","name":""},
  {"lat":41.640702,"lon":-81.446935,"city":"Eastlake","state":"OH","address":"33752 Vine St","name":""},
  {"lat":40.028417,"lon":-82.452264,"city":"Heath","state":"OH","address":"911 Hebron Rd","name":""},
  {"lat":41.057471,"lon":-83.594348,"city":"Findlay","state":"OH","address":"2500 Tiffin Ave","name":""},
  {"lat":40.165177,"lon":-83.015852,"city":"Lewis Center","state":"OH","address":"8659 Columbus Pike","name":""},
  {"lat":40.111341,"lon":-82.924041,"city":"Westerville","state":"OH","address":"50 E Schrock Rd","name":""},
  {"lat":41.586203,"lon":-81.226511,"city":"Chardon","state":"OH","address":"223 Meadowlands Dr","name":""},
  {"lat":40.657293,"lon":-83.583847,"city":"Kenton","state":"OH","address":"1241 E Columbus St","name":""},
  {"lat":25.925142,"lon":-97.477003,"city":"Brownsville","state":"TX","address":"2721 Boca Chica Blvd","name":""},
  {"lat":25.952421,"lon":-97.480925,"city":"Brownsville","state":"TX","address":"2205 Ruben Torres Sr Blvd","name":""},
  {"lat":25.975307,"lon":-97.520422,"city":"Brownsville","state":"TX","address":"3500 W Alton Gloor Blvd","name":""},
  {"lat":26.074583,"lon":-97.491285,"city":"Los Fresnos","state":"TX","address":"1004 W Ocean Boulevard","name":""},
  {"lat":26.068962,"lon":-97.222583,"city":"Port Isabel","state":"TX","address":"1401 State Highway 100","name":""},
  {"lat":26.147796,"lon":-97.634459,"city":"San Benito","state":"TX","address":"1126 W Us Highway 77","name":""},
  {"lat":26.180679,"lon":-97.716961,"city":"Harlingen","state":"TX","address":"1801 W Lincoln St","name":""},
  {"lat":26.142036,"lon":-97.991581,"city":"Weslaco","state":"TX","address":"1600 S Texas Blvd","name":""},
  {"lat":26.174739,"lon":-97.987763,"city":"Weslaco","state":"TX","address":"1310 N Texas Blvd","name":""},
  {"lat":26.183241,"lon":-98.038444,"city":"Donna","state":"TX","address":"900 N Salinas Boulevard","name":""},
  {"lat":26.287471,"lon":-97.990585,"city":"Elsa","state":"TX","address":"411 South Broadway Street","name":""},
  {"lat":26.191081,"lon":-98.131375,"city":"Alamo","state":"TX","address":"1421 Frontage Rd","name":""},
  {"lat":26.125271,"lon":-98.219485,"city":"Hidalgo","state":"TX","address":"3000 S Jackson Rd","name":""},
  {"lat":26.271323,"lon":-98.151805,"city":"Edinburg","state":"TX","address":"2812 S Expressway 281","name":""},
  {"lat":26.188533,"lon":-98.210023,"city":"McAllen","state":"TX","address":"1200 E Jackson Ave","name":""},
  {"lat":26.236042,"lon":-98.205346,"city":"McAllen","state":"TX","address":"800 East Nolana Ave","name":""},
  {"lat":26.267626,"lon":-98.204579,"city":"Edinburg","state":"TX","address":"4101 S Mccoll Rd","name":""},
  {"lat":26.301314,"lon":-98.181018,"city":"Edinburg","state":"TX","address":"1724 W University Dr","name":""},
  {"lat":26.256318,"lon":-98.235897,"city":"McAllen","state":"TX","address":"5700 N 23rd Street","name":""},
  {"lat":26.243753,"lon":-98.244601,"city":"McAllen","state":"TX","address":"2800 W Nolana Ave","name":""},
  {"lat":26.193621,"lon":-98.287178,"city":"Mission","state":"TX","address":"2410 E Expressway 83","name":""},
  {"lat":26.214181,"lon":-98.308221,"city":"Mission","state":"TX","address":"1006 N Bryan Road","name":""},
  {"lat":26.260718,"lon":-98.315665,"city":"Palmhurst","state":"TX","address":"215 E Mile 3 Rd","name":""},
  {"lat":26.246633,"lon":-98.442873,"city":"Penitas","state":"TX","address":"1705 Expressway 83","name":""},
  {"lat":26.365718,"lon":-98.794913,"city":"Rio Grande City","state":"TX","address":"4534 E Us Highway 83","name":""},
  {"lat":39.466692,"lon":-75.208916,"city":"Bridgeton","state":"NJ","address":"1130 Highway 77","name":""},
  {"lat":39.612102,"lon":-75.504704,"city":"Pennsville","state":"NJ","address":"709 S Broadway","name":""},
  {"lat":39.489511,"lon":-75.047427,"city":"Vineland","state":"NJ","address":"1070 W Landis Ave","name":""},
  {"lat":39.425285,"lon":-75.035735,"city":"Millville","state":"NJ","address":"2291 N 2nd St","name":""},
  {"lat":39.729253,"lon":-75.035251,"city":"Turnersville","state":"NJ","address":"3501 Route 42","name":""},
  {"lat":39.662379,"lon":-74.961398,"city":"Williamstown","state":"NJ","address":"1840 S Black Horse Pike","name":""},
  {"lat":39.832612,"lon":-75.129309,"city":"Woodbury","state":"NJ","address":"820 Cooper St","name":""},
  {"lat":39.653547,"lon":-75.621852,"city":"New Castle","state":"DE","address":"117 Wilton Blvd","name":""},
  {"lat":39.863651,"lon":-75.340771,"city":"Eddystone","state":"PA","address":"1570 Chester Pike","name":""},
  {"lat":39.844239,"lon":-75.091648,"city":"Deptford","state":"NJ","address":"2000 Clements Bridge Rd Ste 100","name":""},
  {"lat":39.85194,"lon":-75.449254,"city":"Boothwyn","state":"PA","address":"605 Conchester Hwy","name":""},
  {"lat":39.733869,"lon":-75.618532,"city":"Wilmington","state":"DE","address":"1251 Centerville Rd","name":""},
  {"lat":39.907201,"lon":-75.292132,"city":"Glenolden","state":"PA","address":"50 N Macdade Blvd","name":""},
  {"lat":39.854824,"lon":-75.024256,"city":"Somerdale","state":"NJ","address":"1 Coopertown Blvd","name":""},
  {"lat":39.892128,"lon":-75.084217,"city":"Audubon","state":"NJ","address":"130 Black Horse Pike","name":""},
  {"lat":39.808346,"lon":-74.927725,"city":"West Berlin","state":"NJ","address":"265 N Route 73","name":""},
  {"lat":39.926547,"lon":-75.141384,"city":"Philadelphia","state":"PA","address":"1675 S Christopher Columbus Blvd","name":""},
  {"lat":39.938993,"lon":-75.356285,"city":"Springfield","state":"PA","address":"400 S State Rd","name":""},
  {"lat":39.648473,"lon":-74.784907,"city":"Hammonton","state":"NJ","address":"55 S White Horse Pike","name":""},
  {"lat":39.446329,"lon":-75.737871,"city":"Middletown","state":"DE","address":"705 Middletown Warwick Rd","name":""},
  {"lat":39.938592,"lon":-75.044627,"city":"Cherry Hill","state":"NJ","address":"500 Route 38","name":""},
  {"lat":39.603188,"lon":-75.792787,"city":"Elkton","state":"MD","address":"1000 E Pulaski Hwy","name":""},
  {"lat":39.896243,"lon":-74.915418,"city":"Marlton","state":"NJ","address":"150 E Route 70","name":""},
  {"lat":39.931354,"lon":-74.962909,"city":"Mount Laurel","state":"NJ","address":"934 Route 73","name":""},
  {"lat":39.216724,"lon":-75.570866,"city":"Dover","state":"DE","address":"36 Jerome Dr","name":""},
  {"lat":39.861153,"lon":-75.690187,"city":"Kennett Square","state":"PA","address":"516 School House Rd","name":""},
  {"lat":39.999062,"lon":-75.091761,"city":"Philadelphia","state":"PA","address":"2200 Wheatsheaf Ln","name":""},
  {"lat":40.031617,"lon":-75.099474,"city":"Philadelphia","state":"PA","address":"4600 Roosevelt Blvd Bldg G","name":""},
  {"lat":40.007822,"lon":-74.980924,"city":"Cinnaminson","state":"NJ","address":"2501 Route 130 S","name":""},
  {"lat":39.452146,"lon":-74.653333,"city":"Mays Landing","state":"NJ","address":"4620 Black Horse Pike","name":""},
  {"lat":40.082145,"lon":-75.168633,"city":"Wyncote","state":"PA","address":"1000 Easton Rd Ste 200","name":""},
  {"lat":40.083514,"lon":-75.398587,"city":"King of Prussia","state":"PA","address":"275 N Gulph Rd","name":""},
  {"lat":39.102653,"lon":-75.546172,"city":"Camden","state":"DE","address":"263 Walmart Dr","name":""},
  {"lat":39.610029,"lon":-75.951518,"city":"North East","state":"MD","address":"75 North East Plz","name":""},
  {"lat":40.022381,"lon":-75.633385,"city":"Exton","state":"PA","address":"270 Indian Run St","name":""},
  {"lat":40.083012,"lon":-75.022603,"city":"Philadelphia","state":"PA","address":"9745 Roosevelt Blvd Ste A","name":""},
  {"lat":39.977436,"lon":-74.768533,"city":"Lumberton","state":"NJ","address":"1740 Route 38","name":""},
  {"lat":40.083282,"lon":-74.962809,"city":"Philadelphia","state":"PA","address":"4301 Byberry Road","name":""},
  {"lat":40.127508,"lon":-75.401412,"city":"Norristown","state":"PA","address":"650 S Trooper Rd","name":""},
  {"lat":40.047581,"lon":-74.842684,"city":"Burlington","state":"NJ","address":"2106 Mount Holly Rd","name":""},
  {"lat":39.396304,"lon":-74.552645,"city":"Egg Hbr Twp","state":"NJ","address":"6801 Black Horse Pike","name":""},
  {"lat":39.796823,"lon":-75.979062,"city":"Oxford","state":"PA","address":"800 Commons Dr","name":""},
  {"lat":40.158529,"lon":-75.139187,"city":"Willow Grove","state":"PA","address":"2101 Blair Mill Rd","name":""},
  {"lat":40.136561,"lon":-74.967566,"city":"Bensalem","state":"PA","address":"3461 Horizon Blvd","name":""},
  {"lat":39.021146,"lon":-74.872923,"city":"Rio Grande","state":"NJ","address":"3159 Route 9 South","name":""},
  {"lat":40.194805,"lon":-75.080852,"city":"Warminster","state":"PA","address":"100 E Street Rd","name":""},
  {"lat":39.979913,"lon":-75.933743,"city":"Parkesburg","state":"PA","address":"100 Commons Dr","name":""},
  {"lat":40.220279,"lon":-75.138469,"city":"Warrington","state":"PA","address":"299 Valley Gate Dr","name":""},
  {"lat":38.929245,"lon":-75.435194,"city":"Milford","state":"DE","address":"939 N Dupont Blvd","name":""},
  {"lat":40.141962,"lon":-74.822463,"city":"Levittown","state":"PA","address":"180 Levittown Ctr","name":""},
  {"lat":37.811906,"lon":-80.429277,"city":"Lewisburg","state":"WV","address":"1976 Jefferson St N","name":""},
  {"lat":37.767378,"lon":-79.990957,"city":"Covington","state":"VA","address":"313 Thacker Ave","name":""},
  {"lat":37.329419,"lon":-80.708539,"city":"Pearisburg","state":"VA","address":"160 Kinter Way","name":""},
  {"lat":37.290049,"lon":-80.089027,"city":"Salem","state":"VA","address":"1851 W Main St","name":""},
  {"lat":37.805553,"lon":-81.176878,"city":"Beckley","state":"WV","address":"1330 N Eisenhower Dr","name":""},
  {"lat":38.034292,"lon":-81.119714,"city":"Fayetteville","state":"WV","address":"204 Town Center Rd","name":""},
  {"lat":38.304631,"lon":-80.835519,"city":"Summersville","state":"WV","address":"200 Wal St","name":""},
  {"lat":37.322204,"lon":-79.935944,"city":"Roanoke","state":"VA","address":"4950 Plantation Rd","name":""},
  {"lat":37.300852,"lon":-79.960681,"city":"Roanoke","state":"VA","address":"4807 Valley View Blvd Nw","name":""},
  {"lat":37.754257,"lon":-81.222451,"city":"Macarthur","state":"WV","address":"1881 Robert C Byrd Dr","name":""},
  {"lat":37.160551,"lon":-80.425764,"city":"Christiansburg","state":"VA","address":"2400 N Franklin St","name":""},
  {"lat":37.359532,"lon":-81.043891,"city":"Princeton","state":"WV","address":"201 Greasy Ridge Rd","name":""},
  {"lat":37.325497,"lon":-79.873406,"city":"Roanoke","state":"VA","address":"4524 Challenger Ave","name":""},
  {"lat":37.152051,"lon":-80.584059,"city":"Fairlawn","state":"VA","address":"7373 Peppers Ferry Blvd","name":""},
  {"lat":37.272951,"lon":-79.909687,"city":"Roanoke","state":"VA","address":"2141 Dale Ave","name":""},
  {"lat":37.206757,"lon":-79.950787,"city":"Roanoke","state":"VA","address":"5350 Clearbrook Village Ln","name":""},
  {"lat":37.084046,"lon":-80.694436,"city":"Dublin","state":"VA","address":"5225 Alexander Rd","name":""},
  {"lat":37.805879,"lon":-79.409875,"city":"Lexington","state":"VA","address":"1233 N Lee Hwy","name":""},
  {"lat":37.237836,"lon":-81.254067,"city":"Bluefield","state":"VA","address":"4001 College Ave","name":""},
  {"lat":37.325966,"lon":-79.496971,"city":"Bedford","state":"VA","address":"1126 E Lynchburg Salem Tpke","name":""},
  {"lat":37.013618,"lon":-79.863379,"city":"Rocky Mount","state":"VA","address":"550 Old Franklin Tpke","name":""},
  {"lat":38.707085,"lon":-80.665117,"city":"Sutton","state":"WV","address":"369 Scott Frk","name":""},
  {"lat":38.202251,"lon":-81.505779,"city":"Quincy","state":"WV","address":"1001 Warrior Way","name":""},
  {"lat":36.956265,"lon":-81.099002,"city":"Wytheville","state":"VA","address":"345 Commonwealth Dr","name":""},
  {"lat":37.365439,"lon":-79.262471,"city":"Forest","state":"VA","address":"16807 Forest Rd","name":""},
  {"lat":37.410758,"lon":-79.209474,"city":"Lynchburg","state":"VA","address":"3227 Old Forest Rd","name":""},
  {"lat":37.322584,"lon":-79.252851,"city":"Lynchburg","state":"VA","address":"22088 Timberlake Rd","name":""},
  {"lat":37.353858,"lon":-79.185642,"city":"Lynchburg","state":"VA","address":"3900 Wards Rd","name":""},
  {"lat":37.461433,"lon":-79.115598,"city":"Madison Heights","state":"VA","address":"197 Madison Heights Sq","name":""},
  {"lat":37.143292,"lon":-79.269715,"city":"Altavista","state":"VA","address":"125 Clarion Rd","name":""},
  {"lat":38.319675,"lon":-81.713938,"city":"South","state":"WV","address":"2700 Mountaineer Blvd","name":""},
  {"lat":36.692631,"lon":-80.881085,"city":"Galax","state":"VA","address":"1140 E Stuart Dr","name":""},
  {"lat":38.134716,"lon":-79.048172,"city":"Staunton","state":"VA","address":"1028 Richmond Ave","name":""},
  {"lat":36.638695,"lon":-80.244444,"city":"Stuart","state":"VA","address":"19265 Jeb Stuart Hwy","name":""},
  {"lat":36.694051,"lon":-79.902381,"city":"Martinsville","state":"VA","address":"976 Commonwealth Blvd","name":""},
  {"lat":38.89277,"lon":-79.843625,"city":"Elkins","state":"WV","address":"40 Jett Ln","name":""},
  {"lat":38.067831,"lon":-78.933084,"city":"Waynesboro","state":"VA","address":"116 Lucy Ln","name":""},
  {"lat":38.998038,"lon":-80.234958,"city":"Buckhannon","state":"WV","address":"100 Buckhannon Crossroads","name":""},
  {"lat":39.019898,"lon":-80.414981,"city":"Weston","state":"WV","address":"110 Berlin Rd","name":""},
  {"lat":38.797766,"lon":-81.350371,"city":"Spencer","state":"WV","address":"97 Williams Dr","name":""},
  {"lat":38.411349,"lon":-81.807562,"city":"Cross Lanes","state":"WV","address":"100 Nitro Market Pl","name":""},
  {"lat":38.071412,"lon":-78.894642,"city":"Waynesboro","state":"VA","address":"1211 W Broad St Ste A","name":""},
  {"lat":37.065436,"lon":-81.731763,"city":"Pounding Mill","state":"VA","address":"13320 G.c. Peery Hwy","name":""},
  {"lat":36.846533,"lon":-81.500801,"city":"Marion","state":"VA","address":"1193 N Main St","name":""},
  {"lat":37.860114,"lon":-82.044399,"city":"Logan","state":"WV","address":"77 Norman Morgan Blvd","name":""},
  {"lat":36.471908,"lon":-80.618467,"city":"Mount Airy","state":"NC","address":"2241 Rockford St","name":""},
  {"lat":37.366026,"lon":-78.841242,"city":"Appomattox","state":"VA","address":"505 Oakville Rd","name":""},
  {"lat":38.433395,"lon":-78.910329,"city":"Harrisonburg","state":"VA","address":"2160 John Wayland Hwy","name":""},
  {"lat":38.405186,"lon":-78.864097,"city":"Rockingham","state":"VA","address":"1942 Port Republic Rd","name":""},
  {"lat":38.435273,"lon":-78.853116,"city":"Harrisonburg","state":"VA","address":"171 Burgess Road","name":""},
  {"lat":47.931066,"lon":-97.114677,"city":"Grand Forks","state":"ND","address":"5755 Gateway Dr","name":""},
  {"lat":47.887026,"lon":-97.064843,"city":"Grand Forks","state":"ND","address":"2551 32nd Ave S","name":""},
  {"lat":48.112331,"lon":-96.150001,"city":"Thief River Falls","state":"MN","address":"1755 Highway 59 S","name":""},
  {"lat":47.791576,"lon":-96.607311,"city":"Crookston","state":"MN","address":"1930 Sahlstrom Dr","name":""},
  {"lat":48.097995,"lon":-98.841814,"city":"Devils","state":"ND","address":"1424 Hwy 2 E","name":""},
  {"lat":64.856378,"lon":-147.689549,"city":"Fairbanks","state":"AK","address":"537 Johansen Expy","name":""},
  {"lat":26.057197,"lon":-81.696951,"city":"Naples","state":"FL","address":"6650 Collier Blvd","name":""},
  {"lat":26.125188,"lon":-81.762656,"city":"Naples","state":"FL","address":"3451 Tamiami Trl E","name":""},
  {"lat":48.181959,"lon":-103.630329,"city":"Williston","state":"ND","address":"4001 2nd Ave W","name":""},
  {"lat":44.524755,"lon":-68.392943,"city":"Ellsworth","state":"ME","address":"17 Myrick St","name":""},
  {"lat":44.091578,"lon":-69.137888,"city":"Thomaston","state":"ME","address":"55 Thomaston Commons Way","name":""},
  {"lat":44.774399,"lon":-68.732323,"city":"Brewer","state":"ME","address":"24 Walton Dr","name":""},
  {"lat":44.839885,"lon":-68.749351,"city":"Bangor","state":"ME","address":"900 Stillwater Ave","name":""},
  {"lat":45.174961,"lon":-67.279073,"city":"Calais","state":"ME","address":"379 South St","name":""},
  {"lat":34.477058,"lon":-91.549053,"city":"Stuttgart","state":"AR","address":"406 E 22nd St","name":""},
  {"lat":34.805277,"lon":-91.894102,"city":"Lonoke","state":"AR","address":"322 Brownsville Loop","name":""},
  {"lat":34.786506,"lon":-92.214675,"city":"North Little Rock","state":"AR","address":"4450 E Mccain Blvd","name":""},
  {"lat":34.173882,"lon":-92.003129,"city":"Pine Bluff","state":"AR","address":"5501 S Olive St","name":""},
  {"lat":34.885192,"lon":-92.112673,"city":"Jacksonville","state":"AR","address":"2000 John Harden Dr","name":""},
  {"lat":34.953376,"lon":-92.006983,"city":"Cabot","state":"AR","address":"1203 S Pine St","name":""},
  {"lat":34.835257,"lon":-92.233082,"city":"Sherwood","state":"AR","address":"8801 Highway 107","name":""},
  {"lat":34.838869,"lon":-92.236771,"city":"Sherwood","state":"AR","address":"9053 Highway 107","name":""},
  {"lat":34.667121,"lon":-92.377125,"city":"Little Rock","state":"AR","address":"8801 Baseline Rd","name":""},
  {"lat":34.976507,"lon":-92.040706,"city":"Cabot","state":"AR","address":"304 S Rockwood Dr","name":""},
  {"lat":34.728364,"lon":-92.397805,"city":"Little Rock","state":"AR","address":"2700 S Shackleford Rd","name":""},
  {"lat":34.748298,"lon":-92.410519,"city":"Little Rock","state":"AR","address":"700 Bowman Rd","name":""},
  {"lat":35.065651,"lon":-91.905412,"city":"Beebe","state":"AR","address":"2003 W Center St","name":""},
  {"lat":34.291396,"lon":-92.397128,"city":"Sheridan","state":"AR","address":"1308 S Rock St","name":""},
  {"lat":34.831972,"lon":-92.394811,"city":"North Little Rock","state":"AR","address":"12001 Maumelle Blvd","name":""},
  {"lat":34.624163,"lon":-92.494462,"city":"Bryant","state":"AR","address":"400 Bryant Ave","name":""},
  {"lat":34.809468,"lon":-92.485983,"city":"Little Rock","state":"AR","address":"19301 Cantrell Rd","name":""},
  {"lat":34.577512,"lon":-92.580185,"city":"Benton","state":"AR","address":"17309 Interstate 30 S","name":""},
  {"lat":35.245796,"lon":-91.750311,"city":"Searcy","state":"AR","address":"1330 W Beebe Capps Expy","name":""},
  {"lat":35.247218,"lon":-91.687296,"city":"Searcy","state":"AR","address":"3509 E Race Ave","name":""},
  {"lat":35.108595,"lon":-92.437042,"city":"Conway","state":"AR","address":"1155 Hwy 65 North","name":""},
  {"lat":35.094647,"lon":-92.462954,"city":"Conway","state":"AR","address":"2550 Prince St","name":""},
  {"lat":35.072895,"lon":-92.495185,"city":"Conway","state":"AR","address":"3900 Dave Ward Dr","name":""},
  {"lat":35.225788,"lon":-92.389561,"city":"Greenbrier","state":"AR","address":"75 South Broadview","name":""},
  {"lat":34.390735,"lon":-92.832735,"city":"Malvern","state":"AR","address":"1910 Martin Luther King Blvd","name":""},
  {"lat":33.820451,"lon":-92.435508,"city":"Fordyce","state":"AR","address":"1123 Highway 79 167 Byp","name":""},
  {"lat":33.635887,"lon":-91.804807,"city":"Monticello","state":"AR","address":"427 Highway 425 N","name":""},
  {"lat":35.168854,"lon":-92.726739,"city":"Morrilton","state":"AR","address":"1621 North Business 9","name":""},
  {"lat":35.507372,"lon":-92.032141,"city":"Heber Spgs","state":"AR","address":"1500 Hwy 25b","name":""},
  {"lat":34.555517,"lon":-90.65063,"city":"Helena-west Helena","state":"AR","address":"602 Shelia Street","name":""},
  {"lat":34.494271,"lon":-93.040121,"city":"Hot Springs","state":"AR","address":"1544 Malvern Ave","name":""},
  {"lat":35.028039,"lon":-90.793582,"city":"Forrest City","state":"AR","address":"205 Deadrick Rd","name":""},
  {"lat":34.632394,"lon":-93.055836,"city":"Hot Springs Village","state":"AR","address":"3604 N Highway 7","name":""},
  {"lat":34.454549,"lon":-93.060749,"city":"Hot Springs","state":"AR","address":"4019 Central Ave","name":""},
  {"lat":33.604017,"lon":-91.381287,"city":"McGehee","state":"AR","address":"1001 Highway 65 S","name":""},
  {"lat":34.490984,"lon":-93.089402,"city":"Hot Springs","state":"AR","address":"1601 Albert Pike Rd","name":""},
  {"lat":34.467967,"lon":-93.141266,"city":"Hot Springs","state":"AR","address":"1640 Airport Rd","name":""},
  {"lat":34.180821,"lon":-90.590602,"city":"Clarksdale","state":"MS","address":"1000 S State St","name":""},
  {"lat":34.119874,"lon":-93.096562,"city":"Arkadelphia","state":"AR","address":"109 Wp Malone Dr","name":""},
  {"lat":35.253327,"lon":-90.777418,"city":"Wynne","state":"AR","address":"800 Highway 64 E","name":""},
  {"lat":35.566853,"lon":-92.454442,"city":"Clinton","state":"AR","address":"1966 Highway 65 S","name":""},
  {"lat":35.617886,"lon":-91.254912,"city":"Newport","state":"AR","address":"1211 Highway 367 N","name":""},
  {"lat":33.757227,"lon":-90.712128,"city":"Cleveland","state":"MS","address":"710 N Davis Ave","name":""},
  {"lat":35.762726,"lon":-91.614251,"city":"Batesville","state":"AR","address":"3150 Harrison St","name":""},
  {"lat":35.280506,"lon":-93.105258,"city":"Russellville","state":"AR","address":"2409 E Main St","name":""},
  {"lat":35.217953,"lon":-93.166579,"city":"Dardanelle","state":"AR","address":"1172 N State Highway 7","name":""},
  {"lat":33.567226,"lon":-92.836826,"city":"Camden","state":"AR","address":"950 California Ave Sw","name":""},
  {"lat":35.282636,"lon":-93.153585,"city":"Russellville","state":"AR","address":"2109 W Main St","name":""},
  {"lat":35.867097,"lon":-92.101922,"city":"Mountain View","state":"AR","address":"409 Sylamore Ave","name":""},
  {"lat":33.367861,"lon":-91.043879,"city":"Greenville","state":"MS","address":"1831 Highway 1 S","name":""},
  {"lat":32.863091,"lon":-83.610778,"city":"Macon","state":"GA","address":"1401 Gray Hwy","name":""},
  {"lat":32.882916,"lon":-83.760029,"city":"Macon","state":"GA","address":"5955 Zebulon Rd","name":""},
  {"lat":32.809061,"lon":-83.717724,"city":"Macon","state":"GA","address":"6020 Harrison Rd","name":""},
  {"lat":33.042272,"lon":-83.943295,"city":"Forsyth","state":"GA","address":"180 N Lee St","name":""},
  {"lat":32.625402,"lon":-83.642891,"city":"Warner Robins","state":"GA","address":"515 N Houston Rd","name":""},
  {"lat":33.116411,"lon":-83.265237,"city":"Milledgeville","state":"GA","address":"2592 N Columbia St","name":""},
  {"lat":32.621467,"lon":-83.673274,"city":"Warner Robins","state":"GA","address":"2720 Watson Blvd","name":""},
  {"lat":32.590144,"lon":-83.612256,"city":"Warner Robins","state":"GA","address":"502 Booth Rd","name":""},
  {"lat":32.580731,"lon":-83.696954,"city":"Warner Robins","state":"GA","address":"3009 Russell Pkwy","name":""},
  {"lat":33.295546,"lon":-83.388909,"city":"Eatonton","state":"GA","address":"201 Walmart Dr","name":""},
  {"lat":32.472626,"lon":-83.739099,"city":"Perry","state":"GA","address":"1009 Saint Patricks Dr","name":""},
  {"lat":32.400273,"lon":-83.336305,"city":"Cochran","state":"GA","address":"366 Hwy 26 East","name":""},
  {"lat":33.357363,"lon":-84.12053,"city":"Locust Grove","state":"GA","address":"4949 Bill Gardner Pkwy","name":""},
  {"lat":32.912474,"lon":-84.333861,"city":"Thomaston","state":"GA","address":"855 N Church St","name":""},
  {"lat":33.566138,"lon":-83.479904,"city":"Madison","state":"GA","address":"1681 Eatonton Rd","name":""},
  {"lat":32.551163,"lon":-82.972056,"city":"Dublin","state":"GA","address":"2423 Us Highway 80 W","name":""},
  {"lat":32.951903,"lon":-82.812131,"city":"Sandersville","state":"GA","address":"1308 S Harris St","name":""},
  {"lat":33.272396,"lon":-84.296711,"city":"Griffin","state":"GA","address":"1569 N Expressway","name":""},
  {"lat":33.432882,"lon":-84.184909,"city":"McDonough","state":"GA","address":"135 Willow Ln","name":""},
  {"lat":33.610894,"lon":-83.830151,"city":"Covington","state":"GA","address":"10300 Industrial Blvd Ne","name":""},
  {"lat":33.577175,"lon":-83.959227,"city":"Covington","state":"GA","address":"4200 Salem Rd","name":""},
  {"lat":33.507521,"lon":-84.235721,"city":"Stockbridge","state":"GA","address":"1400 Hudson Bridge Rd","name":""},
  {"lat":33.652864,"lon":-83.996654,"city":"Conyers","state":"GA","address":"1436 Dogwood Dr Se","name":""},
  {"lat":33.442385,"lon":-84.325772,"city":"Hampton","state":"GA","address":"11465 Tara Blvd","name":""},
  {"lat":33.553227,"lon":-84.255353,"city":"Stockbridge","state":"GA","address":"5600 N Henry Blvd","name":""},
  {"lat":33.694644,"lon":-84.084863,"city":"Lithonia","state":"GA","address":"8424 Mall Parkway","name":""},
  {"lat":32.178956,"lon":-83.177707,"city":"Eastman","state":"GA","address":"1099 Indian Dr","name":""},
  {"lat":33.798295,"lon":-83.742185,"city":"Monroe","state":"GA","address":"2050 W Spring St","name":""},
  {"lat":33.481229,"lon":-84.443222,"city":"Fayetteville","state":"GA","address":"125 Pavilion Pkwy","name":""},
  {"lat":33.700533,"lon":-84.166977,"city":"Lithonia","state":"GA","address":"5401 Fairington Rd","name":""},
  {"lat":33.589701,"lon":-84.340307,"city":"Morrow","state":"GA","address":"6065 Jonesboro Rd","name":""},
  {"lat":33.636295,"lon":-84.293013,"city":"Ellenwood","state":"GA","address":"2940 Anvil Block Rd","name":""},
  {"lat":33.562448,"lon":-84.410314,"city":"Riverdale","state":"GA","address":"7050 Highway 85","name":""},
  {"lat":33.840987,"lon":-83.911137,"city":"Loganville","state":"GA","address":"4221 Atlanta Hwy","name":""},
  {"lat":33.807976,"lon":-84.046685,"city":"Snellville","state":"GA","address":"3435 Centerville Hwy","name":""},
  {"lat":33.401188,"lon":-84.599961,"city":"Peachtree City","state":"GA","address":"2717 Highway 54","name":""},
  {"lat":33.586938,"lon":-84.472145,"city":"College Park","state":"GA","address":"6149 Old National Hwy","name":""},
  {"lat":33.719115,"lon":-84.312878,"city":"Atlanta","state":"GA","address":"2427 Gresham Rd Se","name":""},
  {"lat":33.853041,"lon":-84.034237,"city":"Snellville","state":"GA","address":"2912 W Main St","name":""},
  {"lat":33.824811,"lon":-84.125892,"city":"Stone Mountain","state":"GA","address":"1825 Rockbridge Rd","name":""},
  {"lat":33.919842,"lon":-83.445494,"city":"Athens","state":"GA","address":"1911 Epps Bridge Pkwy","name":""},
  {"lat":33.757277,"lon":-84.268408,"city":"Decatur","state":"GA","address":"3580 Memorial Dr","name":""},
  {"lat":33.799259,"lon":-84.195045,"city":"Stone Mountain","state":"GA","address":"5935 Memorial Dr","name":""},
  {"lat":31.964712,"lon":-83.761891,"city":"Cordele","state":"GA","address":"1215 E 16th Ave","name":""},
  {"lat":33.886499,"lon":-84.007556,"city":"Snellville","state":"GA","address":"1550 Scenic Hwy N","name":""},
  {"lat":33.678363,"lon":-84.416522,"city":"East Point","state":"GA","address":"844 Cleveland Ave","name":""},
  {"lat":33.573216,"lon":-84.541334,"city":"Union City","state":"GA","address":"4735 Jonesboro Rd","name":""},
  {"lat":33.943652,"lon":-83.444484,"city":"Athens","state":"GA","address":"3130 Atlanta Hwy","name":""},
  {"lat":33.934239,"lon":-83.308939,"city":"Athens","state":"GA","address":"4375 Lexington Rd","name":""},
  {"lat":33.792331,"lon":-84.289503,"city":"Decatur","state":"GA","address":"2525 N Decatur Rd","name":""},
  {"lat":45.847376,"lon":-122.831296,"city":"St. Helens","state":"OR","address":"2295 Gable Rd","name":""},
  {"lat":46.119256,"lon":-122.929995,"city":"Longview","state":"WA","address":"540 7th Ave","name":""},
  {"lat":45.929118,"lon":-122.761384,"city":"Woodland","state":"WA","address":"1486 Dike Access Rd","name":""},
  {"lat":46.153048,"lon":-122.983962,"city":"Longview","state":"WA","address":"3715 Ocean Beach Hwy","name":""},
  {"lat":45.522197,"lon":-123.069645,"city":"Cornelius","state":"OR","address":"220 N Adair St","name":""},
  {"lat":45.515768,"lon":-122.898402,"city":"Hillsboro","state":"OR","address":"7650 Ne Shaleen St","name":""},
  {"lat":45.535459,"lon":-122.852683,"city":"Beaverton","state":"OR","address":"17275 Nw Cornell Rd","name":""},
  {"lat":45.686816,"lon":-122.662799,"city":"Vancouver","state":"WA","address":"9000 Ne Highway 99","name":""},
  {"lat":45.636374,"lon":-122.640847,"city":"Vancouver","state":"WA","address":"2201 Grand Blvd","name":""},
  {"lat":45.772396,"lon":-122.549521,"city":"Battle Ground","state":"WA","address":"1201 Sw 13th Avenue","name":""},
  {"lat":45.454952,"lon":-122.828554,"city":"Beaverton","state":"OR","address":"9055 Sw Murray Blvd","name":""},
  {"lat":45.623903,"lon":-122.562011,"city":"Vancouver","state":"WA","address":"221e Ne 104th Ave","name":""},
  {"lat":45.669526,"lon":-122.523391,"city":"Vancouver","state":"WA","address":"14505 Ne Fourth Plain Blvd","name":""},
  {"lat":45.431695,"lon":-122.755176,"city":"Tigard","state":"OR","address":"7600 Sw Dartmouth St","name":""},
  {"lat":46.145368,"lon":-123.917579,"city":"Warrenton","state":"OR","address":"1791 Se Ensign Ln","name":""},
  {"lat":45.365946,"lon":-122.833616,"city":"Sherwood","state":"OR","address":"21320 Sw Langer Farms Pkwy","name":""},
  {"lat":45.618336,"lon":-122.479844,"city":"Vancouver","state":"WA","address":"430 Se 192nd Ave","name":""},
  {"lat":45.450534,"lon":-122.575518,"city":"Happy Valley","state":"OR","address":"10000 Se 82nd Ave","name":""},
  {"lat":45.410479,"lon":-122.625855,"city":"Milwaukie","state":"OR","address":"15600 Se Mcloughlin Blvd","name":""},
  {"lat":45.386397,"lon":-122.641916,"city":"West Linn","state":"OR","address":"19133 Willamette Dr","name":""},
  {"lat":45.230558,"lon":-123.174215,"city":"McMinnville","state":"OR","address":"2375 Ne Highway 99w","name":""},
  {"lat":45.488893,"lon":-122.472214,"city":"Gresham","state":"OR","address":"3900 W Powell Blvd","name":""},
  {"lat":45.541121,"lon":-122.420703,"city":"Wood Village","state":"OR","address":"23500 Ne Sandy Blvd","name":""},
  {"lat":45.492841,"lon":-122.407865,"city":"Gresham","state":"OR","address":"2444 E Powell Blvd","name":""},
  {"lat":45.147886,"lon":-122.879997,"city":"Woodburn","state":"OR","address":"3002 Stacey Allison Way","name":""},
  {"lat":46.678855,"lon":-122.979102,"city":"Chehalis","state":"WA","address":"1601 Nw Louisiana Ave","name":""},
  {"lat":44.964693,"lon":-122.987339,"city":"Salem","state":"OR","address":"3025 Lancaster Dr Ne","name":""},
  {"lat":44.931561,"lon":-123.306796,"city":"Dallas","state":"OR","address":"321 Ne Kings Valley Hwy","name":""},
  {"lat":44.914065,"lon":-122.995675,"city":"Salem","state":"OR","address":"1940 Turner Rd Se","name":""},
  {"lat":44.878619,"lon":-123.025604,"city":"Salem","state":"OR","address":"5250 Commercial St Se","name":""},
  {"lat":46.994525,"lon":-122.919097,"city":"Tumwater","state":"WA","address":"5900 Littlerock Rd Sw","name":""},
  {"lat":46.934748,"lon":-122.577503,"city":"Yelm","state":"WA","address":"17100 State Route 507 Se","name":""},
  {"lat":46.997206,"lon":-122.818757,"city":"Lacey","state":"WA","address":"5110 Yelm Highway","name":""},
  {"lat":46.975351,"lon":-123.806682,"city":"Aberdeen","state":"WA","address":"909 E Wishkah St","name":""},
  {"lat":45.711725,"lon":-121.538552,"city":"Hood River","state":"OR","address":"2700 Wasco St","name":""},
  {"lat":47.060465,"lon":-122.773844,"city":"Lacey","state":"WA","address":"1401 Galaxy Dr Ne","name":""},
  {"lat":44.627089,"lon":-123.051339,"city":"Albany","state":"OR","address":"1330 Goldfish Farm Rd Se","name":""},
  {"lat":44.586931,"lon":-123.258833,"city":"Corvallis","state":"OR","address":"1840 Nw 9th St","name":""},
  {"lat":47.073996,"lon":-122.419319,"city":"Spanaway","state":"WA","address":"20307 Mountain Hwy E","name":""},
  {"lat":44.656618,"lon":-124.054416,"city":"Newport","state":"OR","address":"160 Nw 25th St","name":""},
  {"lat":47.233063,"lon":-123.125779,"city":"Shelton","state":"WA","address":"100 E Wallace Kneeland Blvd","name":""},
  {"lat":44.516743,"lon":-122.900769,"city":"Lebanon","state":"OR","address":"3290 S Santiam Hwy","name":""},
  {"lat":47.105966,"lon":-122.297251,"city":"Puyallup","state":"WA","address":"16502 Meridian E","name":""},
  {"lat":47.193987,"lon":-122.517013,"city":"Lakewood","state":"WA","address":"7001 Bridgeport Way W","name":""},
  {"lat":47.161358,"lon":-122.288662,"city":"Puyallup","state":"WA","address":"310 31st Ave Se","name":""},
  {"lat":33.942955,"lon":-78.032339,"city":"Southport","state":"NC","address":"1675 N Howe St","name":""},
  {"lat":34.146396,"lon":-77.897384,"city":"Wilmington","state":"NC","address":"5135 Carolina Beach Rd","name":""},
  {"lat":34.242067,"lon":-77.874207,"city":"Wilmington","state":"NC","address":"5226 Sigmon Rd","name":""},
  {"lat":34.295974,"lon":-77.799157,"city":"Wilmington","state":"NC","address":"8035 Market St","name":""},
  {"lat":34.447904,"lon":-77.56427,"city":"Surf City","state":"NC","address":"420 Fun Center Dr","name":""},
  {"lat":34.209876,"lon":-78.023076,"city":"Leland","state":"NC","address":"1112 New Pointe Blvd","name":""},
  {"lat":33.983522,"lon":-78.373777,"city":"Shallotte","state":"NC","address":"4540 Main St. B 3079","name":""},
  {"lat":34.700687,"lon":-77.149258,"city":"Swansboro","state":"NC","address":"1109 W Corbett Ave","name":""},
  {"lat":34.562361,"lon":-77.917776,"city":"Burgaw","state":"NC","address":"908 Nc Highway 53 E","name":""},
  {"lat":34.734821,"lon":-76.811629,"city":"Morehead City","state":"NC","address":"300 Nc Highway 24","name":""},
  {"lat":34.751469,"lon":-77.464594,"city":"Jacksonville","state":"NC","address":"561 Yopp Rd","name":""},
  {"lat":34.779932,"lon":-77.393137,"city":"Jacksonville","state":"NC","address":"2025 N Marine Blvd","name":""},
  {"lat":34.775819,"lon":-76.872785,"city":"Newport","state":"NC","address":"6645 Highway 70","name":""},
  {"lat":33.829681,"lon":-78.671277,"city":"North Myrtle Beach","state":"SC","address":"550 Highway 17 N","name":""},
  {"lat":34.801111,"lon":-77.415429,"city":"Jacksonville","state":"NC","address":"4250 Western Blvd","name":""},
  {"lat":33.787262,"lon":-78.768471,"city":"Myrtle Beach","state":"SC","address":"10820 Kings Rd","name":""},
  {"lat":34.739219,"lon":-77.968927,"city":"Wallace","state":"NC","address":"5625 S Nc 41 Hwy","name":""},
  {"lat":34.914088,"lon":-76.936528,"city":"Havelock","state":"NC","address":"566 Us Highway 70 W","name":""},
  {"lat":33.717322,"lon":-78.856782,"city":"Myrtle Beach","state":"SC","address":"3915 N Kings Hwy","name":""},
  {"lat":34.908058,"lon":-77.568021,"city":"Richlands","state":"NC","address":"349 Kinston Hwy","name":""},
  {"lat":32.853507,"lon":-91.395153,"city":"Oak Grove","state":"LA","address":"705 S Constitution Ave","name":""},
  {"lat":33.459524,"lon":-90.663274,"city":"Indianola","state":"MS","address":"633 Highway 82 W","name":""},
  {"lat":32.876707,"lon":-90.396381,"city":"Yazoo City","state":"MS","address":"2129 Grand Ave","name":""},
  {"lat":32.307869,"lon":-90.891242,"city":"Vicksburg","state":"MS","address":"2150 Iowa Blvd","name":""},
  {"lat":33.529995,"lon":-90.221529,"city":"Greenwood","state":"MS","address":"2202 Highway 82 W","name":""},
  {"lat":32.775799,"lon":-91.870221,"city":"Bastrop","state":"LA","address":"6091 Mer Rouge Rd","name":""},
  {"lat":33.136263,"lon":-91.942183,"city":"Crossett","state":"AR","address":"910 Unity Rd","name":""},
  {"lat":32.595986,"lon":-90.073021,"city":"Canton","state":"MS","address":"244 Feather Ln","name":""},
  {"lat":32.462871,"lon":-91.763352,"city":"Rayville","state":"LA","address":"1806 Julia St","name":""},
  {"lat":32.467324,"lon":-90.134615,"city":"Madison","state":"MS","address":"127 Grandview Blvd","name":""},
  {"lat":32.326108,"lon":-90.304723,"city":"Clinton","state":"MS","address":"950 Highway 80 E","name":""},
  {"lat":32.401684,"lon":-90.134265,"city":"Ridgeland","state":"MS","address":"815 S Wheatley St","name":""},
  {"lat":32.287944,"lon":-90.268276,"city":"Jackson","state":"MS","address":"2711 Greenway Dr","name":""},
  {"lat":32.185505,"lon":-90.264498,"city":"Byram","state":"MS","address":"131 Handley Blvd","name":""},
  {"lat":32.350626,"lon":-90.023693,"city":"Flowood","state":"MS","address":"5341 Highway 25","name":""},
  {"lat":32.219894,"lon":-90.151331,"city":"Richland","state":"MS","address":"200 Market Place Dr","name":""},
  {"lat":32.525027,"lon":-92.067791,"city":"Monroe","state":"LA","address":"4430 Desiard Street","name":""},
  {"lat":32.180906,"lon":-91.729311,"city":"Winnsboro","state":"LA","address":"3360 Front St","name":""},
  {"lat":32.286503,"lon":-90.046199,"city":"Pearl","state":"MS","address":"5520 Highway 80 E","name":""},
  {"lat":32.525841,"lon":-92.098476,"city":"Monroe","state":"LA","address":"2701 Louisville Ave","name":""},
  {"lat":32.527023,"lon":-92.113675,"city":"Monroe","state":"LA","address":"1840 Mckeen Place","name":""},
  {"lat":32.519587,"lon":-92.144564,"city":"West","state":"LA","address":"2400 Cypress Street","name":""},
  {"lat":32.508177,"lon":-92.154478,"city":"West","state":"LA","address":"1025 Glenwood Dr","name":""},
  {"lat":32.514938,"lon":-92.189444,"city":"West","state":"LA","address":"5251 Cypress Street","name":""},
  {"lat":33.054882,"lon":-89.566911,"city":"Kosciusko","state":"MS","address":"220 Veterans Memorial Dr","name":""},
  {"lat":33.781555,"lon":-89.837875,"city":"Grenada","state":"MS","address":"1655 Sunset Dr","name":""},
  {"lat":32.725824,"lon":-89.547284,"city":"Carthage","state":"MS","address":"905 Highway 16 W","name":""},
  {"lat":32.773497,"lon":-92.394373,"city":"Farmerville","state":"LA","address":"833 Sterlington Hwy","name":""},
  {"lat":31.871416,"lon":-90.409318,"city":"Hazlehurst","state":"MS","address":"527 Lake St","name":""},
  {"lat":32.338638,"lon":-89.486173,"city":"Forest","state":"MS","address":"1309 Highway 35 S","name":""},
  {"lat":33.241937,"lon":-92.668684,"city":"El Dorado","state":"AR","address":"2730 N West Ave","name":""},
  {"lat":38.357933,"lon":-120.806192,"city":"Jackson","state":"CA","address":"10355 Wicklow Way","name":""},
  {"lat":37.971691,"lon":-120.365857,"city":"Sonora","state":"CA","address":"1101 Sanguinetti Road","name":""},
  {"lat":38.704034,"lon":-120.828964,"city":"Placerville","state":"CA","address":"4300 Missouri Flat Rd","name":""},
  {"lat":38.668326,"lon":-121.167602,"city":"Folsom","state":"CA","address":"1018 Riley St","name":""},
  {"lat":38.289693,"lon":-121.304693,"city":"Galt","state":"CA","address":"10470 Twin Cities Rd","name":""},
  {"lat":38.113154,"lon":-121.309823,"city":"Lodi","state":"CA","address":"1601 S Lower Sacramento Rd","name":""},
  {"lat":38.023047,"lon":-121.273724,"city":"Stockton","state":"CA","address":"3223 E Hammer Ln","name":""},
  {"lat":38.679381,"lon":-121.222549,"city":"Orangevale","state":"CA","address":"8961 Greenback Ln","name":""},
  {"lat":38.596132,"lon":-121.291884,"city":"Rancho Cordova","state":"CA","address":"10655 Folsom Blvd","name":""},
  {"lat":38.004164,"lon":-121.292465,"city":"Stockton","state":"CA","address":"1189 E March Ln","name":""},
  {"lat":38.482677,"lon":-121.369026,"city":"Sacramento","state":"CA","address":"8915 Gerber Road","name":""},
  {"lat":38.675699,"lon":-121.273287,"city":"Citrus Heights","state":"CA","address":"6197 Sunrise Blvd","name":""},
  {"lat":38.411774,"lon":-121.391612,"city":"Elk Grove","state":"CA","address":"8465 Elk Grove Blvd","name":""},
  {"lat":38.410207,"lon":-121.392021,"city":"Elk Grove","state":"CA","address":"8455 Elk Grove Blvd","name":""},
  {"lat":37.694501,"lon":-120.991866,"city":"Modesto","state":"CA","address":"3848 Mchenry Ave","name":""},
  {"lat":38.391338,"lon":-121.416212,"city":"Elk Grove","state":"CA","address":"10075 Bruceville Rd","name":""},
  {"lat":37.664518,"lon":-120.976655,"city":"Modesto","state":"CA","address":"1421 Coffee Rd","name":""},
  {"lat":38.689487,"lon":-121.295274,"city":"Citrus Heights","state":"CA","address":"7010 Auburn Blvd","name":""},
  {"lat":38.049824,"lon":-121.376258,"city":"Stockton","state":"CA","address":"10355 Trinity Pkwy","name":""},
  {"lat":38.747175,"lon":-121.256975,"city":"Roseville","state":"CA","address":"1400 Lead Hill Blvd","name":""},
  {"lat":38.802655,"lon":-121.201915,"city":"Rocklin","state":"CA","address":"5454 Crossings Dr","name":""},
  {"lat":38.662599,"lon":-121.324903,"city":"Carmichael","state":"CA","address":"6005 Madison Ave","name":""},
  {"lat":38.784013,"lon":-121.239575,"city":"Rocklin","state":"CA","address":"5609 Pacific St","name":""},
  {"lat":37.673337,"lon":-121.037096,"city":"Modesto","state":"CA","address":"2225 Plaza Pkwy","name":""},
  {"lat":38.499441,"lon":-121.433569,"city":"Sacramento","state":"CA","address":"6051 Florin Rd","name":""},
  {"lat":38.704318,"lon":-121.331861,"city":"Sacramento","state":"CA","address":"5821 Antelope Rd","name":""},
  {"lat":37.785574,"lon":-121.218466,"city":"Manteca","state":"CA","address":"1205 S Main St","name":""},
  {"lat":38.617049,"lon":-121.399004,"city":"Sacramento","state":"CA","address":"2700 Marconi Ave","name":""},
  {"lat":38.649823,"lon":-121.386311,"city":"North Highlands","state":"CA","address":"4675 Watt Ave","name":""},
  {"lat":38.788025,"lon":-121.289933,"city":"Roseville","state":"CA","address":"900 Pleasant Grove Blvd","name":""},
  {"lat":37.582097,"lon":-120.939947,"city":"Ceres","state":"CA","address":"3960 Mitchell Rd","name":""},
  {"lat":38.45975,"lon":-121.493103,"city":"Sacramento","state":"CA","address":"8270 Delta Shores Cir S","name":""},
  {"lat":38.712842,"lon":-121.394608,"city":"Antelope","state":"CA","address":"7901 Watt Ave","name":""},
  {"lat":37.515648,"lon":-120.847067,"city":"Turlock","state":"CA","address":"2480 Geer Road","name":""},
  {"lat":38.923888,"lon":-119.721196,"city":"Gardnerville","state":"NV","address":"1511 Grant St","name":""},
  {"lat":37.509427,"lon":-120.873024,"city":"Turlock","state":"CA","address":"2111 Fulkerth Rd","name":""},
  {"lat":38.888618,"lon":-121.291915,"city":"Lincoln","state":"CA","address":"255 Lincoln Blvd","name":""},
  {"lat":38.635598,"lon":-121.505965,"city":"Sacramento","state":"CA","address":"3661 Truxel Rd","name":""},
  {"lat":38.587362,"lon":-121.550049,"city":"West","state":"CA","address":"755 Riverpoint Ct","name":""},
  {"lat":39.111782,"lon":-119.778406,"city":"Carson City","state":"NV","address":"3770 Us Highway 395 S","name":""},
  {"lat":37.751659,"lon":-121.471715,"city":"Tracy","state":"CA","address":"3010 W Grant Line Rd","name":""},
  {"lat":37.340296,"lon":-120.609275,"city":"Atwater","state":"CA","address":"800 Commerce Ave","name":""},
  {"lat":37.318005,"lon":-120.502005,"city":"Merced","state":"CA","address":"3055 Loughborough Dr","name":""},
  {"lat":37.462266,"lon":-121.142722,"city":"Patterson","state":"CA","address":"1030 Sperry Ave","name":""},
  {"lat":39.187245,"lon":-119.757532,"city":"Carson City","state":"NV","address":"3200 Market St","name":""},
  {"lat":38.675434,"lon":-121.741044,"city":"Woodland","state":"CA","address":"1720 E Main St","name":""},
  {"lat":37.963462,"lon":-121.761642,"city":"Antioch","state":"CA","address":"4893 Lone Tree Way","name":""},
  {"lat":38.471927,"lon":-121.820361,"city":"Dixon","state":"CA","address":"235 E Dorset Dr","name":""},
  {"lat":38.661335,"lon":-121.763685,"city":"Woodland","state":"CA","address":"1250 E Gibson Rd","name":""},
  {"lat":38.680887,"lon":-121.787886,"city":"Woodland","state":"CA","address":"215 California St","name":""},
  {"lat":32.132907,"lon":-111.026712,"city":"Tucson","state":"AZ","address":"2823 W Valencia Rd","name":""},
  {"lat":31.911235,"lon":-110.981213,"city":"Green Valley","state":"AZ","address":"18680 S Nogales Hwy","name":""},
  {"lat":32.136724,"lon":-111.000556,"city":"Tucson","state":"AZ","address":"1650 W Valencia Rd","name":""},
  {"lat":32.356262,"lon":-111.089446,"city":"Tucson","state":"AZ","address":"8280 N Cortaro Rd","name":""},
  {"lat":32.293147,"lon":-111.013031,"city":"Tucson","state":"AZ","address":"2175 W Ruthrauff Rd","name":""},
  {"lat":32.185761,"lon":-110.953434,"city":"Tucson","state":"AZ","address":"1260 E Tucson Marketplace Blvd","name":""},
  {"lat":32.147489,"lon":-110.933161,"city":"Tucson","state":"AZ","address":"2565 E Commerce Center Pl","name":""},
  {"lat":32.344204,"lon":-111.016221,"city":"Tucson","state":"AZ","address":"7635 N La Cholla B","name":""},
  {"lat":32.265554,"lon":-110.958581,"city":"Tucson","state":"AZ","address":"831 E Fort Lowell Road","name":""},
  {"lat":32.877249,"lon":-111.712188,"city":"Casa Grande","state":"AZ","address":"1741 E Florence Blvd","name":""},
  {"lat":32.288399,"lon":-110.965014,"city":"Tucson","state":"AZ","address":"455 E Wetmore Rd","name":""},
  {"lat":32.223691,"lon":-110.918915,"city":"Tucson","state":"AZ","address":"3435 E Broadway Blvd","name":""},
  {"lat":32.350843,"lon":-110.977185,"city":"Oro Valley","state":"AZ","address":"7951 N Oracle Rd","name":""},
  {"lat":32.251931,"lon":-110.908771,"city":"Tucson","state":"AZ","address":"3925 E Grant Rd","name":""},
  {"lat":32.205783,"lon":-110.873984,"city":"Tucson","state":"AZ","address":"5500 E 22nd St","name":""},
  {"lat":32.193033,"lon":-110.842387,"city":"Tucson","state":"AZ","address":"2550 S Kolb Rd","name":""},
  {"lat":32.426075,"lon":-110.940899,"city":"Oro Valley","state":"AZ","address":"2150 E Tangerine Rd","name":""},
  {"lat":32.233594,"lon":-110.839449,"city":"Tucson","state":"AZ","address":"7150 E Speedway Blvd","name":""},
  {"lat":31.360213,"lon":-110.932379,"city":"Nogales","state":"AZ","address":"100 W White Park Dr","name":""},
  {"lat":32.084845,"lon":-110.776057,"city":"Tucson","state":"AZ","address":"9260 S Houghton Rd","name":""},
  {"lat":32.219825,"lon":-110.807801,"city":"Tucson","state":"AZ","address":"8640 E Broadway Blvd","name":""},
  {"lat":33.039112,"lon":-112.014176,"city":"Maricopa","state":"AZ","address":"41650 W Maricopa Casa Grande Hwy","name":""},
  {"lat":32.190893,"lon":-110.770299,"city":"Tucson","state":"AZ","address":"2711 S Houghton Rd","name":""},
  {"lat":33.000049,"lon":-111.520207,"city":"Coolidge","state":"AZ","address":"1695 N Arizona Blvd","name":""},
  {"lat":33.176342,"lon":-111.584664,"city":"San Tan Valley","state":"AZ","address":"1725 W Hunt Hwy","name":""},
  {"lat":33.281495,"lon":-111.793399,"city":"Chandler","state":"AZ","address":"2750 E Germann Rd","name":""},
  {"lat":33.289249,"lon":-111.838037,"city":"Chandler","state":"AZ","address":"1175 S Arizona Ave","name":""},
  {"lat":33.251461,"lon":-111.629508,"city":"Queen Creek","state":"AZ","address":"21055 E Rittenhouse Rd","name":""},
  {"lat":33.307846,"lon":-111.901647,"city":"Chandler","state":"AZ","address":"3460 W Chandler Blvd","name":""},
  {"lat":33.307841,"lon":-111.808474,"city":"Chandler","state":"AZ","address":"1900 E Chandler Blvd","name":""},
  {"lat":40.382802,"lon":-111.977509,"city":"Eagle Mountain","state":"UT","address":"9399 N Spring Run Pkwy","name":""},
  {"lat":40.027675,"lon":-111.756447,"city":"Payson","state":"UT","address":"1052 Turf Farm Rd","name":""},
  {"lat":40.389493,"lon":-111.919681,"city":"Saratoga Springs","state":"UT","address":"136 W State Road 73","name":""},
  {"lat":40.384859,"lon":-111.825195,"city":"American Fork","state":"UT","address":"949 W Grassland Dr","name":""},
  {"lat":40.555998,"lon":-112.300671,"city":"Tooele","state":"UT","address":"99 W 1280 N","name":""},
  {"lat":40.509136,"lon":-112.011509,"city":"Herriman","state":"UT","address":"5056 W 13400 S","name":""},
  {"lat":40.272656,"lon":-111.710217,"city":"Orem","state":"UT","address":"1355 Sandhill Rd","name":""},
  {"lat":40.505236,"lon":-111.977516,"city":"Riverton","state":"UT","address":"13502 Hamilton View Rd","name":""},
  {"lat":40.367453,"lon":-111.765177,"city":"Pleasant Grove","state":"UT","address":"1707 West State Street","name":""},
  {"lat":40.157326,"lon":-111.644288,"city":"Springville","state":"UT","address":"660 S 1750 W","name":""},
  {"lat":40.123819,"lon":-111.638759,"city":"Spanish Fork","state":"UT","address":"1206 N Canyon Creek Pkwy","name":""},
  {"lat":40.348499,"lon":-111.731817,"city":"Lindon","state":"UT","address":"585 N State St","name":""},
  {"lat":40.262913,"lon":-111.669982,"city":"Provo","state":"UT","address":"2255 N University Pkwy","name":""},
  {"lat":40.416594,"lon":-111.770421,"city":"Cedar Hills","state":"UT","address":"4689 W Cedar Hills Dr","name":""},
  {"lat":40.523411,"lon":-111.925965,"city":"Riverton","state":"UT","address":"1202 West 12600 South","name":""},
  {"lat":40.09812,"lon":-111.613788,"city":"Spanish Fork","state":"UT","address":"898 S 2550 E","name":""},
  {"lat":40.563144,"lon":-111.975205,"city":"South Jordan","state":"UT","address":"3590 W. South Jordan Pkwy","name":""},
  {"lat":40.545757,"lon":-111.901408,"city":"South Jordan","state":"UT","address":"11328 S Jordan Gtwy","name":""},
  {"lat":40.526738,"lon":-111.852489,"city":"Draper","state":"UT","address":"1360 Draper Pkwy","name":""},
  {"lat":40.611451,"lon":-111.977917,"city":"West Jordan","state":"UT","address":"7671 S 3800 W","name":""},
  {"lat":40.635717,"lon":-112.026519,"city":"West Valley City","state":"UT","address":"5675 W 6200 S","name":""},
  {"lat":40.585335,"lon":-111.859477,"city":"Sandy","state":"UT","address":"9151 S Quarry Bend Dr","name":""},
  {"lat":40.650464,"lon":-111.936851,"city":"Taylorsville","state":"UT","address":"5469 S Redwood Rd","name":""},
  {"lat":40.619444,"lon":-111.858483,"city":"Midvale","state":"UT","address":"7250 Union Park Ave","name":""},
  {"lat":40.670609,"lon":-111.988938,"city":"West Valley City","state":"UT","address":"4570 S 4000 W","name":""},
  {"lat":40.694921,"lon":-112.090019,"city":"Magna","state":"UT","address":"3555 S 8400 W","name":""},
  {"lat":40.702212,"lon":-112.027262,"city":"West Valley City","state":"UT","address":"3180 S 5600 W","name":""},
  {"lat":40.669882,"lon":-111.863553,"city":"Salt Lake City","state":"UT","address":"4627 S 900 E","name":""},
  {"lat":40.740886,"lon":-111.901122,"city":"Salt Lake City","state":"UT","address":"350 Hope Ave","name":""},
  {"lat":40.719946,"lon":-111.813392,"city":"Salt Lake City","state":"UT","address":"2705 E Parleys Way","name":""},
  {"lat":40.493932,"lon":-111.416969,"city":"Heber City","state":"UT","address":"1274 S Us Highway 189","name":""},
  {"lat":40.726057,"lon":-111.549288,"city":"Park City","state":"UT","address":"6545 Landmark Dr","name":""},
  {"lat":40.919007,"lon":-111.883825,"city":"Centerville","state":"UT","address":"221 W Parrish Ln","name":""},
  {"lat":39.373851,"lon":-111.589816,"city":"Ephraim","state":"UT","address":"777 N Main St","name":""},
  {"lat":41.068346,"lon":-111.979596,"city":"Layton","state":"UT","address":"745 W Hill Field Rd","name":""},
  {"lat":41.090461,"lon":-112.069638,"city":"Syracuse","state":"UT","address":"2228 W 1700 S","name":""},
  {"lat":41.099891,"lon":-111.940474,"city":"Layton","state":"UT","address":"1356 E Highway 193","name":""},
  {"lat":41.137418,"lon":-112.060877,"city":"Clinton","state":"UT","address":"1632 N 2000 W","name":""},
  {"lat":41.152211,"lon":-111.938488,"city":"South Ogden","state":"UT","address":"1710 E Skyline Dr","name":""},
  {"lat":41.176098,"lon":-111.998683,"city":"Riverdale","state":"UT","address":"4848 S 900 W","name":""},
  {"lat":41.232123,"lon":-111.981081,"city":"Ogden","state":"UT","address":"1959 Wall Ave","name":""},
  {"lat":41.269567,"lon":-111.973021,"city":"Harrisville","state":"UT","address":"534 N Harrisville Rd","name":""},
  {"lat":39.596314,"lon":-110.788589,"city":"Price","state":"UT","address":"255 S Highway 55","name":""},
  {"lat":38.748381,"lon":-112.084723,"city":"Richfield","state":"UT","address":"10 E 1300 S","name":""},
  {"lat":41.484033,"lon":-112.030073,"city":"Perry","state":"UT","address":"1200 S Commerce Way","name":""},
  {"lat":44.163993,"lon":-93.950761,"city":"Mankato","state":"MN","address":"1881 E Madison Ave","name":""},
  {"lat":44.097477,"lon":-93.509937,"city":"Waseca","state":"MN","address":"2103 State St N","name":""},
  {"lat":44.290001,"lon":-93.306053,"city":"Faribault","state":"MN","address":"150 Western Ave Nw","name":""},
  {"lat":44.328667,"lon":-94.505402,"city":"New Ulm","state":"MN","address":"1720 Westridge Rd","name":""},
  {"lat":44.650342,"lon":-93.297124,"city":"Lakeville","state":"MN","address":"20710 Keokuk Ave","name":""},
  {"lat":44.779312,"lon":-93.417731,"city":"Shakopee","state":"MN","address":"8101 Old Carriage Ct","name":""},
  {"lat":44.097947,"lon":-93.249777,"city":"Owatonna","state":"MN","address":"1130 W Frontage Rd","name":""},
  {"lat":44.856206,"lon":-93.431237,"city":"Eden Prairie","state":"MN","address":"12195 Singletree Ln","name":""},
  {"lat":44.781166,"lon":-93.286024,"city":"Burnsville","state":"MN","address":"12200 River Ridge Blvd","name":""},
  {"lat":44.734376,"lon":-93.224698,"city":"Apple Valley","state":"MN","address":"7835 150th St W","name":""},
  {"lat":44.871755,"lon":-94.378886,"city":"Hutchinson","state":"MN","address":"1300 Highway 15 S","name":""},
  {"lat":44.860805,"lon":-93.265681,"city":"Bloomington","state":"MN","address":"700 American Blvd E","name":""},
  {"lat":44.828515,"lon":-93.161911,"city":"Eagan","state":"MN","address":"1360 Town Centre Dr","name":""},
  {"lat":44.816501,"lon":-93.040363,"city":"Inver Grove Heights","state":"MN","address":"9165 Cahill Ave","name":""},
  {"lat":44.897067,"lon":-93.077455,"city":"St. Paul","state":"MN","address":"1644 Robert St S","name":""},
  {"lat":45.126132,"lon":-93.494275,"city":"Maple Grove","state":"MN","address":"9451 Dunkirk Ln N","name":""},
  {"lat":44.741112,"lon":-92.891881,"city":"Hastings","state":"MN","address":"1752 N Frontage Rd","name":""},
  {"lat":45.100677,"lon":-93.385227,"city":"Brooklyn Park","state":"MN","address":"8000 Lakeland Ave N","name":""},
  {"lat":45.189871,"lon":-93.878478,"city":"Buffalo","state":"MN","address":"1315 Highway 25 N","name":""},
  {"lat":45.021754,"lon":-93.183464,"city":"Roseville","state":"MN","address":"1960 Twin Lakes Parkway","name":""},
  {"lat":44.810716,"lon":-92.918766,"city":"Cottage Grove","state":"MN","address":"9300 E Point Douglas Rd S","name":""},
  {"lat":45.121037,"lon":-93.265741,"city":"Fridley","state":"MN","address":"8450 University Ave Ne","name":""},
  {"lat":45.121074,"lon":-94.490731,"city":"Litchfield","state":"MN","address":"2301 East Frontage Road","name":""},
  {"lat":43.681934,"lon":-94.444776,"city":"Fairmont","state":"MN","address":"1250 Goemann Rd","name":""},
  {"lat":43.664047,"lon":-93.325529,"city":"Albert Lea","state":"MN","address":"1550 Blake Ave","name":""},
  {"lat":45.049086,"lon":-93.064426,"city":"Vadnais Heights","state":"MN","address":"850 East County Rd E","name":""},
  {"lat":44.946374,"lon":-92.896828,"city":"Woodbury","state":"MN","address":"10240 Hudson Rd","name":""},
  {"lat":45.284282,"lon":-93.801971,"city":"Monticello","state":"MN","address":"9320 Cedar St","name":""},
  {"lat":44.540195,"lon":-95.087867,"city":"Redwood Falls","state":"MN","address":"1410 E Bridge St","name":""},
  {"lat":45.179746,"lon":-93.239014,"city":"Blaine","state":"MN","address":"11505 Ulysses St Ne","name":""},
  {"lat":45.221466,"lon":-93.312491,"city":"Andover","state":"MN","address":"1851 Bunker Lake Blvd Nw","name":""},
  {"lat":45.159969,"lon":-93.159798,"city":"Blaine","state":"MN","address":"4369 Ball Road Ne","name":""},
  {"lat":45.300541,"lon":-93.549071,"city":"Elk River","state":"MN","address":"18185 Zane St Nw","name":""},
  {"lat":44.563101,"lon":-92.581983,"city":"Red Wing","state":"MN","address":"295 Tyler Rd S","name":""},
  {"lat":43.687818,"lon":-92.987256,"city":"Austin","state":"MN","address":"1000 18th Ave Nw","name":""},
  {"lat":45.032923,"lon":-92.831595,"city":"Oak Park Heights","state":"MN","address":"5815 Norell Ave N","name":""},
  {"lat":44.959154,"lon":-92.727132,"city":"Hudson","state":"WI","address":"2222 Crest View Dr","name":""},
  {"lat":44.077003,"lon":-92.511391,"city":"Rochester","state":"MN","address":"3400 55th St Nw","name":""},
  {"lat":45.276821,"lon":-93.001975,"city":"Forest","state":"MN","address":"200 12th St Sw","name":""},
  {"lat":45.100793,"lon":-95.035261,"city":"Willmar","state":"MN","address":"700 19th Ave Se","name":""},
  {"lat":43.986602,"lon":-92.459581,"city":"Rochester","state":"MN","address":"25 25th St Se","name":""},
  {"lat":45.550452,"lon":-94.202157,"city":"St Cloud","state":"MN","address":"3601 2nd St South","name":""},
  {"lat":45.099222,"lon":-92.540361,"city":"New Richmond","state":"WI","address":"250 Richmond Way","name":""},
  {"lat":45.572149,"lon":-93.602237,"city":"Princeton","state":"MN","address":"300 21st Ave N","name":""},
  {"lat":45.592776,"lon":-94.187438,"city":"Sartell","state":"MN","address":"21 County Road 120","name":""},
  {"lat":45.570298,"lon":-93.197802,"city":"Cambridge","state":"MN","address":"2101 2nd Ave Se","name":""},
  {"lat":45.400098,"lon":-92.603785,"city":"St. Croix Falls","state":"WI","address":"2212 Glacier Dr","name":""},
  {"lat":43.145527,"lon":-93.262486,"city":"Mason City","state":"IA","address":"4151 4th St Sw","name":""},
  {"lat":43.424486,"lon":-95.124471,"city":"Spirit","state":"IA","address":"2200 17th St","name":""},
  {"lat":44.432472,"lon":-95.766813,"city":"Marshall","state":"MN","address":"1221 E Main St","name":""},
  {"lat":29.922285,"lon":-82.130209,"city":"Starke","state":"FL","address":"14500 Us Highway 301 S","name":""},
  {"lat":29.708535,"lon":-82.356612,"city":"Gainesville","state":"FL","address":"5700 Nw 23rd St","name":""},
  {"lat":29.663923,"lon":-82.301116,"city":"Gainesville","state":"FL","address":"1800 Ne 12th Ave","name":""},
  {"lat":29.627561,"lon":-82.388649,"city":"Gainesville","state":"FL","address":"2900 Sw 42nd St","name":""},
  {"lat":30.105744,"lon":-81.833799,"city":"Middleburg","state":"FL","address":"1580 Branan Field Rd","name":""},
  {"lat":30.262712,"lon":-82.108869,"city":"Macclenny","state":"FL","address":"9218 S State Road 228","name":""},
  {"lat":30.101031,"lon":-81.774022,"city":"Middleburg","state":"FL","address":"2570 County Road 220","name":""},
  {"lat":30.137721,"lon":-81.768891,"city":"Orange Park","state":"FL","address":"899 Blanding Blvd","name":""},
  {"lat":29.638512,"lon":-81.680966,"city":"Palatka","state":"FL","address":"1024 S State Road 19","name":""},
  {"lat":30.098928,"lon":-81.707294,"city":"Orange Park","state":"FL","address":"1505 County Road 220","name":""},
  {"lat":30.207237,"lon":-81.760196,"city":"Jacksonville","state":"FL","address":"7075 Collins Rd","name":""},
  {"lat":30.181309,"lon":-82.677456,"city":"Lake City","state":"FL","address":"2767 W Us Highway 90","name":""},
  {"lat":30.250666,"lon":-81.753021,"city":"Jacksonville","state":"FL","address":"6767 103rd St","name":""},
  {"lat":30.119729,"lon":-81.623936,"city":"Fruit Cove","state":"FL","address":"445 State Road 13","name":""},
  {"lat":30.271548,"lon":-81.757048,"city":"Jacksonville","state":"FL","address":"6855 Wilson Blvd","name":""},
  {"lat":30.177293,"lon":-81.625307,"city":"Jacksonville","state":"FL","address":"10991 San Jose Blvd Ste 1","name":""},
  {"lat":30.301618,"lon":-81.758379,"city":"Jacksonville","state":"FL","address":"6830 Normandy Blvd","name":""},
  {"lat":30.185352,"lon":-81.609265,"city":"Jacksonville","state":"FL","address":"10550 Old St Augustine Rd","name":""},
  {"lat":29.209128,"lon":-82.063728,"city":"Ocala","state":"FL","address":"4980 E Silver Springs Blvd","name":""},
  {"lat":30.093572,"lon":-81.520727,"city":"St. Johns","state":"FL","address":"845 Durbin Pavilion Dr","name":""},
  {"lat":30.179035,"lon":-81.555955,"city":"Jacksonville","state":"FL","address":"10251 Shops Ln","name":""},
  {"lat":30.279296,"lon":-81.629028,"city":"Jacksonville","state":"FL","address":"4250 Phillips Hwy","name":""},
  {"lat":29.157797,"lon":-82.166446,"city":"Ocala","state":"FL","address":"2600 Sw 19th Avenue Rd","name":""},
  {"lat":30.219351,"lon":-81.559375,"city":"Jacksonville","state":"FL","address":"9550 Baymeadows Rd","name":""},
  {"lat":29.502214,"lon":-82.867604,"city":"Chiefland","state":"FL","address":"2201 N Young Blvd","name":""},
  {"lat":30.283552,"lon":-81.562659,"city":"Jacksonville","state":"FL","address":"8808 Beach Blvd","name":""},
  {"lat":29.118589,"lon":-82.023515,"city":"Ocala","state":"FL","address":"34 Bahia Ave","name":""},
  {"lat":29.087437,"lon":-82.251193,"city":"Ocala","state":"FL","address":"7855 Sw Hwy 200","name":""},
  {"lat":29.856206,"lon":-81.325555,"city":"St Augustine","state":"FL","address":"2355 Us Highway 1 S","name":""},
  {"lat":30.450358,"lon":-81.706667,"city":"Jacksonville","state":"FL","address":"12100 Lem Turner Rd","name":""},
  {"lat":30.353663,"lon":-81.562327,"city":"Jacksonville","state":"FL","address":"8011 Merrill Rd","name":""},
  {"lat":30.342311,"lon":-81.545435,"city":"Jacksonville","state":"FL","address":"9890 Hutchinson Park Dr","name":""},
  {"lat":29.056581,"lon":-82.276131,"city":"Ocala","state":"FL","address":"9570 Sw Highway 200","name":""},
  {"lat":30.317227,"lon":-81.491913,"city":"Jacksonville","state":"FL","address":"11900 Atlantic Blvd","name":""},
  {"lat":30.284708,"lon":-81.462648,"city":"Jacksonville","state":"FL","address":"13490 Beach Blvd","name":""},
  {"lat":29.063309,"lon":-82.455718,"city":"Dunnellon","state":"FL","address":"11012 No. Williams St","name":""},
  {"lat":30.318402,"lon":-81.450489,"city":"Jacksonville","state":"FL","address":"1650 San Pablo Rd S","name":""},
  {"lat":30.477426,"lon":-81.638694,"city":"Jacksonville","state":"FL","address":"13227 City Square Dr","name":""},
  {"lat":30.324465,"lon":-82.963965,"city":"Live Oak","state":"FL","address":"6868 Us Highway 129","name":""},
  {"lat":29.549789,"lon":-81.225351,"city":"Palm Coast","state":"FL","address":"174 Cypress Point Pkwy","name":""},
  {"lat":28.962586,"lon":-81.964871,"city":"Summerfield","state":"FL","address":"17961 S Us Highway 441","name":""},
  {"lat":28.930175,"lon":-82.031165,"city":"The Villages","state":"FL","address":"4085 Wedgewood Ln","name":""},
  {"lat":30.619654,"lon":-81.534526,"city":"Yulee","state":"FL","address":"464016 State Road 200","name":""},
  {"lat":28.891252,"lon":-82.489485,"city":"Lecanto","state":"FL","address":"1936 N Lecanto Hwy","name":""},
  {"lat":28.862938,"lon":-81.955868,"city":"The Villages","state":"FL","address":"270 Heald Way","name":""},
  {"lat":28.857739,"lon":-82.392594,"city":"Inverness","state":"FL","address":"2461 E Gulf To Lake Hwy","name":""},
  {"lat":28.842541,"lon":-81.898976,"city":"Leesburg","state":"FL","address":"2501 Citrus Blvd","name":""},
  {"lat":30.647388,"lon":-81.456201,"city":"Fernandina Beach","state":"FL","address":"1385 Amelia Plz","name":""},
  {"lat":30.778341,"lon":-81.618832,"city":"St. Marys","state":"GA","address":"6586 Ga Highway 40 E","name":""},
  {"lat":29.061849,"lon":-81.301737,"city":"Deland","state":"FL","address":"1699 N Woodland Blvd","name":""},
  {"lat":37.346568,"lon":-108.561994,"city":"Cortez","state":"CO","address":"1835 E Main St","name":""},
  {"lat":36.731879,"lon":-108.226179,"city":"Farmington","state":"NM","address":"1400 W Main St","name":""},
  {"lat":36.767987,"lon":-108.151504,"city":"Farmington","state":"NM","address":"4600 E Main St","name":""},
  {"lat":37.229957,"lon":-107.865721,"city":"Durango","state":"CO","address":"1155 S Camino Del Rio","name":""},
  {"lat":43.516884,"lon":-96.773496,"city":"Sioux Falls","state":"SD","address":"3209 S Louise Ave","name":""},
  {"lat":43.603275,"lon":-96.789624,"city":"Sioux Falls","state":"SD","address":"5200 W 60th St N","name":""},
  {"lat":43.472394,"lon":-96.729664,"city":"Sioux Falls","state":"SD","address":"7821 S Minnesota Ave","name":""},
  {"lat":43.541151,"lon":-96.658586,"city":"Sioux Falls","state":"SD","address":"5521 E Arrowhead Pkwy","name":""},
  {"lat":42.907335,"lon":-97.401088,"city":"Yankton","state":"SD","address":"3001 Broadway Ave","name":""},
  {"lat":43.684941,"lon":-98.009732,"city":"Mitchell","state":"SD","address":"1101 E Spruce St","name":""},
  {"lat":42.791691,"lon":-96.936241,"city":"Vermillion","state":"SD","address":"1207 Princeton Ave","name":""},
  {"lat":43.059787,"lon":-96.180874,"city":"Sioux Center","state":"IA","address":"255 16th St Sw","name":""},
  {"lat":44.314385,"lon":-96.766071,"city":"Brookings","state":"SD","address":"2233 6th St.","name":""},
  {"lat":42.781897,"lon":-96.187601,"city":"Le Mars","state":"IA","address":"1111 Holton Dr","name":""},
  {"lat":44.332969,"lon":-98.217288,"city":"Huron","state":"SD","address":"2791 Dakota Ave S","name":""},
  {"lat":42.531771,"lon":-96.374694,"city":"Sioux City","state":"IA","address":"3101 Floyd Blvd","name":""},
  {"lat":42.473517,"lon":-96.430077,"city":"South Sioux City","state":"NE","address":"1601 Cornhusker Dr","name":""},
  {"lat":42.433605,"lon":-96.363597,"city":"Sioux City","state":"IA","address":"3400 Singing Hills Blvd","name":""},
  {"lat":43.636684,"lon":-95.601827,"city":"Worthington","state":"MN","address":"1055 Ryans Rd","name":""},
  {"lat":44.886833,"lon":-97.069827,"city":"Watertown","state":"SD","address":"1201 29th St Se","name":""},
  {"lat":42.024062,"lon":-97.445242,"city":"Norfolk","state":"NE","address":"2400 W Pasewalk Ave","name":""},
  {"lat":47.645663,"lon":-117.558461,"city":"Spokane","state":"WA","address":"1221 S Hayford Rd","name":""},
  {"lat":47.699121,"lon":-117.445813,"city":"Spokane","state":"WA","address":"2301 W Wellesley Ave","name":""},
  {"lat":47.741455,"lon":-117.402109,"city":"Spokane","state":"WA","address":"9212 N Colton St","name":""},
  {"lat":47.658489,"lon":-117.337796,"city":"Spokane Valley","state":"WA","address":"5025 E Sprague Ave","name":""},
  {"lat":47.666879,"lon":-117.191367,"city":"Spokane Valley","state":"WA","address":"15727 E Broadway Ave","name":""},
  {"lat":47.704212,"lon":-117.030894,"city":"Post Falls","state":"ID","address":"6405 W Pointe Parkway","name":""},
  {"lat":47.713726,"lon":-116.907133,"city":"Post Falls","state":"ID","address":"3050 E Mullan Ave","name":""},
  {"lat":48.553747,"lon":-117.915156,"city":"Colville","state":"WA","address":"810 North Highway","name":""},
  {"lat":47.748972,"lon":-116.793356,"city":"Hayden","state":"ID","address":"550 W Honeysuckle Ave","name":""},
  {"lat":47.141203,"lon":-119.274822,"city":"Moses","state":"WA","address":"1005 N Stratford Rd","name":""},
  {"lat":47.304491,"lon":-119.540466,"city":"Ephrata","state":"WA","address":"1399 Nat Washington Way","name":""},
  {"lat":48.414021,"lon":-119.507878,"city":"Omak","state":"WA","address":"902 Engh Rd","name":""},
  {"lat":46.824205,"lon":-119.148012,"city":"Othello","state":"WA","address":"1860 E Main St","name":""},
  {"lat":48.307779,"lon":-116.543769,"city":"Ponderay","state":"ID","address":"476999 Highway 95","name":""},
  {"lat":46.712044,"lon":-117.175627,"city":"Pullman","state":"WA","address":"1690 Se Harvest Dr","name":""},
  {"lat":46.734578,"lon":-117.035803,"city":"Moscow","state":"ID","address":"2470 W Pullman Rd","name":""},
  {"lat":47.842575,"lon":-119.987611,"city":"Chelan","state":"WA","address":"108 Apple Blossom Dr","name":""},
  {"lat":47.544831,"lon":-116.186957,"city":"Smelterville","state":"ID","address":"583 Commerce Drive","name":""},
  {"lat":47.526613,"lon":-111.296587,"city":"Great Falls","state":"MT","address":"701 Smelter Ave Ne","name":""},
  {"lat":47.491452,"lon":-111.218821,"city":"Great Falls","state":"MT","address":"5320 10th Ave S","name":""},
  {"lat":48.554783,"lon":-109.737138,"city":"Havre","state":"MT","address":"3510 Us Highway 2 W","name":""},
  {"lat":46.880551,"lon":-98.723048,"city":"Jamestown","state":"ND","address":"921 25th St Sw","name":""},
  {"lat":25.987841,"lon":-80.123891,"city":"Hallandale Beach","state":"FL","address":"2551 E Hallandale Beach Blvd","name":""},
  {"lat":26.035061,"lon":-80.136421,"city":"Dania Beach","state":"FL","address":"401 E Sheridan St","name":""},
  {"lat":26.216072,"lon":-80.108561,"city":"Pompano Beach","state":"FL","address":"1199 S Federal Hwy","name":""},
  {"lat":26.293218,"lon":-80.095986,"city":"Pompano Beach","state":"FL","address":"5001 N Federal Highway","name":""},
  {"lat":26.11905,"lon":-80.1753,"city":"Fort Lauderdale","state":"FL","address":"2500 W Broward Blvd","name":""},
  {"lat":25.928322,"lon":-80.171231,"city":"North Miami Beach","state":"FL","address":"1425 Ne 163rd St","name":""},
  {"lat":26.227911,"lon":-80.155019,"city":"Pompano Beach","state":"FL","address":"2300 W Atlantic Blvd","name":""},
  {"lat":26.007577,"lon":-80.204358,"city":"Hollywood","state":"FL","address":"301 S State Road 7","name":""},
  {"lat":26.302965,"lon":-80.132044,"city":"Deerfield Beach","state":"FL","address":"1101 S Military Trl","name":""},
  {"lat":25.935725,"lon":-80.207676,"city":"Miami Gardens","state":"FL","address":"17650 Nw 2nd Ave","name":""},
  {"lat":26.162472,"lon":-80.205439,"city":"Lauderdale Lakes","state":"FL","address":"3001 N State Road 7","name":""},
  {"lat":26.237493,"lon":-80.203056,"city":"Margate","state":"FL","address":"5555 W Atlantic Blvd","name":""},
  {"lat":25.952899,"lon":-80.243694,"city":"Miami Gardens","state":"FL","address":"19501 Nw 27th Ave","name":""},
  {"lat":25.993507,"lon":-80.250424,"city":"Miramar","state":"FL","address":"1800 South University Drive","name":""},
  {"lat":26.066667,"lon":-80.254311,"city":"Davie","state":"FL","address":"4301 S University Dr","name":""},
  {"lat":26.425816,"lon":-80.071609,"city":"Delray Beach","state":"FL","address":"3155 S Federal Hwy","name":""},
  {"lat":26.043145,"lon":-80.258481,"city":"Hollywood","state":"FL","address":"8550 Stirling Rd","name":""},
  {"lat":26.205328,"lon":-80.229699,"city":"North Lauderdale","state":"FL","address":"7900 W Mcnab Rd","name":""},
  {"lat":26.278369,"lon":-80.203217,"city":"Coral Springs","state":"FL","address":"3801 Turtle Creek Dr","name":""},
  {"lat":26.167991,"lon":-80.254312,"city":"Sunrise","state":"FL","address":"3306 N University Dr","name":""},
  {"lat":25.926748,"lon":-80.262238,"city":"Miami Gardens","state":"FL","address":"3791 Nw 167th St","name":""},
  {"lat":26.149383,"lon":-80.270122,"city":"Plantation","state":"FL","address":"1885 N Pine Island Rd","name":""},
  {"lat":26.318721,"lon":-80.200331,"city":"Coconut Creek","state":"FL","address":"5571 W Hillsboro Blvd","name":""},
  {"lat":25.843304,"lon":-80.251349,"city":"Miami","state":"FL","address":"3200 Nw 79th St","name":""},
  {"lat":26.208986,"lon":-80.270275,"city":"Tamarac","state":"FL","address":"6931 Nw 88th Avenue","name":""},
  {"lat":26.348257,"lon":-80.200601,"city":"Boca Raton","state":"FL","address":"22100 S State Road 7","name":""},
  {"lat":26.436447,"lon":-80.124398,"city":"Delray Beach","state":"FL","address":"16205 S Military Trl","name":""},
  {"lat":25.935795,"lon":-80.295861,"city":"Hialeah","state":"FL","address":"5851 Nw 177th St","name":""},
  {"lat":26.242203,"lon":-80.267388,"city":"Coral Springs","state":"FL","address":"10635 W Atlantic Blvd","name":""},
  {"lat":26.492812,"lon":-80.063914,"city":"Boynton Beach","state":"FL","address":"3625 S Federal Hwy","name":""},
  {"lat":26.062113,"lon":-80.310617,"city":"Cooper City","state":"FL","address":"4700 S Flamingo Rd","name":""},
  {"lat":26.288228,"lon":-80.252412,"city":"Coral Springs","state":"FL","address":"4650 N University Dr","name":""},
  {"lat":26.005314,"lon":-80.318302,"city":"Pembroke Pines","state":"FL","address":"12800 Pines Blvd","name":""},
  {"lat":25.866091,"lon":-80.291605,"city":"Hialeah","state":"FL","address":"400 W 49th St","name":""},
  {"lat":26.147869,"lon":-80.317872,"city":"Sunrise","state":"FL","address":"12555 W Sunrise Blvd","name":""},
  {"lat":26.489081,"lon":-80.121296,"city":"Boynton Beach","state":"FL","address":"12700 S Military Trl","name":""},
  {"lat":26.304295,"lon":-80.276172,"city":"Coral Springs","state":"FL","address":"6001 Coral Ridge Dr","name":""},
  {"lat":25.858609,"lon":-80.325508,"city":"Hialeah","state":"FL","address":"9300 Nw 77th Ave","name":""},
  {"lat":26.528975,"lon":-80.095846,"city":"Boynton Beach","state":"FL","address":"3200 Old Boynton Rd","name":""},
  {"lat":26.529283,"lon":-80.120263,"city":"Boynton Beach","state":"FL","address":"9840 S Military Trl Ste G-1","name":""},
  {"lat":25.881071,"lon":-80.352372,"city":"Hialeah Gardens","state":"FL","address":"11800 Hialeah Gardens Blvd","name":""},
  {"lat":25.764931,"lon":-80.308812,"city":"Miami","state":"FL","address":"6991 Sw 8th St","name":""},
  {"lat":26.005806,"lon":-80.389617,"city":"Pembroke Pines","state":"FL","address":"151 Sw 184th Ave","name":""},
  {"lat":25.787051,"lon":-80.335332,"city":"Doral","state":"FL","address":"8651 Nw 13th Ter","name":""},
  {"lat":25.770271,"lon":-80.343478,"city":"Miami","state":"FL","address":"9191 W Flagler St","name":""},
  {"lat":25.746027,"lon":-80.332788,"city":"Miami","state":"FL","address":"8400 Coral Way","name":""},
  {"lat":26.574934,"lon":-80.114466,"city":"Lake Worth","state":"FL","address":"4545 Hypoluxo Rd","name":""},
  {"lat":26.587531,"lon":-80.148461,"city":"Lake Worth","state":"FL","address":"6177 S Jog Rd","name":""},
  {"lat":26.630909,"lon":-80.083866,"city":"Palm Springs","state":"FL","address":"2765 10th Ave N","name":""},
  {"lat":26.621385,"lon":-80.147635,"city":"Greenacres","state":"FL","address":"3911 S Jog Rd","name":""},
  {"lat":29.395794,"lon":-100.901051,"city":"Del Rio","state":"TX","address":"2410 Dodson Ave","name":""},
  {"lat":38.086806,"lon":-102.602019,"city":"Lamar","state":"CO","address":"1432 E Olive St","name":""},
  {"lat":37.998201,"lon":-103.593261,"city":"La Junta","state":"CO","address":"6 Conley Rd","name":""},
  {"lat":39.334291,"lon":-101.728538,"city":"Goodland","state":"KS","address":"2160 Commerce Rd","name":""},
  {"lat":34.662905,"lon":-120.465243,"city":"Lompoc","state":"CA","address":"701 W Central Ave","name":""},
  {"lat":34.9189,"lon":-120.419084,"city":"Santa Maria","state":"CA","address":"2240 S Bradley Rd","name":""},
  {"lat":34.919879,"lon":-120.419149,"city":"Santa Maria","state":"CA","address":"2220 S Bradley Rd","name":""},
  {"lat":34.948243,"lon":-120.452738,"city":"Santa Maria","state":"CA","address":"500 S Blosser Rd","name":""},
  {"lat":35.128952,"lon":-120.597708,"city":"Arroyo Grande","state":"CA","address":"1168 W Branch St","name":""},
  {"lat":34.258212,"lon":-119.212959,"city":"Ventura","state":"CA","address":"1739 S Victoria Ave","name":""},
  {"lat":34.174567,"lon":-119.179578,"city":"Oxnard","state":"CA","address":"2701 Saviers Rd","name":""},
  {"lat":34.237006,"lon":-119.178825,"city":"Oxnard","state":"CA","address":"421 W Esplanade Dr","name":""},
  {"lat":34.220122,"lon":-119.161544,"city":"Oxnard","state":"CA","address":"2001 N Rose Ave","name":""},
  {"lat":35.612465,"lon":-120.681713,"city":"Paso Robles","state":"CA","address":"180 Niblick Rd","name":""},
  {"lat":46.464721,"lon":-84.365356,"city":"Sault Sainte Marie","state":"MI","address":"3763 I-75 Business Spur","name":""},
  {"lat":45.626151,"lon":-84.482416,"city":"Cheboygan","state":"MI","address":"1150 S Main St","name":""},
  {"lat":39.475689,"lon":-118.806469,"city":"Fallon","state":"NV","address":"2333 Reno Hwy","name":""},
  {"lat":40.953301,"lon":-117.745885,"city":"Winnemucca","state":"NV","address":"3010 Potato Rd","name":""},
  {"lat":39.611238,"lon":-119.216856,"city":"Fernley","state":"NV","address":"1550 Newlands Dr E","name":""},
  {"lat":31.560187,"lon":-110.260441,"city":"Sierra Vista","state":"AZ","address":"500 N Highway 90 Byp","name":""},
  {"lat":40.664037,"lon":-80.586369,"city":"East Liverpool","state":"OH","address":"16280 Dresden Ave","name":""},
  {"lat":40.678687,"lon":-80.301431,"city":"Monaca","state":"PA","address":"3942 Brodhead Rd","name":""},
  {"lat":40.782067,"lon":-80.383263,"city":"Beaver Falls","state":"PA","address":"100 Chippewa Town Ctr","name":""},
  {"lat":40.390303,"lon":-80.549476,"city":"Weirton","state":"WV","address":"400 Three Springs Dr","name":""},
  {"lat":40.658211,"lon":-80.226573,"city":"Baden","state":"PA","address":"1500 Economy Way","name":""},
  {"lat":40.515671,"lon":-80.224153,"city":"Moon Township","state":"PA","address":"7500 University Boulevard","name":""},
  {"lat":40.365453,"lon":-80.669405,"city":"Steubenville","state":"OH","address":"100 Mall Dr","name":""},
  {"lat":40.447374,"lon":-80.176379,"city":"Pittsburgh","state":"PA","address":"250 Summit Park Dr","name":""},
  {"lat":40.687781,"lon":-80.105554,"city":"Cranberry Township","state":"PA","address":"20245 Route 19","name":""},
  {"lat":40.899615,"lon":-80.817636,"city":"Salem","state":"OH","address":"2875 E State St","name":""},
  {"lat":40.386889,"lon":-80.096172,"city":"Carnegie","state":"PA","address":"2200 Washington Pike","name":""},
  {"lat":41.008938,"lon":-80.394511,"city":"New Castle","state":"PA","address":"2501 W State St","name":""},
  {"lat":41.028956,"lon":-80.630738,"city":"Poland","state":"OH","address":"1300 Doral Dr","name":""},
  {"lat":40.623145,"lon":-79.946554,"city":"Gibsonia","state":"PA","address":"300 Walmart Dr","name":""},
  {"lat":40.338922,"lon":-80.023516,"city":"Bethel Park","state":"PA","address":"5055 Library Rd","name":""},
  {"lat":40.182699,"lon":-80.221731,"city":"Washington","state":"PA","address":"30 Trinity Point Dr","name":""},
  {"lat":40.341934,"lon":-79.946444,"city":"West Mifflin","state":"PA","address":"2351 Century Dr","name":""},
  {"lat":40.878144,"lon":-79.943131,"city":"Butler","state":"PA","address":"400 Butler Cmns","name":""},
  {"lat":41.097479,"lon":-80.773918,"city":"Austintown","state":"OH","address":"6001 Mahoning Ave","name":""},
  {"lat":40.564188,"lon":-79.804154,"city":"Tarentum","state":"PA","address":"2010 Village Center Dr","name":""},
  {"lat":40.058267,"lon":-80.605233,"city":"Triadelphia","state":"WV","address":"450 Stewart Ln","name":""},
  {"lat":41.147548,"lon":-80.661761,"city":"Youngstown","state":"OH","address":"200 Goldie Rd","name":""},
  {"lat":40.387312,"lon":-79.824756,"city":"North Versailles","state":"PA","address":"100 Walmart Dr","name":""},
  {"lat":40.075741,"lon":-80.875036,"city":"St. Clairsville","state":"OH","address":"50739 Valley Plaza Dr","name":""},
  {"lat":40.646984,"lon":-79.712979,"city":"Natrona Heights","state":"PA","address":"100 Highlands Mall","name":""},
  {"lat":41.168143,"lon":-80.114583,"city":"Grove City","state":"PA","address":"1566 W Main Street Ext","name":""},
  {"lat":41.249841,"lon":-80.452852,"city":"Hermitage","state":"PA","address":"1275 N Hermitage Rd","name":""},
  {"lat":40.138544,"lon":-79.845636,"city":"Belle Vernon","state":"PA","address":"100 Sara Way","name":""},
  {"lat":40.316476,"lon":-79.686308,"city":"North Huntingdon","state":"PA","address":"915 Mills Dr","name":""},
  {"lat":41.274297,"lon":-80.771921,"city":"Cortland","state":"OH","address":"2016 Millennium Blvd","name":""},
  {"lat":39.926795,"lon":-80.747749,"city":"Moundsville","state":"WV","address":"10 Walmart Dr","name":""},
  {"lat":40.399049,"lon":-79.590241,"city":"Delmont","state":"PA","address":"6700 Hollywood Blvd","name":""},
  {"lat":40.026289,"lon":-79.898988,"city":"West Brownsville","state":"PA","address":"134 Daniel Kendall Dr","name":""},
  {"lat":39.893906,"lon":-80.126499,"city":"Waynesburg","state":"PA","address":"405 Murtha Dr","name":""},
  {"lat":40.814731,"lon":-79.542012,"city":"Kittanning","state":"PA","address":"1 Hilltop Plz","name":""},
  {"lat":40.308954,"lon":-79.581448,"city":"Greensburg","state":"PA","address":"2200 Greengate Centre Cir","name":""},
  {"lat":41.415434,"lon":-80.358892,"city":"Greenville","state":"PA","address":"45 Williamson Rd","name":""},
  {"lat":40.127852,"lon":-79.545057,"city":"Mount Pleasant","state":"PA","address":"2100 Summit Ridge Plz","name":""},
  {"lat":39.914351,"lon":-79.756686,"city":"Uniontown","state":"PA","address":"355 Walmart Dr","name":""},
  {"lat":42.193388,"lon":-121.760604,"city":"Klamath Falls","state":"OR","address":"3600 Washburn Way","name":""},
  {"lat":34.435074,"lon":-100.234329,"city":"Childress","state":"TX","address":"2801 Avenue F Nw","name":""},
  {"lat":34.196072,"lon":-101.753165,"city":"Plainview","state":"TX","address":"1501 N Interstate 27","name":""},
  {"lat":33.590513,"lon":-101.858914,"city":"Lubbock","state":"TX","address":"1911 Marsha Sharp Fwy","name":""},
  {"lat":33.589242,"lon":-101.938112,"city":"Lubbock","state":"TX","address":"702 W Loop 289","name":""},
  {"lat":33.504484,"lon":-101.868925,"city":"Lubbock","state":"TX","address":"9809 University Ave","name":""},
  {"lat":33.527863,"lon":-101.903578,"city":"Lubbock","state":"TX","address":"4215 S Loop 289","name":""},
  {"lat":33.489339,"lon":-101.901918,"city":"Lubbock","state":"TX","address":"11415 Quaker Ave","name":""},
  {"lat":34.998002,"lon":-101.922569,"city":"Canyon","state":"TX","address":"1701 N 23rd St","name":""},
  {"lat":33.516395,"lon":-101.955269,"city":"Lubbock","state":"TX","address":"6315 82nd St","name":""},
  {"lat":35.189773,"lon":-101.793394,"city":"Amarillo","state":"TX","address":"3700 E Interstate 40","name":""},
  {"lat":35.179619,"lon":-101.815381,"city":"Amarillo","state":"TX","address":"2035 Se 34th Ave","name":""},
  {"lat":35.148237,"lon":-101.866944,"city":"Amarillo","state":"TX","address":"2711 Sw 58th St","name":""},
  {"lat":35.169843,"lon":-101.862903,"city":"Amarillo","state":"TX","address":"4215 Canyon Dr","name":""},
  {"lat":35.130784,"lon":-101.919073,"city":"Amarillo","state":"TX","address":"7251 Arden Rd","name":""},
  {"lat":35.159756,"lon":-101.923552,"city":"Amarillo","state":"TX","address":"4610 S Coulter St","name":""},
  {"lat":35.212362,"lon":-101.907764,"city":"Amarillo","state":"TX","address":"5730 W Amarillo Blvd","name":""},
  {"lat":34.163406,"lon":-99.310215,"city":"Vernon","state":"TX","address":"3800 Us Highway 287 W","name":""},
  {"lat":35.570113,"lon":-100.969754,"city":"Pampa","state":"TX","address":"2801 No. Charles St.","name":""},
  {"lat":34.664247,"lon":-99.331282,"city":"Altus","state":"OK","address":"2500 N Main St","name":""},
  {"lat":33.596282,"lon":-102.361308,"city":"Levelland","state":"TX","address":"407 E State Road 114","name":""},
  {"lat":34.839792,"lon":-102.407671,"city":"Hereford","state":"TX","address":"300 W 15th St","name":""},
  {"lat":35.838433,"lon":-83.574132,"city":"Sevierville","state":"TN","address":"1414 Parkway","name":""},
  {"lat":35.862115,"lon":-83.529854,"city":"Sevierville","state":"TN","address":"1185 Dolly Parton Pkwy","name":""},
  {"lat":35.911682,"lon":-83.843913,"city":"Knoxville","state":"TN","address":"7420 Chapman Hwy","name":""},
  {"lat":35.771375,"lon":-83.992087,"city":"Alcoa","state":"TN","address":"1030 Hunters Xing","name":""},
  {"lat":35.714751,"lon":-84.012705,"city":"Maryville","state":"TN","address":"2410 Us Highway 411 S","name":""},
  {"lat":36.031121,"lon":-83.866358,"city":"Knoxville","state":"TN","address":"3051 Kinzel Way","name":""},
  {"lat":35.976487,"lon":-84.011124,"city":"Knoxville","state":"TN","address":"3120 Mckamey Rd","name":""},
  {"lat":35.926397,"lon":-84.062848,"city":"Knoxville","state":"TN","address":"8445 Walbrook Dr","name":""},
  {"lat":36.005361,"lon":-84.026853,"city":"Knoxville","state":"TN","address":"6777 Clinton Hwy","name":""},
  {"lat":35.900322,"lon":-84.147526,"city":"Knoxville","state":"TN","address":"10900 Parkside Dr","name":""},