{"key":"ymca","displayName":"YMCA","category":"fitness","useLocationName":false,"locations":[
  {"lat":40.737695,"lon":-73.997534,"city":"New York City","state":"NY","address":"125 West 14th St","name":""},
  {"lat":25.97906,"lon":-80.147031,"city":"Hallandale Beach","state":"FL","address":"501 SE 1st Ave","name":""},
  {"lat":40.753682,"lon":-73.971566,"city":"New York City","state":"NY","address":"224 E 47th St","name":""},
  {"lat":40.770536,"lon":-73.980177,"city":"New York City","state":"NY","address":"5 West 63rd St, 6th Floor","name":""},
  {"lat":40.770536,"lon":-73.980177,"city":"New York City","state":"NY","address":"5 West 63rd Street","name":""},
  {"lat":40.770536,"lon":-73.980177,"city":"New York City","state":"NY","address":"5 W 63rd St","name":""},
  {"lat":40.6687,"lon":-73.9849,"city":"Brooklyn","state":"NY","address":"357 9th St","name":""},
  {"lat":40.723737,"lon":-73.992663,"city":"New York City","state":"NY","address":"Houston Street Center","name":""},
  {"lat":40.689496,"lon":-73.991834,"city":"Brooklyn","state":"NY","address":"225 Atlantic Avenue","name":""},
  {"lat":40.811608,"lon":-73.846301,"city":"The Bronx","state":"NY","address":"2 Castle Hill Ave","name":""},
  {"lat":43.0507,"lon":-74.3444,"city":"Gloversville","state":"NY","address":"Residency Program","name":""},
  {"lat":25.799117,"lon":-80.224296,"city":"Miami","state":"FL","address":"2370 NW 17 Avenue","name":""},
  {"lat":43.020484,"lon":-74.349135,"city":"Johnstown","state":"NY","address":"213 Harrison Street","name":""},
  {"lat":41.089836,"lon":-73.918528,"city":"Nyack","state":"NY","address":"35 South Broadway","name":""},
  {"lat":40.9335,"lon":-73.899999,"city":"Yonkers","state":"NY","address":"17 Riverdale Ave","name":""},
  {"lat":32.159823,"lon":-110.967053,"city":"Tucson","state":"AZ","address":"5085 S Nogales Hwy","name":""},
  {"lat":40.86772,"lon":-75.258319,"city":"Pen Argyl","state":"PA","address":"315 West Pennsylvania Ave","name":""},
  {"lat":40.574252,"lon":-73.995038,"city":"Brooklyn","state":"NY","address":"2980 W. 29th St.","name":""},
  {"lat":40.889622,"lon":-74.039876,"city":"New Milford","state":"NJ","address":"1092 Carnation Drive","name":""},
  {"lat":26.0257,"lon":-80.172099,"city":"Hollywood","state":"FL","address":"3161 Taft St","name":""},
  {"lat":43.636925,"lon":-116.672999,"city":"Caldwell","state":"ID","address":"3720 S. Indiana","name":""},
  {"lat":26.110825,"lon":-80.13963,"city":"Fort Lauderdale","state":"FL","address":"900 SE Third Ave","name":""},
  {"lat":26.110855,"lon":-80.139915,"city":"Fort Lauderdale","state":"FL","address":"900 SE 3rd Avenue","name":""},
  {"lat":40.982883,"lon":-74.117756,"city":"Ridgewood","state":"NJ","address":"112 Oak Street","name":""},
  {"lat":40.982562,"lon":-74.117095,"city":"Ridgewood","state":"NJ","address":"112 Oak St","name":""},
  {"lat":43.800686,"lon":-74.858337,"city":"Eagle Bay","state":"NY","address":"265 Darts Lake Rd","name":""},
  {"lat":41.293936,"lon":-74.16679,"city":"Monroe","state":"NY","address":"45 Gilbert St Extension","name":""},
  {"lat":40.880407,"lon":-74.117619,"city":"Garfield","state":"NJ","address":"33 Outwater Ln","name":""},
  {"lat":40.345169,"lon":-74.068265,"city":"Red Bank","state":"NJ","address":"166 Maple Avenue","name":""},
  {"lat":26.125757,"lon":-80.160106,"city":"Fort Lauderdale","state":"FL","address":"1409 NW 6th Street","name":""},
  {"lat":40.805025,"lon":-74.121196,"city":"East","state":"NJ","address":"390 Murray Hill Parkway","name":""},
  {"lat":33.729384,"lon":-116.382499,"city":"Palm Desert","state":"CA","address":"43930 San Pablo Ave","name":""},
  {"lat":40.624831,"lon":-74.114202,"city":"Staten Island","state":"NY","address":"651 Broadway","name":""},
  {"lat":41.0138,"lon":-74.171899,"city":"Wyckoff","state":"NJ","address":"691 Wyckoff Ave","name":""},
  {"lat":40.407521,"lon":-74.10096,"city":"Freehold","state":"NJ","address":"41 Center Street","name":""},
  {"lat":40.408215,"lon":-74.101375,"city":"Shrewsbury","state":"NJ","address":"170 Patterson Avenue","name":""},
  {"lat":40.914752,"lon":-74.170278,"city":"Paterson","state":"NJ","address":"128 Ward St","name":""},
  {"lat":40.741636,"lon":-74.169007,"city":"Newark","state":"NJ","address":"600 Broad Street","name":""},
  {"lat":40.741636,"lon":-74.169007,"city":"Newark","state":"NJ","address":"600 Broad Street","name":""},
  {"lat":26.002101,"lon":-80.376341,"city":"Pembroke Pines","state":"FL","address":"501 SW 172 Ave","name":""},
  {"lat":40.127326,"lon":-74.126422,"city":"Brick","state":"NJ","address":"3911 Herbertsville Rd","name":""},
  {"lat":40.542203,"lon":-74.1632,"city":"Staten Island","state":"NY","address":"3939 Richmond Ave","name":""},
  {"lat":40.948999,"lon":-74.220886,"city":"Wayne","state":"NJ","address":"1 Pike Drive","name":""},
  {"lat":40.764325,"lon":-74.208599,"city":"East","state":"NJ","address":"100 N Arlington Ave","name":""},
  {"lat":40.815913,"lon":-74.218286,"city":"Montclair","state":"NJ","address":"25 Park Street","name":""},
  {"lat":40.665801,"lon":-74.210846,"city":"Elizabeth","state":"NJ","address":"144 Madison Avenue","name":""},
  {"lat":40.665359,"lon":-74.210613,"city":"Elizabeth","state":"NJ","address":"135 Madison Avenue","name":""},
  {"lat":40.662598,"lon":-74.213365,"city":"Elizabeth","state":"NJ","address":"16-20 Jefferson Ave","name":""},
  {"lat":40.413,"lon":-74.230999,"city":"Matawan","state":"NJ","address":"166 Main St","name":""},
  {"lat":40.410349,"lon":-74.231693,"city":"Freehold","state":"NJ","address":"470 East Freehold Road","name":""},
  {"lat":40.734799,"lon":-74.270143,"city":"Maplewood","state":"NJ","address":"","name":""},
  {"lat":40.6747,"lon":-74.2657,"city":"Union","state":"NJ","address":"1000 Galloping Hill Rd","name":""},
  {"lat":40.699191,"lon":-74.272599,"city":"Union","state":"NJ","address":"1000 Galloping Hill Road","name":""},
  {"lat":40.671157,"lon":-74.269312,"city":"Union","state":"NJ","address":"201 Tucker Avenue","name":""},
  {"lat":40.000825,"lon":-74.208902,"city":"Toms River","state":"NJ","address":"1088 West Whitty Rd","name":""},
  {"lat":40.609725,"lon":-74.276561,"city":"Rahway","state":"NJ","address":"1564 Irving Street","name":""},
  {"lat":40.80623,"lon":-74.302892,"city":"Livingston","state":"NJ","address":"304 S. Livingston Ave","name":""},
  {"lat":40.515055,"lon":-74.275415,"city":"Perth Amboy","state":"NJ","address":"357 New Brunswick Avenue","name":""},
  {"lat":26.3528,"lon":-80.144763,"city":"Boca Raton","state":"FL","address":"6631 Palmetto Cir S","name":""},
  {"lat":26.3528,"lon":-80.144763,"city":"Boca Raton","state":"FL","address":"2500 N Military Trail, Suite 475","name":""},
  {"lat":40.784081,"lon":-74.314278,"city":"Livingston","state":"NJ","address":"321 S Livingston Ave","name":""},
  {"lat":41.451334,"lon":-74.420433,"city":"Middletown","state":"NY","address":"81 Highland Ave","name":""},
  {"lat":26.104202,"lon":-80.418098,"city":"Weston","state":"FL","address":"20201 Saddle Club Road","name":""},
  {"lat":40.285352,"lon":-74.266882,"city":"Freehold","state":"NJ","address":"470 E Freehold Road","name":""},
  {"lat":40.477884,"lon":-74.290702,"city":"South Amboy","state":"NJ","address":"200 John T. O'Leary Blvd.","name":""},
  {"lat":40.544732,"lon":-74.301735,"city":"Woodbridge","state":"NJ","address":"400 Inman Ave.","name":""},
  {"lat":40.648791,"lon":-74.321457,"city":"Garwood","state":"NJ","address":"500 East St","name":""},
  {"lat":43.659249,"lon":-116.3409,"city":"Boise","state":"ID","address":"5959 N Discovery Way","name":""},
  {"lat":40.7117,"lon":-74.346212,"city":"Summit","state":"NJ","address":"95 Morris Ave","name":""},
  {"lat":40.654306,"lon":-74.345493,"city":"Westfield","state":"NJ","address":"422 E Broad St","name":""},
  {"lat":40.652791,"lon":-74.350137,"city":"Westfield","state":"NJ","address":"170 Elm St","name":""},
  {"lat":40.650364,"lon":-74.352706,"city":"Westfield","state":"NJ","address":"220 Clark St","name":""},
  {"lat":40.716172,"lon":-74.359594,"city":"Summit","state":"NJ","address":"67 maple street","name":""},
  {"lat":41.920326,"lon":-74.574104,"city":"Claryville","state":"NY","address":"2000 Frost Valley Rd","name":""},
  {"lat":40.39295,"lon":-74.330035,"city":"Old Bridge","state":"NJ","address":"1 Mannino Park Dr","name":""},
  {"lat":40.572138,"lon":-74.350233,"city":"Edison","state":"NJ","address":"1775 Oak Tree Rd","name":""},
  {"lat":40.72485,"lon":-74.371667,"city":"Summit","state":"NJ","address":"99 Morris Ave","name":""},
  {"lat":43.55779,"lon":-116.347716,"city":"Meridian","state":"ID","address":"5155 South Hillsdale Ave","name":""},
  {"lat":40.632007,"lon":-74.367655,"city":"Scotch Plains","state":"NJ","address":"1340 Martine Avenue","name":""},
  {"lat":40.544408,"lon":-74.361539,"city":"Metuchen","state":"NJ","address":"483 Middlesex Ave.","name":""},
  {"lat":40.543593,"lon":-74.362701,"city":"Metuchen","state":"NJ","address":"483 Middlesex Ave.","name":""},
  {"lat":40.534089,"lon":-74.362623,"city":"Metuchen","state":"NJ","address":"65 High St","name":""},
  {"lat":40.900404,"lon":-74.4213,"city":"Mountain Lakes","state":"NJ","address":"100 Fanny Rd","name":""},
  {"lat":40.754131,"lon":-74.412084,"city":"Madison","state":"NJ","address":"111 Kings Road","name":""},
  {"lat":40.679138,"lon":-74.4276,"city":"Berkeley Heights","state":"NJ","address":"59 Locust Avenue","name":""},
  {"lat":40.61457,"lon":-74.421253,"city":"Plainfield","state":"NJ","address":"1030 Central Ave","name":""},
  {"lat":40.189705,"lon":-74.382009,"city":"Millstone","state":"NJ","address":"380 Monmouth Rd","name":""},
  {"lat":26.5336,"lon":-80.122799,"city":"Boynton Beach","state":"FL","address":"9600 S Military Tr","name":""},
  {"lat":40.4534,"lon":-74.415508,"city":"East Brunswick","state":"NJ","address":"144 Tices Lane","name":""},
  {"lat":40.81267,"lon":-74.466873,"city":"Cedar Knolls","state":"NJ","address":"79 Horse Hill Rd","name":""},
  {"lat":43.620704,"lon":-116.205148,"city":"Cascade","state":"ID","address":"301 Horsethief Rd","name":""},
  {"lat":43.620704,"lon":-116.205148,"city":"Boise","state":"ID","address":"805 W Franklin St","name":""},
  {"lat":43.620162,"lon":-116.203466,"city":"Boise","state":"ID","address":"1177 West State Street","name":""},
  {"lat":43.620104,"lon":-116.203406,"city":"Boise","state":"ID","address":"1050 W State Street","name":""},
  {"lat":40.533814,"lon":-74.470389,"city":"Piscataway","state":"NJ","address":"520 Hoes Lane","name":""},
  {"lat":26.646711,"lon":-80.089549,"city":"Lake Worth","state":"FL","address":"2728 Lake Worth Road","name":""},
  {"lat":41.139803,"lon":-74.603898,"city":"Hardyston","state":"NJ","address":"15 Wits End Rd","name":""},
  {"lat":40.865972,"lon":-74.586316,"city":"Randolph","state":"NJ","address":"14 Dover Chester Rd","name":""},
  {"lat":40.697039,"lon":-74.571505,"city":"Basking Ridge","state":"NJ","address":"140 Mount Airy Rd","name":""},
  {"lat":40.697039,"lon":-74.571505,"city":"Basking Ridge","state":"NJ","address":"140 Mount Airy Road","name":""},
  {"lat":40.57411,"lon":-74.610126,"city":"Somerville","state":"NJ","address":"2 Green St","name":""},
  {"lat":40.574125,"lon":-74.610102,"city":"Somerville","state":"NJ","address":"2 Green St","name":""},
  {"lat":34.448328,"lon":-116.135943,"city":"Twentynine Palms","state":"CA","address":"Bldg 192 MCAGCC","name":""},
  {"lat":40.594002,"lon":-74.632417,"city":"Bridgewater","state":"NJ","address":"601 Garretson Rd","name":""},
  {"lat":41.243399,"lon":-74.740599,"city":"Branchville","state":"NJ","address":"1 Flatbrook Rd","name":""},
  {"lat":40.153392,"lon":-74.625994,"city":"Hamilton","state":"NJ","address":"185 Sawmill Rd","name":""},
  {"lat":42.45635,"lon":-75.0615,"city":"Oneonta","state":"NY","address":"20-26 Ford Ave","name":""},
  {"lat":40.35159,"lon":-74.6641,"city":"Princeton","state":"NJ","address":"59 Paul Robeson Pl #1","name":""},
  {"lat":40.507119,"lon":-74.686121,"city":"Hillsborough","state":"NJ","address":"19 East Mountain Rd","name":""},
  {"lat":46.843396,"lon":-114.018299,"city":"Missoula","state":"MT","address":"3000 S Russell St","name":""},
  {"lat":43.074828,"lon":-75.296572,"city":"Whitesboro","state":"NY","address":"Trinity Treehouse","name":""},
  {"lat":40.211922,"lon":-74.691365,"city":"Hamilton","state":"NJ","address":"1315 Whitehorse-Mercerville Rd","name":""},
  {"lat":40.212952,"lon":-74.692114,"city":"Hamilton","state":"NJ","address":"1315 Whitehorse-Mercerville Road","name":""},
  {"lat":40.233665,"lon":-74.77092,"city":"Trenton","state":"NJ","address":"431 Pennington Avenue","name":""},
  {"lat":40.211339,"lon":-74.777936,"city":"Morrisville","state":"PA","address":"200 North Pennsylvania Avenue","name":""},
  {"lat":40.326304,"lon":-74.790764,"city":"Pennington","state":"NJ","address":"1646 Reed Rd","name":""},
  {"lat":43.218845,"lon":-75.456455,"city":"Rome","state":"NY","address":"301 W Bloomfield St","name":""},
  {"lat":43.220013,"lon":-75.458225,"city":"Rome","state":"NY","address":"301 W. Bloomfield Street","name":""},
  {"lat":41.081656,"lon":-74.904101,"city":"Newton","state":"NJ","address":"1035 Fairview Lake Rd","name":""},
  {"lat":40.6434,"lon":-74.850901,"city":"Annandale","state":"NJ","address":"1410 US Hwy 22 West","name":""},
  {"lat":40.6434,"lon":-74.850901,"city":"Annandale","state":"NJ","address":"1410 US Hwy 22 West","name":""},
  {"lat":40.556624,"lon":-74.843042,"city":"Flemington","state":"NJ","address":"144 West Woodschurch Rd","name":""},
  {"lat":40.770908,"lon":-74.880905,"city":"Port Murray","state":"NJ","address":"327 Turkey Top Rd","name":""},
  {"lat":39.849509,"lon":-74.794778,"city":"Medford","state":"NJ","address":"1303 Stokes Rd","name":""},
  {"lat":41.036181,"lon":-74.950373,"city":"Hardwick","state":"NJ","address":"23 Birch Ridge Rd","name":""},
  {"lat":40.167,"lon":-74.845499,"city":"Fairless Hills","state":"PA","address":"601 S Oxford Valley Rd","name":""},
  {"lat":40.167,"lon":-74.845499,"city":"Fairless Hills","state":"PA","address":"601 S Oxford Valley Rd","name":""},
  {"lat":39.962427,"lon":-74.873653,"city":"Mt Laurel","state":"NJ","address":"59 Centerton Rd","name":""},
  {"lat":43.97394,"lon":-75.9109,"city":"Watertown","state":"NY","address":"146 Arsenal Street","name":""},
  {"lat":40.23249,"lon":-74.937936,"city":"Newtown","state":"PA","address":"Chandler Hall","name":""},
  {"lat":40.081499,"lon":-74.976298,"city":"Philadelphia","state":"PA","address":"11088 Knights Rd","name":""},
  {"lat":43.076421,"lon":-75.652089,"city":"Oneida","state":"NY","address":"701 Seneca St","name":""},
  {"lat":41.577969,"lon":-75.255059,"city":"Honesdale","state":"PA","address":"105 Park Street","name":""},
  {"lat":39.485004,"lon":-75.001806,"city":"Vineland","state":"NJ","address":"1159 E Landis Ave","name":""},
  {"lat":27.1828,"lon":-80.233699,"city":"Stuart","state":"FL","address":"1700 SE Monterey Rd","name":""},
  {"lat":27.1828,"lon":-80.233699,"city":"Stuart","state":"FL","address":"1700 SE Monterey Rd","name":""},
  {"lat":42.533124,"lon":-75.523943,"city":"Norwich","state":"NY","address":"68 N Broad St","name":""},
  {"lat":40.200088,"lon":-75.065536,"city":"Warminster","state":"PA","address":"624 York Road","name":""},
  {"lat":40.984847,"lon":-75.196187,"city":"Stroudsburg","state":"PA","address":"809 Main Street","name":""},
  {"lat":40.146455,"lon":-75.111012,"city":"Willow Grove","state":"PA","address":"3400 Davisville Road","name":""},
  {"lat":27.020414,"lon":-80.477891,"city":"Indiantown","state":"FL","address":"16451 SW Farm Rd","name":""},
  {"lat":40.301854,"lon":-75.141764,"city":"Doylestown","state":"PA","address":"2500 Lower State Rd","name":""},
  {"lat":38.720945,"lon":-75.076014,"city":"Rehoboth Beach","state":"DE","address":"20080 Church St","name":""},
  {"lat":40.699756,"lon":-75.225514,"city":"Easton","state":"PA","address":"1225 West Lafayette St","name":""},
  {"lat":25.93536,"lon":-81.708164,"city":"Marco Island","state":"FL","address":"101 Sand Hill Street","name":""},
  {"lat":39.843802,"lon":-75.143737,"city":"Woodbury","state":"NJ","address":"235 E Red Bank Ave","name":""},
  {"lat":39.9745,"lon":-75.158799,"city":"Philadelphia","state":"PA","address":"1400 N Broad St #26","name":""},
  {"lat":39.94065,"lon":-75.171487,"city":"Philadelphia","state":"PA","address":"1724 Christian St","name":""},
  {"lat":39.953188,"lon":-75.17383,"city":"Dingman's Ferry","state":"PA","address":"143 Nichecronk Road","name":""},
  {"lat":40.190268,"lon":-75.215395,"city":"Ambler","state":"PA","address":"1325 McKean Rd","name":""},
  {"lat":40.741709,"lon":-75.311131,"city":"Nazareth","state":"PA","address":"33 S. Main Street","name":""},
  {"lat":39.958263,"lon":-75.223602,"city":"Philadelphia","state":"PA","address":"5120 Chestnut St","name":""},
  {"lat":40.045426,"lon":-75.232046,"city":"Philadelphia","state":"PA","address":"7201 Ridge Ave","name":""},
  {"lat":40.264838,"lon":-75.258062,"city":"Colmar","state":"PA","address":"2506 North Broad Street","name":""},
  {"lat":40.23418,"lon":-75.272908,"city":"Lansdale","state":"PA","address":"608 E. Main Street","name":""},
  {"lat":41.57498,"lon":-75.499157,"city":"Carbondale","state":"PA","address":"82 N Main St.","name":""},
  {"lat":40.438067,"lon":-75.327116,"city":"Quakertown","state":"PA","address":"401 Fairview Ave","name":""},
  {"lat":39.952129,"lon":-75.28074,"city":"Lansdowne","state":"PA","address":"2110 Garrett Rd","name":""},
  {"lat":39.952156,"lon":-75.280676,"city":"Lansdowne","state":"PA","address":"Association Office","name":""},
  {"lat":40.076716,"lon":-75.303863,"city":"Conshohocken","state":"PA","address":"400 Fayette Street, Suite 250","name":""},
  {"lat":40.6221,"lon":-75.368109,"city":"Bethlehem","state":"PA","address":"430 East Broad Street","name":""},
  {"lat":39.911136,"lon":-75.308706,"city":"Secane","state":"PA","address":"900 South Ave","name":""},
  {"lat":39.982635,"lon":-75.31784,"city":"Havertown","state":"PA","address":"891 N. Eagle Road","name":""},
  {"lat":42.998027,"lon":-75.982355,"city":"Manlius","state":"NY","address":"140 West Seneca Street","name":""},
  {"lat":43.0336,"lon":-76.017599,"city":"Fayetteville","state":"NY","address":"200 Towne Dr","name":""},
  {"lat":40.288746,"lon":-75.378153,"city":"Harleysville","state":"PA","address":"890 Maple Ave","name":""},
  {"lat":39.922273,"lon":-75.34865,"city":"Springfield","state":"PA","address":"194 West Sproul Road","name":""},
  {"lat":40.2783,"lon":-75.386899,"city":"Harleysville","state":"PA","address":"311 Alumni Ave","name":""},
  {"lat":35.9774,"lon":-75.640799,"city":"Nags Head","state":"NC","address":"3000 South Croatan Highway","name":""},
  {"lat":37.933085,"lon":-75.36366,"city":"Chincoteague Island","state":"VA","address":"6395 Maddox Blvd","name":""},
  {"lat":40.660234,"lon":-75.461971,"city":"Catasauqua","state":"PA","address":"880 Walnut St","name":""},
  {"lat":41.427727,"lon":-75.624484,"city":"Dunmore","state":"PA","address":"706 N Blakely St","name":""},
  {"lat":40.592775,"lon":-75.485649,"city":"Allentown","state":"PA","address":"425 S 15th St","name":""},
  {"lat":32.6715,"lon":-114.624136,"city":"Yuma","state":"AZ","address":"1917 W 32nd Street Suite#2","name":""},
  {"lat":40.598108,"lon":-75.489782,"city":"Allentown","state":"PA","address":"2132 South 12th Street","name":""},
  {"lat":40.406613,"lon":-75.49136,"city":"Pennsburg","state":"PA","address":"1399 Quakertown Road","name":""},
  {"lat":39.90968,"lon":-75.447138,"city":"Media","state":"PA","address":"1299 W Baltimore Pike","name":""},
  {"lat":40.038562,"lon":-75.461802,"city":"Berwyn","state":"PA","address":"1416 Berwyn Paoli Rd","name":""},
  {"lat":43.149343,"lon":-76.183512,"city":"Liverpool","state":"NY","address":"4775 Wetzel Rd","name":""},
  {"lat":26.213514,"lon":-81.765078,"city":"Naples","state":"FL","address":"5450 YMCA Rd","name":""},
  {"lat":43.048054,"lon":-76.149299,"city":"Syracuse","state":"NY","address":"340 Montgomery St","name":""},
  {"lat":43.048054,"lon":-76.149299,"city":"Syracuse","state":"NY","address":"340 Montgomery St","name":""},
  {"lat":43.04764,"lon":-76.149887,"city":"Syracuse","state":"NY","address":"340 Montgomery St","name":""},
  {"lat":40.207442,"lon":-75.509017,"city":"Limerick","state":"PA","address":"19 W Linfield-Trappe Rd","name":""},
  {"lat":40.111138,"lon":-75.517545,"city":"Phoenixville","state":"PA","address":"400 E Pothouse Rd","name":""},
  {"lat":43.004329,"lon":-76.197899,"city":"Syracuse","state":"NY","address":"4585 West Seneca Turnpike","name":""},
  {"lat":42.095395,"lon":-75.910578,"city":"Binghamton","state":"NY","address":"61 Susquehanna Steet","name":""},
  {"lat":42.095395,"lon":-75.910578,"city":"Binghamton","state":"NY","address":"61 Susquehanna Steet","name":""},
  {"lat":43.167096,"lon":-76.278436,"city":"Baldwinsville","state":"NY","address":"8040 River Road","name":""},
  {"lat":39.744812,"lon":-75.544813,"city":"Wilmington","state":"DE","address":"1000 N Walnut St","name":""},
  {"lat":39.806693,"lon":-75.549337,"city":"Wilmington","state":"DE","address":"3 Mount Lebanon Rd","name":""},
  {"lat":39.745804,"lon":-75.548399,"city":"Wilmington","state":"DE","address":"100 W 10th St Ste 1100","name":""},
  {"lat":26.3459,"lon":-81.746698,"city":"Bonita Springs","state":"FL","address":"27200 Kent Road","name":""},
  {"lat":38.079781,"lon":-75.540974,"city":"Pocomoke City","state":"MD","address":"1900 Worcester Hwy","name":""},
  {"lat":39.983726,"lon":-75.569929,"city":"West","state":"PA","address":"605 Airport Road","name":""},
  {"lat":39.748107,"lon":-75.551211,"city":"Wilmington","state":"DE","address":"501 W 11th St","name":""},
  {"lat":39.142726,"lon":-75.522799,"city":"Dover","state":"DE","address":"1137 S State St","name":""},
  {"lat":42.116924,"lon":-75.978164,"city":"Johnson City","state":"NY","address":"740 Main Street","name":""},
  {"lat":41.322972,"lon":-75.790285,"city":"Pittston","state":"PA","address":"10 North Main Street","name":""},
  {"lat":40.33931,"lon":-75.636208,"city":"Boyertown","state":"PA","address":"301 W Spring St","name":""},
  {"lat":40.252938,"lon":-75.633362,"city":"Pottstown","state":"PA","address":"724 N Adams St","name":""},
  {"lat":39.961973,"lon":-75.605296,"city":"West","state":"PA","address":"1 East Chestnut St","name":""},
  {"lat":39.961973,"lon":-75.605296,"city":"West","state":"PA","address":"One East Chestnut Street","name":""},
  {"lat":43.3132,"lon":-76.426799,"city":"Fulton","state":"NY","address":"715 W Broadway","name":""},
  {"lat":38.356388,"lon":-75.583339,"city":"Salisbury","state":"MD","address":"715 S Schumaker Dr","name":""},
  {"lat":42.596922,"lon":-76.181518,"city":"Cortland","state":"NY","address":"22 Tompkins St","name":""},
  {"lat":43.454401,"lon":-76.510044,"city":"Oswego","state":"NY","address":"265 W 1st St","name":""},
  {"lat":40.0434,"lon":-75.655298,"city":"Exton","state":"PA","address":"100 Devon Dr","name":""},
  {"lat":41.245101,"lon":-75.885698,"city":"Wilkes-Barre","state":"PA","address":"40 West Northampton Street","name":""},
  {"lat":39.706702,"lon":-75.684896,"city":"Newark","state":"DE","address":"2600 Kirkwood Hwy","name":""},
  {"lat":39.84838,"lon":-75.706993,"city":"Kennett Square","state":"PA","address":"101 Race St","name":""},
  {"lat":37.687268,"lon":-75.722122,"city":"Onley","state":"VA","address":"26164 Lankford Hwy","name":""},
  {"lat":41.0185,"lon":-75.8953,"city":"Freeland","state":"PA","address":"600 Front Street","name":""},
  {"lat":39.6068,"lon":-75.729999,"city":"Newark","state":"DE","address":"351 George Williams Way","name":""},
  {"lat":39.4528,"lon":-75.720351,"city":"Middletown","state":"DE","address":"202 E Cochran Street","name":""},
  {"lat":40.451463,"lon":-75.84076,"city":"Fleetwood","state":"PA","address":"607 Crisscross Road","name":""},
  {"lat":40.013109,"lon":-75.796819,"city":"Coatesville","state":"PA","address":"295 Hurley Rd","name":""},
  {"lat":36.370064,"lon":-75.981156,"city":"Barco","state":"NC","address":"130 Community Way","name":""},
  {"lat":39.610229,"lon":-75.851178,"city":"Elkton","state":"MD","address":"25 YMCA Blvd","name":""},
  {"lat":40.336989,"lon":-75.924723,"city":"Reading","state":"PA","address":"631 Washington St","name":""},
  {"lat":40.336989,"lon":-75.924723,"city":"Reading","state":"PA","address":"631 Washington St","name":""},
  {"lat":42.92907,"lon":-76.567044,"city":"Auburn","state":"NY","address":"27 William St","name":""},
  {"lat":39.823595,"lon":-75.881785,"city":"West Grove","state":"PA","address":"880 W Baltimore Pike","name":""},
  {"lat":26.5936,"lon":-81.88983,"city":"Fort Myers","state":"FL","address":"1360 Royal Palm Square Blvd","name":""},
  {"lat":36.8513,"lon":-76.014242,"city":"Virginia Beach","state":"VA","address":"1536 Laskin Road","name":""},
  {"lat":37.492033,"lon":-75.956811,"city":"Jamesville","state":"VA","address":"6272 YMCA Lane","name":""},
  {"lat":36.225414,"lon":-115.278899,"city":"Las Vegas","state":"NV","address":"3521 N Durango Dr","name":""},
  {"lat":40.287289,"lon":-75.986532,"city":"Mohnton","state":"PA","address":"140 Chestnut Street","name":""},
  {"lat":42.485909,"lon":-76.488862,"city":"Ithaca","state":"NY","address":"50 Graham Road West","name":""},
  {"lat":36.759818,"lon":-76.074758,"city":"Virgina Beach","state":"VA","address":"2400 Tournament Drive","name":""},
  {"lat":36.28117,"lon":-115.262298,"city":"Las Vegas","state":"NV","address":"6601 N Buffalo Dr","name":""},
  {"lat":36.771798,"lon":-76.097654,"city":"Virginia Beach","state":"VA","address":"2121 Landstown Road","name":""},
  {"lat":40.326026,"lon":-76.055936,"city":"Sinking Spring","state":"PA","address":"4920 Penn Ave","name":""},
  {"lat":40.24466,"lon":-76.052159,"city":"Adamstown","state":"PA","address":"71 E Main St","name":""},
  {"lat":36.1702,"lon":-115.195608,"city":"Las Vegas","state":"NV","address":"4141 Meadows Ln","name":""},
  {"lat":36.1702,"lon":-115.195608,"city":"Las Vegas","state":"NV","address":"4141 Meadows Ln","name":""},
  {"lat":36.832767,"lon":-76.127744,"city":"Virginia Beach","state":"VA","address":"4441 South Boulevard","name":""},
  {"lat":43.687135,"lon":-114.371765,"city":"Ketchum","state":"ID","address":"101 Saddle Road","name":""},
  {"lat":36.326702,"lon":-76.2238,"city":"Elizabeth City","state":"NC","address":"1240 N. Road Street","name":""},
  {"lat":40.295844,"lon":-76.088054,"city":"Reinholds","state":"PA","address":"201 Cushion Peak Rd","name":""},
  {"lat":38.8022,"lon":-75.997751,"city":"Denton","state":"MD","address":"46 Denton Plaza","name":""},
  {"lat":36.892334,"lon":-76.140279,"city":"Virginia Beach","state":"VA","address":"1465 Lakeside Road","name":""},
  {"lat":41.054554,"lon":-76.237292,"city":"Berwick","state":"PA","address":"231 W 3rd St","name":""},
  {"lat":36.8048,"lon":-76.1896,"city":"Virginia Beach","state":"VA","address":"University Shoppes","name":""},
  {"lat":40.689887,"lon":-76.198051,"city":"Pottsville","state":"PA","address":"520 North Centre Street","name":""},
  {"lat":41.761391,"lon":-76.444406,"city":"Towanda","state":"PA","address":"9 College Avenue","name":""},
  {"lat":36.761382,"lon":-76.224679,"city":"Chesapeake","state":"VA","address":"1033 Greenbrier Pkwy","name":""},
  {"lat":36.703148,"lon":-76.235182,"city":"Chesapeake","state":"VA","address":"633 South Battlefield Boulevard","name":""},
  {"lat":39.033403,"lon":-76.073834,"city":"Centreville","state":"MD","address":"123 Coursevall Drive","name":""},
  {"lat":38.76198,"lon":-76.076236,"city":"Easton","state":"MD","address":"202 Peach Blossom Road","name":""},
  {"lat":36.277409,"lon":-115.106593,"city":"North Las Vegas","state":"NV","address":"3050 E. Centennial Pkwy","name":""},
  {"lat":38.579886,"lon":-76.083414,"city":"Cambridge","state":"MD","address":"201 Talbot Ave","name":""},
  {"lat":36.793702,"lon":-76.2345,"city":"Chesapeake","state":"VA","address":"2100 Old Greenbrier Road","name":""},
  {"lat":38.7374,"lon":-76.0869,"city":"Easton","state":"MD","address":"202 Peachblossom Road","name":""},
  {"lat":39.349513,"lon":-76.12524,"city":"Worton","state":"MD","address":"24370 Still Pond Neck Rd","name":""},
  {"lat":36.847549,"lon":-76.277992,"city":"Norfolk","state":"VA","address":"5520 Tidewater Dr","name":""},
  {"lat":36.873834,"lon":-76.282385,"city":"Norfolk","state":"VA","address":"2901 Granby Street","name":""},
  {"lat":36.8543,"lon":-76.292,"city":"Chesapeake","state":"VA","address":"920 Corporate Lane","name":""},
  {"lat":36.852899,"lon":-76.293964,"city":"Norfolk","state":"VA","address":"312 W Bute Street","name":""},
  {"lat":36.831135,"lon":-76.306699,"city":"Portsmouth","state":"VA","address":"1013 Effingham Street","name":""},
  {"lat":39.986329,"lon":-76.244348,"city":"Lancaster","state":"PA","address":"800 Village Rd","name":""},
  {"lat":38.77505,"lon":-76.213103,"city":"St. Michaels","state":"MD","address":"300 Seymour Avenue","name":""},
  {"lat":26.884238,"lon":-82.016952,"city":"Punta Gorda","state":"FL","address":"2905 Tamiami Trail","name":""},
  {"lat":40.998278,"lon":-76.452085,"city":"Bloomsburg","state":"PA","address":"30 E 7th St","name":""},
  {"lat":36.850404,"lon":-76.377099,"city":"Portsmouth","state":"VA","address":"4900 High St W","name":""},
  {"lat":40.047329,"lon":-76.311094,"city":"Lancaster","state":"PA","address":"265 Harrisburg Avenue","name":""},
  {"lat":42.8636,"lon":-76.997651,"city":"Geneva","state":"NY","address":"399 William St","name":""},
  {"lat":37.030205,"lon":-76.362879,"city":"Hampton","state":"VA","address":"1 YMCA Way","name":""},
  {"lat":37.471093,"lon":-76.326115,"city":"Hudgins","state":"VA","address":"33 Cricket Hill Road","name":""},
  {"lat":35.0121,"lon":-76.8224,"city":"Arapahoe","state":"NC","address":"218 Sea Gull Landing","name":""},
  {"lat":39.46501,"lon":-76.306512,"city":"Abingdon","state":"MD","address":"101 Walter Ward Blvd","name":""},
  {"lat":37.05904,"lon":-76.393631,"city":"Hampton","state":"VA","address":"4001 Coliseum Drive","name":""},
  {"lat":36.850001,"lon":-76.421293,"city":"Chesapeake","state":"VA","address":"4626 Taylor Road","name":""},
  {"lat":46.600367,"lon":-112.03209,"city":"Helena","state":"MT","address":"1200 N. Last Chance Gulch","name":""},
  {"lat":27.4698,"lon":-81.482099,"city":"Sebring","state":"FL","address":"100 YMCA Ln","name":""},
  {"lat":34.99739,"lon":-76.852889,"city":"Arapahoe","state":"NC","address":"2744 Seafarer Rd","name":""},
  {"lat":40.342221,"lon":-76.422199,"city":"Lebanon","state":"PA","address":"201 N 7th St","name":""},
  {"lat":37.695995,"lon":-76.354797,"city":"Kilmarnock","state":"VA","address":"PO Box 580","name":""},
  {"lat":45.98635,"lon":-112.5334,"city":"Butte","state":"MT","address":"2975 Washoe St","name":""},
  {"lat":37.018416,"lon":-76.450776,"city":"Newport News","state":"VA","address":"7827 Warwick Blvd","name":""},
  {"lat":42.961925,"lon":-77.13799,"city":"Clifton Springs","state":"NY","address":"5 Crane St","name":""},
  {"lat":37.113483,"lon":-76.444429,"city":"Yorktown","state":"VA","address":"101 Long Green Blvd","name":""},
  {"lat":37.703424,"lon":-76.391451,"city":"Kilmarnock","state":"VA","address":"39 William B Graham Ct","name":""},
  {"lat":42.660949,"lon":-77.05365,"city":"Penn Yan","state":"NY","address":"140 Route 54 East Lake Rd","name":""},
  {"lat":37.105664,"lon":-76.476834,"city":"Newport News","state":"VA","address":"41 Old Oyster Point Rd. Suite C","name":""},
  {"lat":37.55093,"lon":-76.43474,"city":"Hartfield","state":"VA","address":"11487 General Puller Hwy","name":""},
  {"lat":27.009704,"lon":-82.130418,"city":"Port Charlotte","state":"FL","address":"19333 Quesada Ave","name":""},
  {"lat":36.771969,"lon":-76.583991,"city":"Suffolk","state":"VA","address":"2769 Godwin Boulevard","name":""},
  {"lat":37.921644,"lon":-76.483131,"city":"Heathsville","state":"VA","address":"6348 Northumberland Hwy","name":""},
  {"lat":41.233862,"lon":-76.741888,"city":"Muncy","state":"PA","address":"50 Fitness Drive","name":""},
  {"lat":39.257152,"lon":-76.521297,"city":"Dundalk","state":"MD","address":"120 Trading Place","name":""},
  {"lat":39.120162,"lon":-76.517236,"city":"Pasadena","state":"MD","address":"26 Magothy Beach Road","name":""},
  {"lat":39.049728,"lon":-76.519161,"city":"Arnold","state":"MD","address":"1209 Ritchie Hwy","name":""},
  {"lat":39.401289,"lon":-76.540074,"city":"Parkville","state":"MD","address":"8910 Waltham Woods Road","name":""},
  {"lat":36.983102,"lon":-76.637942,"city":"Smithfield","state":"VA","address":"259 James Street","name":""},
  {"lat":42.148143,"lon":-77.054155,"city":"Corning","state":"NY","address":"127 Center Way","name":""},
  {"lat":43.149365,"lon":-77.435898,"city":"Penfield","state":"NY","address":"1835 Fairport Nine Mile Point Rd","name":""},
  {"lat":38.923,"lon":-76.5435,"city":"Edgewater","state":"MD","address":"4003 Camp Letts Road","name":""},
  {"lat":26.9498,"lon":-82.336975,"city":"Englewood","state":"FL","address":"701 Medical Boulevard","name":""},
  {"lat":35.10246,"lon":-77.064835,"city":"New Bern","state":"NC","address":"100 YMCA Lane","name":""},
  {"lat":40.876175,"lon":-76.783115,"city":"Sunbury","state":"PA","address":"1150 N Fourth St","name":""},
  {"lat":40.876175,"lon":-76.783115,"city":"Sunbury","state":"PA","address":"1150 N 4th St","name":""},
  {"lat":43.19282,"lon":-77.506418,"city":"Webster","state":"NY","address":"1209 Bay Rd","name":""},
  {"lat":39.328802,"lon":-76.602704,"city":"Baltimore","state":"MD","address":"900 E 33rd St","name":""},
  {"lat":39.399467,"lon":-76.609458,"city":"Baltimore","state":"MD","address":"303 W. Chesapeake Avenue","name":""},
  {"lat":39.40112,"lon":-76.613842,"city":"Towson","state":"MD","address":"600 W Chesapeake Ave","name":""},
  {"lat":41.019981,"lon":-76.853845,"city":"Milton","state":"PA","address":"12 Bound Ave","name":""},
  {"lat":39.304863,"lon":-76.631704,"city":"Baltimore","state":"MD","address":"1609 Druid Hill Ave","name":""},
  {"lat":43.081748,"lon":-77.506604,"city":"Pittsford","state":"NY","address":"2300 W Jefferson Road","name":""},
  {"lat":39.753341,"lon":-76.679979,"city":"Shrewsbury","state":"PA","address":"100 Constitution Ave","name":""},
  {"lat":41.807296,"lon":-77.077468,"city":"Mansfield","state":"PA","address":"40-42 Besanceney Dr","name":""},
  {"lat":39.96161,"lon":-76.735358,"city":"York","state":"PA","address":"90 N Newberry St","name":""},
  {"lat":39.96161,"lon":-76.735358,"city":"York","state":"PA","address":"90 North Newberry Street","name":""},
  {"lat":40.560823,"lon":-76.818391,"city":"Elizabethville","state":"PA","address":"500 N Church St","name":""},
  {"lat":28.5898,"lon":-80.832396,"city":"Titusville","state":"FL","address":"2400 Harrison St","name":""},
  {"lat":43.165158,"lon":-77.596533,"city":"Rochester","state":"NY","address":"53 Lewis St","name":""},
  {"lat":36.007,"lon":-76.953321,"city":"Windsor","state":"NC","address":"PO Box 834","name":""},
  {"lat":37.3169,"lon":-76.7491,"city":"Williamsburg","state":"VA","address":"301 Sentara Circle","name":""},
  {"lat":43.158472,"lon":-77.600667,"city":"Rochester","state":"NY","address":"444 East Main St.","name":""},
  {"lat":43.158387,"lon":-77.600822,"city":"Rochester","state":"NY","address":"100 Chestnut Street","name":""},
  {"lat":40.963834,"lon":-76.909295,"city":"Mifflinburg","state":"PA","address":"333 E Chestnut St","name":""},
  {"lat":45.2182,"lon":-112.641,"city":"Dillon","state":"MT","address":"75 Swenson Way","name":""},
  {"lat":43.181,"lon":-77.629527,"city":"Rochester","state":"NY","address":"25 Driving Park Ave","name":""},
  {"lat":39.252576,"lon":-76.727976,"city":"Catonsville","state":"MD","address":"850 S Rollings Rd","name":""},
  {"lat":27.080674,"lon":-82.399958,"city":"Venice","state":"FL","address":"200 Nokomis Ave S","name":""},
  {"lat":41.239439,"lon":-77.00843,"city":"Williamsport","state":"PA","address":"641 Walnut Street","name":""},
  {"lat":41.244595,"lon":-77.01534,"city":"Williamsport","state":"PA","address":"641 Walnut Street","name":""},
  {"lat":43.249763,"lon":-77.696499,"city":"Rochester","state":"NY","address":"730 Long Pond Rd","name":""},
  {"lat":43.133037,"lon":-77.650899,"city":"Rochester","state":"NY","address":"597 Thurston Rd","name":""},
  {"lat":37.958745,"lon":-76.758014,"city":"Warsaw","state":"VA","address":"45 George Brown Lane","name":""},
  {"lat":40.002857,"lon":-76.830569,"city":"Dover","state":"PA","address":"1705 Palomino Rd","name":""},
  {"lat":37.552279,"lon":-76.811588,"city":"West Point","state":"VA","address":"P.O. Box 1526","name":""},
  {"lat":39.36311,"lon":-76.787998,"city":"Randallstown","state":"MD","address":"3505 Resource Drive","name":""},
  {"lat":40.259183,"lon":-76.882644,"city":"Harrisburg","state":"PA","address":"234 State St","name":""},
  {"lat":40.281509,"lon":-76.890904,"city":"Harrisburg","state":"PA","address":"2135 N 6th St","name":""},
  {"lat":40.26451,"lon":-76.889706,"city":"Harrisburg","state":"PA","address":"805 North Front Street","name":""},
  {"lat":40.263508,"lon":-76.889501,"city":"Harrisburg","state":"PA","address":"701 N Front St","name":""},
  {"lat":36.69061,"lon":-76.947297,"city":"Franklin","state":"VA","address":"300 Crescent Drive","name":""},
  {"lat":43.151756,"lon":-77.732399,"city":"Rochester","state":"NY","address":"920 Elmgrove Rd","name":""},
  {"lat":39.252266,"lon":-76.813818,"city":"Ellicott","state":"MD","address":"4331 Montgomery Road","name":""},
  {"lat":34.75223,"lon":-77.427851,"city":"Jacksonville","state":"NC","address":"159 Chaney Avenue","name":""},
  {"lat":40.234622,"lon":-76.944792,"city":"Camp Hill","state":"PA","address":"410 Fallowfield Rd","name":""},
  {"lat":28.51797,"lon":-81.152846,"city":"Orlando","state":"FL","address":"12001 Avalon Park Drive, Suite M-P","name":""},
  {"lat":28.421153,"lon":-81.261146,"city":"Orlando","state":"FL","address":"9055 Northlake Pkwy","name":""},
  {"lat":39.818054,"lon":-76.977984,"city":"Hanover","state":"PA","address":"500 George St","name":""},
  {"lat":39.760197,"lon":-76.983181,"city":"Hanover","state":"PA","address":"650 Fairview Drive","name":""},
  {"lat":28.2935,"lon":-81.424477,"city":"Kissimmee","state":"FL","address":"2117 Mabbette St","name":""},
  {"lat":39.526914,"lon":-76.991411,"city":"Westminster","state":"MD","address":"1719 Sykesville Road","name":""},
  {"lat":41.20427,"lon":-77.264582,"city":"Jersey Shore","state":"PA","address":"826 Allegheny St","name":""},
  {"lat":38.848182,"lon":-76.973712,"city":"Washington","state":"DC","address":"4801 Benning Rd SE","name":""},
  {"lat":39.014031,"lon":-77.015799,"city":"Silver Spring","state":"MD","address":"9800 Hastings Drive","name":""},
  {"lat":28.578707,"lon":-81.241239,"city":"Orlando","state":"FL","address":"10501 J Blanchard Trail","name":""},
  {"lat":39.744666,"lon":-77.077859,"city":"Littlestown","state":"PA","address":"95 Keystone St","name":""},
  {"lat":42.325324,"lon":-77.658326,"city":"Hornell","state":"NY","address":"18 Center St","name":""},
  {"lat":38.919196,"lon":-77.03018,"city":"Washington","state":"DC","address":"1325 W St NW","name":""},
  {"lat":38.904264,"lon":-77.036982,"city":"Washington","state":"DC","address":"Association Offices","name":""},
  {"lat":28.980673,"lon":-80.904809,"city":"Edgewater","state":"FL","address":"148 W Turgot Ave","name":""},
  {"lat":38.820893,"lon":-77.053975,"city":"Alexandria","state":"VA","address":"420 E Monroe Ave","name":""},
  {"lat":28.4726,"lon":-81.389011,"city":"Orlando","state":"FL","address":"814 W Oak Ridge Rd","name":""},
  {"lat":27.449794,"lon":-82.43437,"city":"Bradenton","state":"FL","address":"5100 Lakewood Ranch Blvd","name":""},
  {"lat":28.655625,"lon":-81.241709,"city":"Oviedo","state":"FL","address":"7900 Red Bug Lake Rd","name":""},
  {"lat":40.197406,"lon":-77.194497,"city":"Carlisle","state":"PA","address":"311 S West Street","name":""},
  {"lat":38.887271,"lon":-77.101922,"city":"Arlington","state":"VA","address":"3422 North 13th Street","name":""},
  {"lat":28.548721,"lon":-81.364399,"city":"Orlando","state":"FL","address":"433 N Mills Ave","name":""},
  {"lat":28.548599,"lon":-81.364399,"city":"Orlando","state":"FL","address":"433 N Mills Ave","name":""},
  {"lat":39.008703,"lon":-77.113499,"city":"Bethesda","state":"MD","address":"9401 Old Georgetown Rd","name":""},
  {"lat":39.004349,"lon":-77.114619,"city":"Bethesda","state":"MD","address":"5650 Oakmont Ave","name":""},
  {"lat":28.39125,"lon":-81.5317,"city":"Lake Buena Vista","state":"FL","address":"2800 E Vista Boulevard","name":""},
  {"lat":34.17653,"lon":-77.912561,"city":"Wilmington","state":"NC","address":"709 George Anderson Dr","name":""},
  {"lat":28.610651,"lon":-81.328241,"city":"Winter Park","state":"FL","address":"1201 N Lakemont Ave","name":""},
  {"lat":28.3465,"lon":-81.5907,"city":"Kissimmee","state":"FL","address":"3261 Sherberth Rd","name":""},
  {"lat":34.2374,"lon":-77.910711,"city":"Wilmington","state":"NC","address":"2710 Market St","name":""},
  {"lat":34.2374,"lon":-77.910711,"city":"Wilmington","state":"NC","address":"2710 Market St","name":""},
  {"lat":34.237825,"lon":-77.911102,"city":"Wilmington","state":"NC","address":"PO BOX 3467","name":""},
  {"lat":28.460901,"lon":-81.491596,"city":"Orlando","state":"FL","address":"7000 Dr Phillips Blvd","name":""},
  {"lat":27.998298,"lon":-81.948699,"city":"Lakeland","state":"FL","address":"3620 Cleveland Heights Blvd","name":""},
  {"lat":27.998298,"lon":-81.948699,"city":"Lakeland","state":"FL","address":"3620 Cleveland Heights Blvd","name":""},
  {"lat":41.138111,"lon":-77.443879,"city":"Lock Haven","state":"PA","address":"145 E Water St","name":""},
  {"lat":38.254519,"lon":-77.163441,"city":"King George","state":"VA","address":"10545 Kings Hwy","name":""},
  {"lat":40.0386,"lon":-77.2777,"city":"Gardners","state":"PA","address":"800 Pine Grove Rd","name":""},
  {"lat":28.555859,"lon":-81.459399,"city":"Orlando","state":"FL","address":"870 N Hastings St","name":""},
  {"lat":28.042598,"lon":-81.982939,"city":"Lakeland","state":"FL","address":"1740 George Jenkins Blvd","name":""},
  {"lat":27.495182,"lon":-82.572499,"city":"Bradenton","state":"FL","address":"5100 Lakewood Ranch Blvd","name":""},
  {"lat":28.736087,"lon":-81.334199,"city":"Lake Mary","state":"FL","address":"665 Longwood Lake Mary Rd","name":""},
  {"lat":27.495773,"lon":-82.587007,"city":"Bradenton","state":"FL","address":"5100 Lakewood Ranch Blvd","name":""},
  {"lat":27.468045,"lon":-82.620405,"city":"Bradenton","state":"FL","address":"3805 59th St W","name":""},
  {"lat":37.517081,"lon":-77.2899,"city":"Sandston","state":"VA","address":"5401 Whiteside Rd","name":""},
  {"lat":29.126731,"lon":-81.01851,"city":"Port","state":"FL","address":"4701 City Ctr Pkwy","name":""},
  {"lat":42.997261,"lon":-78.181033,"city":"Batavia","state":"NY","address":"211 E Main St","name":""},
  {"lat":42.997117,"lon":-78.18037,"city":"Batavia","state":"NY","address":"209 E Main St","name":""},
  {"lat":28.0916,"lon":-81.989212,"city":"Lakeland","state":"FL","address":"2125 Sleepy Hill Road","name":""},
  {"lat":28.5442,"lon":-81.558399,"city":"Winter Garden","state":"FL","address":"100 Windermere Rd","name":""},
  {"lat":27.9891,"lon":-82.134699,"city":"Plant City","state":"FL","address":"1507 YMCA Place","name":""},
  {"lat":27.89181,"lon":-82.24673,"city":"Valrico","state":"FL","address":"3414 Culbreath Rd","name":""},
  {"lat":27.793535,"lon":-82.352752,"city":"Gibsonton","state":"FL","address":"9650 Old Big Bend Rd","name":""},
  {"lat":38.648178,"lon":-77.311756,"city":"Woodbridge","state":"VA","address":"14040 Central Loop","name":""},
  {"lat":42.75007,"lon":-78.134344,"city":"Warsaw","state":"NY","address":"115 Linwood Ave","name":""},
  {"lat":28.94682,"lon":-81.244699,"city":"Deltona","state":"FL","address":"280 Wolf Pack Run","name":""},
  {"lat":39.328891,"lon":-77.340313,"city":"IJamsville","state":"MD","address":"3481 Campus Drive","name":""},
  {"lat":37.229044,"lon":-77.397439,"city":"Petersburg","state":"VA","address":"120 N Madison St","name":""},
  {"lat":29.205235,"lon":-81.036716,"city":"DeLand","state":"FL","address":"761 East International Speedway blvd","name":""},
  {"lat":27.855769,"lon":-82.3145,"city":"Riverview","state":"FL","address":"9840 Balm Riverview Rd","name":""},
  {"lat":37.608756,"lon":-77.373314,"city":"Mechanicsville","state":"VA","address":"8017 Rutland Center Blvd","name":""},
  {"lat":42.640895,"lon":-78.133898,"city":"Gainesville","state":"NY","address":"4025 Poplar Tree Road","name":""},
  {"lat":43.2218,"lon":-78.392553,"city":"Medina","state":"NY","address":"306 Pearl St","name":""},
  {"lat":42.123012,"lon":-77.949977,"city":"Wellsville","state":"NY","address":"133 Bolivar Rd","name":""},
  {"lat":29.244186,"lon":-81.039205,"city":"Holly Hill","state":"FL","address":"1046 Daytona Ave","name":""},
  {"lat":37.356458,"lon":-77.420966,"city":"Chester","state":"VA","address":"3011 W Hundred Rd","name":""},
  {"lat":38.955816,"lon":-77.36919,"city":"Reston","state":"VA","address":"12196 Sunset Hills Rd","name":""},
  {"lat":40.633431,"lon":-77.565568,"city":"Burnham","state":"PA","address":"105 1st Ave","name":""},
  {"lat":39.42701,"lon":-77.407456,"city":"Frederick","state":"MD","address":"1000 N. Market Street","name":""},
  {"lat":37.537746,"lon":-77.435473,"city":"Richmond","state":"VA","address":"919 East Main Street","name":""},
  {"lat":27.967076,"lon":-82.27774,"city":"Seffner","state":"FL","address":"3097 S. Kingsway Rd","name":""},
  {"lat":36.699521,"lon":-77.539715,"city":"Emporia","state":"VA","address":"212 Weaver Ave","name":""},
  {"lat":37.543908,"lon":-77.443508,"city":"Richmond","state":"VA","address":"201 W. 7th St.","name":""},
  {"lat":37.543908,"lon":-77.443508,"city":"Richmond","state":"VA","address":"2 W Franklin St","name":""},
  {"lat":37.5929,"lon":-77.447299,"city":"Richmond","state":"VA","address":"4207 Old Brook Rd","name":""},
  {"lat":29.283193,"lon":-81.075377,"city":"Ormond Beach","state":"FL","address":"500 Sterthaus Dr","name":""},
  {"lat":29.055856,"lon":-81.29092,"city":"DeLand","state":"FL","address":"761 E. International Speedway Blvd.","name":""},
  {"lat":37.746866,"lon":-77.47957,"city":"Ashland","state":"VA","address":"217 Ashcake Road","name":""},
  {"lat":38.317325,"lon":-77.455787,"city":"Falmouth","state":"VA","address":"212 Butler Rd","name":""},
  {"lat":37.469268,"lon":-77.531304,"city":"Richmond","state":"VA","address":"7540 Hull St Rd","name":""},
  {"lat":27.746509,"lon":-82.638599,"city":"St. Petersburg","state":"FL","address":"2421 4th St S","name":""},
  {"lat":39.752518,"lon":-77.572205,"city":"Waynesboro","state":"PA","address":"810 East Main St","name":""},
  {"lat":38.025303,"lon":-77.522201,"city":"Ruther Glen","state":"VA","address":"17422 Library Blvd","name":""},
  {"lat":40.91225,"lon":-77.778871,"city":"Bellefonte","state":"PA","address":"125 W High St","name":""},
  {"lat":40.911969,"lon":-77.778414,"city":"Bellefonte","state":"PA","address":"125 West High St","name":""},
  {"lat":35.380615,"lon":-77.93301,"city":"Goldsboro","state":"NC","address":"1105 Parkway Drive","name":""},
  {"lat":27.9006,"lon":-82.502099,"city":"Tampa","state":"FL","address":"4411 S Himes Ave","name":""},
  {"lat":27.945432,"lon":-82.456873,"city":"Tampa","state":"FL","address":"104 S Franklin St","name":""},
  {"lat":27.770014,"lon":-82.641982,"city":"St. Petersburg","state":"FL","address":"600 1st Avenue North, Suite 201","name":""},
  {"lat":38.202702,"lon":-77.5344,"city":"Fredericksburg","state":"VA","address":"5700 Smith Station Rd","name":""},
  {"lat":35.9706,"lon":-77.803031,"city":"Rocky Mount","state":"NC","address":"1000 Independence Dr.","name":""},
  {"lat":35.970603,"lon":-77.806062,"city":"Rocky Mount","state":"NC","address":"1000 Independence Dr","name":""},
  {"lat":37.397669,"lon":-77.596327,"city":"Chesterfield","state":"VA","address":"9300 Shawonodassee Rd","name":""},
  {"lat":27.96139,"lon":-82.460128,"city":"Tampa","state":"FL","address":"110 E Oak Ave","name":""},
  {"lat":27.96139,"lon":-82.460128,"city":"Tampa","state":"FL","address":"110 E Oak Ave","name":""},
  {"lat":37.5953,"lon":-77.579045,"city":"Richmond","state":"VA","address":"9211 Patterson Ave","name":""},
  {"lat":27.96139,"lon":-82.460128,"city":"Tampa","state":"FL","address":"110 East Oak Avenue","name":""},
  {"lat":27.962375,"lon":-82.460677,"city":"Tampa","state":"FL","address":"8412 N 13th St","name":""},
  {"lat":27.9623,"lon":-82.460757,"city":"Tampa","state":"FL","address":"110 E Palm Ave","name":""},
  {"lat":39.108389,"lon":-77.565499,"city":"Sterling","state":"VA","address":"20733 Great Falls Plaza","name":""},
  {"lat":27.7701,"lon":-82.676899,"city":"St. Petersburg","state":"FL","address":"3200 1st Ave S","name":""},
  {"lat":37.679814,"lon":-77.587461,"city":"Glen Allen","state":"VA","address":"11255 Nuckols Rd","name":""},
  {"lat":39.926978,"lon":-77.6518,"city":"Chambersburg","state":"PA","address":"570 E McKinley St","name":""},
  {"lat":45.70045,"lon":-111.146255,"city":"Bozeman","state":"MT","address":"3673 Love Lane","name":""},
  {"lat":28.24734,"lon":-82.199179,"city":"Zephyrhills","state":"FL","address":"37301 Chapel Hill Loop","name":""},
  {"lat":29.181627,"lon":-81.335319,"city":"DeLeon Springs","state":"FL","address":"898 Camp Winona Rd","name":""},
  {"lat":27.779003,"lon":-82.691699,"city":"St. Petersburg","state":"FL","address":"691 43rd St South","name":""},
  {"lat":28.105735,"lon":-82.38597,"city":"Tampa","state":"FL","address":"16221 Compton Dr","name":""},
  {"lat":37.49007,"lon":-77.656571,"city":"Midlothian","state":"VA","address":"737 Coalfield Rd","name":""},
  {"lat":28.82632,"lon":-81.700618,"city":"Tavares","state":"FL","address":"1465 David Walker Dr","name":""},
  {"lat":40.774041,"lon":-77.85355,"city":"State College","state":"PA","address":"677 West Whitehall Rd","name":""},
  {"lat":39.657939,"lon":-77.6907,"city":"Hagerstown","state":"MD","address":"1100 Eastern Boulevard North","name":""},
  {"lat":35.763991,"lon":-77.949247,"city":"Wilson","state":"NC","address":"233 Nash Street N","name":""},
  {"lat":43.171337,"lon":-78.687973,"city":"Lockport","state":"NY","address":"5833 Snyder Drive","name":""},
  {"lat":37.397231,"lon":-77.704991,"city":"Chesterfield","state":"VA","address":"15800 Hampton Park Dr.","name":""},
  {"lat":27.9091,"lon":-82.706499,"city":"Clearwater","state":"FL","address":"5345 Laurel Pl","name":""},
  {"lat":28.096644,"lon":-82.509909,"city":"Tampa","state":"FL","address":"4029 Northdale Blvd","name":""},
  {"lat":28.026009,"lon":-82.585117,"city":"Tampa","state":"FL","address":"8950 W Waters Ave","name":""},
  {"lat":27.872391,"lon":-82.760345,"city":"Largo","state":"FL","address":"8495 Bryan Dairy Rd","name":""},
  {"lat":28.068416,"lon":-82.556456,"city":"Tampa","state":"FL","address":"7910 N. 30th St.","name":""},
  {"lat":42.901552,"lon":-78.67007,"city":"Lancaster","state":"NY","address":"11 West Main Street","name":""},
  {"lat":43.03781,"lon":-78.781622,"city":"Amherst","state":"NY","address":"150 Tech Drive","name":""},
  {"lat":27.901006,"lon":-82.80233,"city":"Largo","state":"FL","address":"1801 119th street","name":""},
  {"lat":42.811273,"lon":-78.705092,"city":"West Seneca","state":"NY","address":"1620 Southwestern Blvd","name":""},
  {"lat":27.955313,"lon":-82.775199,"city":"Clearwater","state":"FL","address":"1535 S Highland Avenue","name":""},
  {"lat":42.920289,"lon":-78.758956,"city":"Buffalo","state":"NY","address":"301 Cayuga Rd Suite 100","name":""},
  {"lat":28.009878,"lon":-82.736533,"city":"Clearwater","state":"FL","address":"2469 Enterprise Road","name":""},
  {"lat":42.083668,"lon":-78.44196,"city":"Olean","state":"NY","address":"1020 Reed St","name":""},
  {"lat":42.984043,"lon":-78.852899,"city":"Kenmore","state":"NY","address":"535 Belmont Ave","name":""},
  {"lat":37.693394,"lon":-77.885905,"city":"Goochland","state":"VA","address":"1800 Dickinson Rd","name":""},
  {"lat":28.100503,"lon":-82.6961,"city":"Palm Harbor","state":"FL","address":"4550 Village Center Dr","name":""},
  {"lat":42.954077,"lon":-78.869199,"city":"Buffalo","state":"NY","address":"2564 Delaware Ave","name":""},
  {"lat":37.547756,"lon":-77.928873,"city":"Powhatan","state":"VA","address":"2269 Mann Rd","name":""},
  {"lat":28.082739,"lon":-82.75786,"city":"Palm Harbor","state":"FL","address":"1600 16th St","name":""},
  {"lat":42.8851,"lon":-78.849563,"city":"Buffalo","state":"NY","address":"585 William St","name":""},
  {"lat":33.68906,"lon":-78.886694,"city":"Myrtle Beach","state":"SC","address":"5000 Claire Chapin Epps Dr","name":""},
  {"lat":40.8913,"lon":-78.1928,"city":"Philipsburg","state":"PA","address":"103 N 14th St","name":""},
  {"lat":28.19188,"lon":-82.675026,"city":"New Port Richey","state":"FL","address":"8411 Photonics Dr","name":""},
  {"lat":33.707041,"lon":-78.894874,"city":"Myrtle Beach","state":"SC","address":"5000 Claire Chapin Epps Drive","name":""},
  {"lat":43.1013,"lon":-79.051683,"city":"Niagara Falls","state":"NY","address":"1522 Main St.","name":""},
  {"lat":40.9847,"lon":-78.3066,"city":"Bigler","state":"PA","address":"PO Box 417","name":""},
  {"lat":33.479426,"lon":-112.358577,"city":"Goodyear","state":"AZ","address":"2919 N Litchfield Rd","name":""},
  {"lat":29.8594,"lon":-81.271099,"city":"St. Augustine","state":"FL","address":"500 Pope Road","name":""},
  {"lat":28.453602,"lon":-82.539199,"city":"Spring Hill","state":"FL","address":"1300 Mariner Blvd","name":""},
  {"lat":41.9571,"lon":-78.649344,"city":"Bradford","state":"PA","address":"59 Boylston St","name":""},
  {"lat":33.575104,"lon":-112.328282,"city":"El Mirage","state":"AZ","address":"12450 W Cinnabar","name":""},
  {"lat":43.4881,"lon":-112.034265,"city":"Idaho Falls","state":"ID","address":"155 N. Corner St","name":""},
  {"lat":41.022345,"lon":-78.438099,"city":"Clearfield","state":"PA","address":"21 N 2nd St","name":""},
  {"lat":33.491431,"lon":-112.203235,"city":"Phoenix","state":"AZ","address":"3825 N 67th Ave","name":""},
  {"lat":33.38,"lon":-79.29,"city":"Georgetown","state":"SC","address":"529 Browns Ferry Road","name":""},
  {"lat":40.438296,"lon":-78.393411,"city":"Hollidaysburg","state":"PA","address":"1111 Hewit Street","name":""},
  {"lat":33.296398,"lon":-112.061032,"city":"Phoenix","state":"AZ","address":"1030 E Liberty Lane","name":""},
  {"lat":40.332163,"lon":-78.403054,"city":"Roaring Spring","state":"PA","address":"820 Grove St","name":""},
  {"lat":29.1715,"lon":-82.092716,"city":"Ocala","state":"FL","address":"3200 SE 17th St","name":""},
  {"lat":36.334069,"lon":-78.446605,"city":"Henderson","state":"NC","address":"380 Ruin Creek Rd","name":""},
  {"lat":33.453044,"lon":-112.075099,"city":"Phoenix","state":"AZ","address":"350 North 1st Ave","name":""},
  {"lat":33.453044,"lon":-112.075099,"city":"Phoenix","state":"AZ","address":"350 N 1st Ave","name":""},
  {"lat":33.453044,"lon":-112.075099,"city":"Phoenix","state":"AZ","address":"350 N 1st Ave","name":""},
  {"lat":41.422591,"lon":-78.729624,"city":"Ridgway","state":"PA","address":"34 N Broad St","name":""},
  {"lat":33.517038,"lon":-112.095599,"city":"Phoenix","state":"AZ","address":"5517 N 17th Ave","name":""},
  {"lat":34.411304,"lon":-112.436536,"city":"Prescott","state":"AZ","address":"5725 S Senator Hwy","name":""},
  {"lat":35.691155,"lon":-78.61632,"city":"Clayton","state":"NC","address":"120 Flowers Pkwy","name":""},
  {"lat":35.685061,"lon":-78.61831,"city":"Garner","state":"NC","address":"2110 Avesboro Road","name":""},
  {"lat":35.9451,"lon":-78.564396,"city":"Raleigh","state":"NC","address":"2500 Wakefield Pines Drive","name":""},
  {"lat":34.5569,"lon":-112.478967,"city":"Prescott","state":"AZ","address":"750 Whipple St","name":""},
  {"lat":35.76041,"lon":-78.616071,"city":"Raleigh","state":"NC","address":"1436 Rock Quarry Road","name":""},
  {"lat":35.999622,"lon":-78.566027,"city":"Wake Forest","state":"NC","address":"13524 Camp Kanata Road","name":""},
  {"lat":35.777366,"lon":-78.638765,"city":"Raleigh","state":"NC","address":"227 Fayetteville Street","name":""},
  {"lat":37.292882,"lon":-78.399473,"city":"Farmville","state":"VA","address":"580 Commerce Road","name":""},
  {"lat":30.16514,"lon":-81.3887,"city":"Ponte Vedra Beach","state":"FL","address":"170 Landrum Lane","name":""},
  {"lat":28.920418,"lon":-82.467146,"city":"Lecanto","state":"FL","address":"4127 W. Norvell Bryant Hwy","name":""},
  {"lat":35.784508,"lon":-78.658608,"city":"Raleigh","state":"NC","address":"1603 Hillsborough Street","name":""},
  {"lat":33.354326,"lon":-111.928499,"city":"Tempe","state":"AZ","address":"7070 S Rural Rd","name":""},
  {"lat":35.907157,"lon":-78.658528,"city":"Raleigh","state":"NC","address":"9216 Baileywick Road","name":""},
  {"lat":41.1238,"lon":-78.759099,"city":"DuBois","state":"PA","address":"25 Parkway Drive","name":""},
  {"lat":33.298699,"lon":-111.871643,"city":"Chandler","state":"AZ","address":"1655 W Frye Rd","name":""},
  {"lat":36.602265,"lon":-78.565915,"city":"Clarksville","state":"VA","address":"1567 Noblin Farm Rd","name":""},
  {"lat":34.970198,"lon":-78.945419,"city":"Hope Mills","state":"NC","address":"4028 Legion Rd","name":""},
  {"lat":35.069919,"lon":-78.922086,"city":"Fayetteville","state":"NC","address":"2717 Fort Bragg Road","name":""},
  {"lat":35.792925,"lon":-78.739399,"city":"Raleigh","state":"NC","address":"801 Corporate Center Drive","name":""},
  {"lat":35.690259,"lon":-78.779084,"city":"Apex","state":"NC","address":"8921 Holly Springs Road","name":""},
  {"lat":30.1392,"lon":-81.529899,"city":"Jacksonville","state":"FL","address":"12735 Gran Bay Parkway W","name":""},
  {"lat":35.066917,"lon":-78.952957,"city":"Fayetteville","state":"NC","address":"439 Westwood Shopping Center","name":""},
  {"lat":38.04941,"lon":-78.478385,"city":"Charlottesville","state":"VA","address":"151 McIntire Park Drive","name":""},
  {"lat":38.04941,"lon":-78.478385,"city":"Charlottesville","state":"VA","address":"151 McIntire Park Drive","name":""},
  {"lat":33.5821,"lon":-111.9347,"city":"Scottsdale","state":"AZ","address":"6869 E Shea Blvd","name":""},
  {"lat":42.100403,"lon":-79.230707,"city":"Jamestown","state":"NY","address":"727 East Second Street","name":""},
  {"lat":35.777628,"lon":-78.835011,"city":"Cary","state":"NC","address":"101 YMCA Drive","name":""},
  {"lat":41.841109,"lon":-79.138593,"city":"Warren","state":"PA","address":"212 Lexington Ave","name":""},
  {"lat":42.0975,"lon":-79.239799,"city":"Jamestown","state":"NY","address":"101 E 4th St","name":""},
  {"lat":33.797706,"lon":-111.951984,"city":"Scottsdale","state":"AZ","address":"34250 N. 60th St","name":""},
  {"lat":30.247434,"lon":-81.544869,"city":"Jacksonville","state":"FL","address":"10423 Centurion Pkwy North","name":""},
  {"lat":32.790332,"lon":-79.944534,"city":"Summerville","state":"SC","address":"1655 Cane Bay Blvd","name":""},
  {"lat":30.189199,"lon":-81.6272,"city":"Jacksonville","state":"FL","address":"10415 San Jose Blvd","name":""},
  {"lat":35.823872,"lon":-78.876849,"city":"Cary","state":"NC","address":"6903 Carpenter Fire Station Road","name":""},
  {"lat":30.082355,"lon":-81.718478,"city":"Fleming Island","state":"FL","address":"2075 Town Center Blvd","name":""},
  {"lat":42.0977,"lon":-79.314366,"city":"Lakewood","state":"NY","address":"183 E Fairmount Ave","name":""},
  {"lat":30.246866,"lon":-81.615631,"city":"Jacksonville","state":"FL","address":"7373 Old Kings Rd S","name":""},
  {"lat":33.391157,"lon":-111.705458,"city":"Mesa","state":"AZ","address":"1807 S Sunview","name":""},
  {"lat":35.9981,"lon":-78.900159,"city":"Durham","state":"NC","address":"218 W Morgan St","name":""},
  {"lat":35.992558,"lon":-78.904611,"city":"Durham","state":"NC","address":"410 Blackwell Street","name":""},
  {"lat":29.8091,"lon":-82.026358,"city":"Keystone Heights","state":"FL","address":"6765 Immokalee Rd","name":""},
  {"lat":30.136631,"lon":-81.762868,"city":"Orange Park","state":"FL","address":"3322 Moody Ave","name":""},
  {"lat":39.65267,"lon":-78.758152,"city":"Cumberland","state":"MD","address":"205 Baltimore Ave","name":""},
  {"lat":42.23294,"lon":-79.440476,"city":"Dewittville","state":"NY","address":"5411 East Lake Rd","name":""},
  {"lat":35.934,"lon":-78.938488,"city":"Durham","state":"NC","address":"4818 S Roxboro Street","name":""},
  {"lat":35.984955,"lon":-78.929157,"city":"Durham","state":"NC","address":"2119 Chapel Hill Rd","name":""},
  {"lat":41.16017,"lon":-79.07803,"city":"Brookville","state":"PA","address":"125 Main St","name":""},
  {"lat":39.646394,"lon":-78.774331,"city":"Cumberland","state":"MD","address":"601 Kelly Rd","name":""},
  {"lat":39.646394,"lon":-78.774331,"city":"Cumberland","state":"MD","address":"601 Kelly Rd","name":""},
  {"lat":30.327452,"lon":-81.656139,"city":"Jacksonville","state":"FL","address":"40 East Adams Street","name":""},
  {"lat":30.327101,"lon":-81.659617,"city":"Jacksonville","state":"FL","address":"50 N Laura St, LL","name":""},
  {"lat":30.32209,"lon":-81.672075,"city":"Jacksonville","state":"FL","address":"221 Riverside Avenue","name":""},
  {"lat":40.3217,"lon":-78.917301,"city":"Johnstown","state":"PA","address":"100 Haynes St","name":""},
  {"lat":30.34652,"lon":-81.663111,"city":"Jacksonville","state":"FL","address":"580 W 8th St","name":""},
  {"lat":30.644403,"lon":-81.447996,"city":"Fernandina Beach","state":"FL","address":"1915 Citrona Dr","name":""},
  {"lat":32.224111,"lon":-110.972357,"city":"Tucson","state":"AZ","address":"60 W Alameda St","name":""},
  {"lat":32.223884,"lon":-110.972714,"city":"Tucson","state":"AZ","address":"60 W Alameda St","name":""},
  {"lat":32.346245,"lon":-111.026556,"city":"Tucson","state":"AZ","address":"7770 N Shannon Rd","name":""},
  {"lat":36.716494,"lon":-78.910417,"city":"South Boston","state":"VA","address":"650 Hamilton Blvd","name":""},
  {"lat":35.933301,"lon":-79.055706,"city":"Chapel Hill","state":"NC","address":"980 Martin Luther King Jr. Blvd","name":""},
  {"lat":30.3722,"lon":-81.711999,"city":"Jacksonville","state":"FL","address":"5700 Cleveland Rd","name":""},
  {"lat":33.189825,"lon":-79.991146,"city":"Moncks Corner","state":"SC","address":"210 Rembert C Dennis Blvd","name":""},
  {"lat":30.374124,"lon":-81.71998,"city":"Jacksonville","state":"FL","address":"6079 Bagley Rd","name":""},
  {"lat":35.467907,"lon":-79.190077,"city":"Sanford","state":"NC","address":"1907 K M Wicker Memorial Way","name":""},
  {"lat":30.439713,"lon":-81.720834,"city":"Jacksonville","state":"FL","address":"11236 Baptist Health Drive","name":""},
  {"lat":35.719036,"lon":-79.16049,"city":"Pittsboro","state":"NC","address":"120 Parkland Drive","name":""},
  {"lat":32.2597,"lon":-110.901099,"city":"Tucson","state":"AZ","address":"2900 N Columbus Blvd","name":""},
  {"lat":33.122674,"lon":-80.101814,"city":"Summerville","state":"SC","address":"1655 Cane Bay Blvd","name":""},
  {"lat":29.701175,"lon":-82.366266,"city":"Gainesville","state":"FL","address":"5201 NW 34th Blvd","name":""},
  {"lat":38.061987,"lon":-78.893917,"city":"Waynesboro","state":"VA","address":"648 South Wayne Avenue","name":""},
  {"lat":32.216182,"lon":-110.832399,"city":"Tucson","state":"AZ","address":"401 S Prudence Rd","name":""},
  {"lat":33.020515,"lon":-80.177062,"city":"Summerville","state":"SC","address":"140 S Cedar St","name":""},
  {"lat":40.622133,"lon":-79.19408,"city":"Indiana","state":"PA","address":"60 N Ben Franklin Rd.","name":""},
  {"lat":41.204371,"lon":-79.358395,"city":"Clarion","state":"PA","address":"499 Mayfield Road","name":""},
  {"lat":41.931209,"lon":-79.641399,"city":"Corry","state":"PA","address":"906 N Center St","name":""},
  {"lat":34.1632,"lon":-79.773099,"city":"Florence","state":"SC","address":"1700 Rutherford Dr","name":""},
  {"lat":32.007109,"lon":-80.844124,"city":"Tybee Island","state":"GA","address":"204 5th Street","name":""},
  {"lat":40.244718,"lon":-79.237369,"city":"Ligonier","state":"PA","address":"110 W. Church St.","name":""},
  {"lat":38.15987,"lon":-79.061812,"city":"Staunton","state":"VA","address":"708 N. Coalter St.","name":""},
  {"lat":39.799695,"lon":-79.191626,"city":"Fort Hill","state":"PA","address":"254 Deer Valley Drive","name":""},
  {"lat":32.383154,"lon":-80.689687,"city":"Port Royal","state":"SC","address":"1801 Richmond Ave","name":""},
  {"lat":30.2726,"lon":-82.124499,"city":"Macclenny","state":"FL","address":"136 W Lowder St","name":""},
  {"lat":37.410907,"lon":-79.140121,"city":"Lynchburg","state":"VA","address":"3408 Old Forest Road","name":""},
  {"lat":37.410919,"lon":-79.140132,"city":"Lynchburg","state":"VA","address":"1315 Church St","name":""},
  {"lat":39.956816,"lon":-79.245183,"city":"Rockwood","state":"PA","address":"134 Camp Soles Ln","name":""},
  {"lat":41.629515,"lon":-79.680837,"city":"Titusville","state":"PA","address":"510 W. Main St","name":""},
  {"lat":37.3802,"lon":-79.1603,"city":"Lynchburg","state":"VA","address":"PO Box 10365","name":""},
  {"lat":34.302157,"lon":-79.869784,"city":"Darlington","state":"SC","address":"123 Exchange St","name":""},
  {"lat":37.409864,"lon":-79.217182,"city":"Lynchburg","state":"VA","address":"3408 Old Forest Road","name":""},
  {"lat":32.032302,"lon":-81.005298,"city":"Savannah","state":"GA","address":"66 Johnny Mercer Blvd","name":""},
  {"lat":32.56566,"lon":-110.720068,"city":"Oracle","state":"AZ","address":"34434 S Y Camp Road","name":""},
  {"lat":40.827641,"lon":-79.528167,"city":"Kittanning","state":"PA","address":"1150 N Water Street","name":""},
  {"lat":37.361194,"lon":-79.24006,"city":"Lynchburg","state":"VA","address":"1315 Church Street","name":""},
  {"lat":37.361407,"lon":-79.24011,"city":"Lynchburg","state":"VA","address":"801 Wyndhurst Dr","name":""},
  {"lat":41.428646,"lon":-79.712015,"city":"Oil City","state":"PA","address":"7 Petroleum St","name":""},
  {"lat":31.370225,"lon":-81.43399,"city":"Darien","state":"GA","address":"1111 Magnolia Bluff Way SW","name":""},
  {"lat":42.144102,"lon":-80.002162,"city":"Erie","state":"PA","address":"2101 Nagle Rd","name":""},
  {"lat":37.111582,"lon":-79.287562,"city":"Altavista","state":"VA","address":"718 7th St","name":""},
  {"lat":36.085259,"lon":-79.451348,"city":"Burlington","state":"NC","address":"1346 South Main Street","name":""},
  {"lat":36.585972,"lon":-79.395023,"city":"Danville","state":"VA","address":"215 Riverside Drive","name":""},
  {"lat":40.700811,"lon":-111.852218,"city":"Salt Lake City","state":"UT","address":"675 East 2100 South","name":""},
  {"lat":32.001502,"lon":-81.102773,"city":"Savannah","state":"GA","address":"6400 Habersham St","name":""},
  {"lat":31.326239,"lon":-81.537701,"city":"Brunswick","state":"GA","address":"144 Scranton Connector","name":""},
  {"lat":32.0174,"lon":-81.109798,"city":"Savannah","state":"GA","address":"6400 Habersham St","name":""},
  {"lat":42.125301,"lon":-80.082996,"city":"Erie","state":"PA","address":"31 W 10th St","name":""},
  {"lat":42.125301,"lon":-80.082996,"city":"Erie","state":"PA","address":"31 W 10th St","name":""},
  {"lat":40.5978,"lon":-79.584965,"city":"Leechburg","state":"PA","address":"511 Hyde Park Road","name":""},
  {"lat":42.097937,"lon":-80.080835,"city":"Erie","state":"PA","address":"3727 Cherry St","name":""},
  {"lat":32.066311,"lon":-81.104874,"city":"Savannah","state":"GA","address":"1110 May St","name":""},
  {"lat":41.404615,"lon":-79.826826,"city":"Franklin","state":"PA","address":"111 W Park St","name":""},
  {"lat":32.0836,"lon":-81.1003,"city":"Savannah","state":"GA","address":"6400 Habersham Street, Suite A","name":""},
  {"lat":41.400588,"lon":-79.828711,"city":"Franklin","state":"PA","address":"111 W Park St","name":""},
  {"lat":40.302689,"lon":-79.543289,"city":"Greensburg","state":"PA","address":"101 S Maple Ave","name":""},
  {"lat":35.204644,"lon":-111.638266,"city":"Flagstaff","state":"AZ","address":"1001 N. Turquoise Dr","name":""},
  {"lat":40.133494,"lon":-79.552524,"city":"Mount Pleasant","state":"PA","address":"490 Bessemer Rd","name":""},
  {"lat":34.3744,"lon":-80.073032,"city":"Hartsville","state":"SC","address":"111 E Carolina Ave","name":""},
  {"lat":34.3744,"lon":-80.073032,"city":"Hartsville","state":"SC","address":"111 E Carolina Ave","name":""},
  {"lat":36.064435,"lon":-79.605432,"city":"Whitsett","state":"NC","address":"954-D Golf House Road W","name":""},
  {"lat":40.65126,"lon":-79.708309,"city":"Natrona Heights","state":"PA","address":"5021 Freeport Rd","name":""},
  {"lat":37.77808,"lon":-79.436477,"city":"Lexington","state":"VA","address":"790 N Lee Hwy","name":""},
  {"lat":31.938265,"lon":-81.303443,"city":"Richmond Hill","state":"GA","address":"154 Thunderbird Drive","name":""},
  {"lat":45.782321,"lon":-108.513216,"city":"Billings","state":"MT","address":"402 N 32nd St","name":""},
  {"lat":40.45866,"lon":-79.707734,"city":"Pittsburgh","state":"PA","address":"2200 Rte 286","name":""},
  {"lat":41.8809,"lon":-80.153037,"city":"Edinboro","state":"PA","address":"12285 YMCA Dr","name":""},
  {"lat":36.026002,"lon":-79.683849,"city":"Greensboro","state":"NC","address":"4924 Tapawingo Trl","name":""},
  {"lat":40.564203,"lon":-79.763498,"city":"New Kensington","state":"PA","address":"800 Constitution Blvd","name":""},
  {"lat":40.564203,"lon":-79.763498,"city":"New Kensington","state":"PA","address":"800 Constitution Blvd","name":""},
  {"lat":37.3373,"lon":-79.5237,"city":"Bedford","state":"VA","address":"PO Box 1026","name":""},
  {"lat":33.93499,"lon":-80.364495,"city":"Sumter","state":"SC","address":"510 Miller Road","name":""},
  {"lat":32.1297,"lon":-81.261254,"city":"Pooler","state":"GA","address":"165 Isaac G LaRoche Drive","name":""},
  {"lat":36.355777,"lon":-79.66614,"city":"Reidsville","state":"NC","address":"504 S Main St","name":""},
  {"lat":34.733153,"lon":-80.080858,"city":"Chesterfield","state":"SC","address":"344 East Boulevard","name":""},
  {"lat":35.71,"lon":-79.82,"city":"Asheboro","state":"NC","address":"343 N Carolina Hwy 42 N","name":""},
  {"lat":36.056664,"lon":-79.747295,"city":"Greensboro","state":"NC","address":"2630 East Florida Street","name":""},
  {"lat":40.864575,"lon":-79.896899,"city":"Butler","state":"PA","address":"339 N. Washington St","name":""},
  {"lat":40.864575,"lon":-79.896899,"city":"Butler","state":"PA","address":"339 North Washington Street","name":""},
  {"lat":41.637451,"lon":-80.149749,"city":"Meadville","state":"PA","address":"356 Chestnut St","name":""},
  {"lat":32.2991,"lon":-81.2334,"city":"Rincon","state":"GA","address":"1224 Patriot Drive","name":""},
  {"lat":36.0728,"lon":-79.79611,"city":"Greensboro","state":"NC","address":"501 W Market St","name":""},
  {"lat":41.618889,"lon":-80.201617,"city":"Meadville","state":"PA","address":"11031 Perry Highway","name":""},
  {"lat":39.894102,"lon":-79.7406,"city":"Uniontown","state":"PA","address":"1 YMCA Drive","name":""},
  {"lat":36.497509,"lon":-79.745368,"city":"Eden","state":"NC","address":"301 S Kennedy St","name":""},
  {"lat":36.085297,"lon":-79.827972,"city":"Greensboro","state":"NC","address":"620 Green Valley Rd Ste 210","name":""},
  {"lat":41.149597,"lon":-80.072261,"city":"Grove City","state":"PA","address":"543 E Main St Ext","name":""},
  {"lat":31.845923,"lon":-81.575499,"city":"Hinesville","state":"GA","address":"201 Mary Lou Drive","name":""},
  {"lat":31.845923,"lon":-81.575499,"city":"Hinesville","state":"GA","address":"201 Mary Lou Drive","name":""},
  {"lat":40.456755,"lon":-79.89781,"city":"Pittsburgh","state":"PA","address":"7140 Bennett St","name":""},
  {"lat":42.002827,"lon":-80.430352,"city":"North Springfield","state":"PA","address":"12600 Ables Rd","name":""},
  {"lat":36.147261,"lon":-79.881557,"city":"Greensboro","state":"NC","address":"3216 Horse Pen Creek Rd","name":""},
  {"lat":35.998492,"lon":-79.920499,"city":"Jamestown","state":"NC","address":"900 Bonner Dr","name":""},
  {"lat":40.412937,"lon":-79.944543,"city":"Pittsburgh","state":"PA","address":"Foster Plaza 10, Suite 400","name":""},
  {"lat":40.444949,"lon":-79.977404,"city":"Pittsburgh","state":"PA","address":"2114 Centre Ave.","name":""},
  {"lat":40.166888,"lon":-79.923842,"city":"Monongahela","state":"PA","address":"101 Taylor Run Rd","name":""},
  {"lat":35.9281,"lon":-79.97815,"city":"High Point","state":"NC","address":"2757 Granville St","name":""},
  {"lat":35.894581,"lon":-79.990873,"city":"High Point","state":"NC","address":"P.O. Box 6258","name":""},
  {"lat":40.443243,"lon":-80.005585,"city":"Pittsburgh","state":"PA","address":"Foster Plaza 5","name":""},
  {"lat":40.454212,"lon":-80.01304,"city":"Pittsburgh","state":"PA","address":"600 W North Ave","name":""},
  {"lat":36.688039,"lon":-79.864179,"city":"Martinsville","state":"VA","address":"3 Starling Ave","name":""},
  {"lat":40.7346,"lon":-80.1097,"city":"Cranberry Township","state":"PA","address":"2001 Ehrman Road","name":""},
  {"lat":35.9643,"lon":-80.0248,"city":"Glade Valley","state":"NC","address":"1430 Camp Cheerio Road","name":""},
  {"lat":40.608553,"lon":-80.099614,"city":"Sewickley","state":"PA","address":"2565 Nicholson Road","name":""},
  {"lat":33.551861,"lon":-80.827715,"city":"Orangeburg","state":"SC","address":"2550 St. Matthews Rd","name":""},
  {"lat":35.991374,"lon":-80.032519,"city":"High Point","state":"NC","address":"1220 N. Main Street","name":""},
  {"lat":35.991374,"lon":-80.032519,"city":"High Point","state":"NC","address":"P.O. Box 6258","name":""},
  {"lat":40.337511,"lon":-80.044331,"city":"Bethel Park","state":"PA","address":"305 Church Road","name":""},
  {"lat":35.35673,"lon":-80.199299,"city":"Albemarle","state":"NC","address":"427 N First Street","name":""},
  {"lat":38.926319,"lon":-79.849468,"city":"Elkins","state":"WV","address":"400 Davis Avenue","name":""},
  {"lat":35.902721,"lon":-80.074562,"city":"Thomasville","state":"NC","address":"1010 Mendenhall Street","name":""},
  {"lat":37.014936,"lon":-79.893278,"city":"Rocky Mount","state":"VA","address":"235 Technology Dr","name":""},
  {"lat":40.805118,"lon":-80.221997,"city":"Fombell","state":"PA","address":"126 Nagel Road","name":""},
  {"lat":40.542733,"lon":-80.180149,"city":"Sewickley","state":"PA","address":"625 Blackburn Road","name":""},
  {"lat":37.415205,"lon":-79.914541,"city":"Daleville","state":"VA","address":"115 Shenandoah Ave","name":""},
  {"lat":36.133157,"lon":-80.091913,"city":"Kernersville","state":"NC","address":"1113 W Mountain St","name":""},
  {"lat":37.282414,"lon":-79.941311,"city":"Roanoke","state":"VA","address":"108 Orange Ave., NW","name":""},
  {"lat":37.270148,"lon":-79.950903,"city":"Roanoke","state":"VA","address":"PO Box 2130","name":""},
  {"lat":37.270423,"lon":-79.950341,"city":"Roanoke","state":"VA","address":"520 Church Ave SW","name":""},
  {"lat":40.9999,"lon":-80.348042,"city":"New Castle","state":"PA","address":"20 W Washington St","name":""},
  {"lat":41.252545,"lon":-80.450739,"city":"Hermitage","state":"PA","address":"925 North Hermitage Road","name":""},
  {"lat":40.716474,"lon":-80.299187,"city":"New Brighton","state":"PA","address":"2236 Third Ave","name":""},
  {"lat":31.221008,"lon":-82.34538,"city":"Waycross","state":"GA","address":"1634 Plant Avenue","name":""},
  {"lat":37.777909,"lon":-79.98537,"city":"Covington","state":"VA","address":"101 YMCA Way","name":""},
  {"lat":35.822976,"lon":-80.257018,"city":"Lexington","state":"NC","address":"119 W Third Ave","name":""},
  {"lat":37.290442,"lon":-80.038889,"city":"Salem","state":"VA","address":"1126 Kime Ln","name":""},
  {"lat":36.112029,"lon":-80.20583,"city":"Winston Salem","state":"NC","address":"901 Waterworks Rd","name":""},
  {"lat":36.11255,"lon":-80.206865,"city":"Winston-Salem","state":"NC","address":"901 Waterworks Rd","name":""},
  {"lat":41.870988,"lon":-80.782023,"city":"Ashtabula","state":"OH","address":"263 W Prospect Rd","name":""},
  {"lat":36.09781,"lon":-80.244,"city":"Winston Salem","state":"NC","address":"301 N Main St Suite 1900","name":""},
  {"lat":36.096507,"lon":-80.262049,"city":"Winston Salem","state":"NC","address":"775 W End Blvd","name":""},
  {"lat":36.185058,"lon":-80.281913,"city":"Winston Salem","state":"NC","address":"385 West Hanes Mill Rd","name":""},
  {"lat":35.569905,"lon":-80.425612,"city":"Rockwell","state":"NC","address":"PO Box 640","name":""},
  {"lat":36.117231,"lon":-80.317284,"city":"Winston-Salem","state":"NC","address":"3474 Robinhood Rd","name":""},
  {"lat":34.175955,"lon":-80.888707,"city":"Columbia","state":"SC","address":"900 Lake Carolina Blvd","name":""},
  {"lat":36.260478,"lon":-80.342741,"city":"King","state":"NC","address":"105 Moore Rd","name":""},
  {"lat":41.099747,"lon":-80.647985,"city":"Youngstown","state":"OH","address":"17 N. Champion St.","name":""},
  {"lat":41.099722,"lon":-80.648018,"city":"Youngstown","state":"OH","address":"17 N Champion St","name":""},
  {"lat":36.038783,"lon":-80.392727,"city":"Clemmons","state":"NC","address":"1150 South Peace Haven Rd","name":""},
  {"lat":32.449924,"lon":-81.783101,"city":"Statesboro","state":"GA","address":"26 N. Main St.","name":""},
  {"lat":34.004685,"lon":-81.033221,"city":"Columbia","state":"SC","address":"1447 Hampton Street","name":""},
  {"lat":34.004685,"lon":-81.033221,"city":"Lexington","state":"SC","address":"Branch Resource Office","name":""},
  {"lat":35.663981,"lon":-80.499505,"city":"Salisbury","state":"NC","address":"828 Jake Alexander Blvd W","name":""},
  {"lat":36.364377,"lon":-80.356142,"city":"King","state":"NC","address":"1225 Camp Hanes Rd","name":""},
  {"lat":35.645388,"lon":-80.507756,"city":"Salisbury","state":"NC","address":"PO Box 1575","name":""},
  {"lat":40.9953,"lon":-80.660131,"city":"Boardman","state":"OH","address":"45 McClurg Rd","name":""},
  {"lat":34.736295,"lon":-80.788727,"city":"Lancaster","state":"SC","address":"512 Hubbard Drive","name":""},
  {"lat":40.6179,"lon":-80.5791,"city":"East Liverpool","state":"OH","address":"15655 State Route 170","name":""},
  {"lat":35.325858,"lon":-80.644918,"city":"Harrisburg","state":"NC","address":"5055 Z-Max Blvd","name":""},
  {"lat":39.2817,"lon":-80.3442,"city":"Clarksburg","state":"WV","address":"1 Lowndes Hill Road","name":""},
  {"lat":35.084736,"lon":-80.729948,"city":"Matthews","state":"NC","address":"3127 Weddington Road","name":""},
  {"lat":35.572156,"lon":-80.606852,"city":"China Grove","state":"NC","address":"PO Box 1145","name":""},
  {"lat":35.4957,"lon":-80.6282,"city":"Salisbury","state":"NC","address":"215 Guffy St","name":""},
  {"lat":35.503806,"lon":-80.634293,"city":"Kannapolis","state":"NC","address":"101 YMCA Drive","name":""},
  {"lat":41.78498,"lon":-81.047497,"city":"Madison","state":"OH","address":"730 N Lake St","name":""},
  {"lat":35.416126,"lon":-80.670982,"city":"Concord","state":"NC","address":"5325 Langford Avenue","name":""},
  {"lat":35.199449,"lon":-80.731851,"city":"Charlotte","state":"NC","address":"6824 Democracy Dr","name":""},
  {"lat":35.90587,"lon":-80.559467,"city":"Mocksville","state":"NC","address":"215 Cemetery St","name":""},
  {"lat":35.044332,"lon":-80.827717,"city":"Charlotte","state":"NC","address":"9405 Bryant Farms Rd","name":""},
  {"lat":34.116855,"lon":-81.167761,"city":"Irmo","state":"SC","address":"1501 Kennerly Rd","name":""},
  {"lat":35.00161,"lon":-80.85581,"city":"Indian Land","state":"SC","address":"2816 World Reach Drive","name":""},
  {"lat":37.22524,"lon":-80.415957,"city":"Blacksburg","state":"VA","address":"403 Washington Street SW","name":""},
  {"lat":41.73805,"lon":-81.12658,"city":"Perry","state":"OH","address":"4540 River Rd","name":""},
  {"lat":35.316907,"lon":-80.778714,"city":"Charlotte","state":"NC","address":"8100 Old Mallard Creek Rd","name":""},
  {"lat":35.1323,"lon":-80.838699,"city":"Charlotte","state":"NC","address":"5900 Quail Hollow Rd","name":""},
  {"lat":35.245876,"lon":-80.807769,"city":"Charlotte","state":"NC","address":"3025 N Davidson St","name":""},
  {"lat":36.114553,"lon":-80.597613,"city":"Yadkinville","state":"NC","address":"6540 Service Rd","name":""},
  {"lat":35.2245,"lon":-80.8442,"city":"Charlotte","state":"NC","address":"301 S. College Street","name":""},
  {"lat":35.217536,"lon":-80.849053,"city":"Charlotte","state":"NC","address":"400 E Morehead St, FL 5","name":""},
  {"lat":35.2188,"lon":-80.848999,"city":"Charlotte","state":"NC","address":"1946 West Boulevard","name":""},
  {"lat":35.2188,"lon":-80.848999,"city":"Charlotte","state":"NC","address":"400 E Morehead St","name":""},
  {"lat":35.00948,"lon":-80.921391,"city":"Fort Mill","state":"SC","address":"971 Tom Hall Street","name":""},
  {"lat":40.042126,"lon":-80.656654,"city":"Wheeling","state":"WV","address":"55 Lounez Ave","name":""},
  {"lat":35.286977,"lon":-80.859238,"city":"Charlotte","state":"NC","address":"3801 Beatties Ford Road","name":""},
  {"lat":34.977943,"lon":-80.97864,"city":"Rock Hill","state":"SC","address":"998 Riverwald Pkwy","name":""},
  {"lat":35.024793,"lon":-80.96837,"city":"Fort Mill","state":"SC","address":"857 Promenade Walk","name":""},
  {"lat":35.138401,"lon":-80.933694,"city":"Charlotte","state":"NC","address":"2135A Ayrsley Town Blvd","name":""},
  {"lat":41.710977,"lon":-81.262992,"city":"Painesville","state":"OH","address":"933 Mentor Ave","name":""},
  {"lat":41.710977,"lon":-81.262992,"city":"Painesville","state":"OH","address":"933 Mentor Ave","name":""},
  {"lat":35.493602,"lon":-80.860139,"city":"Cornelius","state":"NC","address":"21300 Davidson St","name":""},
  {"lat":34.936221,"lon":-81.02402,"city":"Rock Hill","state":"SC","address":"402 Charlotte Ave","name":""},
  {"lat":34.93523,"lon":-81.026815,"city":"Rock Hill","state":"SC","address":"151 S Oakland Ave","name":""},
  {"lat":41.530345,"lon":-81.216637,"city":"Chardon","state":"OH","address":"12460 Bass Lake Road","name":""},
  {"lat":35.591234,"lon":-80.875845,"city":"Mooresville","state":"NC","address":"170 Joe Knox Ave","name":""},
  {"lat":34.953852,"lon":-81.065373,"city":"Rock Hill","state":"SC","address":"1735 Heckle Blvd Ste 122","name":""},
  {"lat":34.974655,"lon":-81.082111,"city":"Rock Hill","state":"SC","address":"325 Rawlinson Rd","name":""},
  {"lat":35.1068,"lon":-81.042399,"city":"Lake Wylie","state":"SC","address":"1 Thunderbird Ln","name":""},
  {"lat":30.857724,"lon":-83.320699,"city":"Valdosta","state":"GA","address":"PO Box 1301","name":""},
  {"lat":35.263783,"lon":-81.021021,"city":"Belmont","state":"NC","address":"196 YMCA Dr","name":""},
  {"lat":35.799835,"lon":-80.887114,"city":"Statesville","state":"NC","address":"828 Wesley Dr","name":""},
  {"lat":40.920055,"lon":-81.105799,"city":"Alliance","state":"OH","address":"205 S Union Ave","name":""},
  {"lat":35.481902,"lon":-81.010716,"city":"Denver","state":"NC","address":"1601 Forney Creek Pkwy","name":""},
  {"lat":35.259892,"lon":-81.079656,"city":"McAdenville","state":"NC","address":"208 Main St.","name":""},
  {"lat":41.629,"lon":-81.421499,"city":"Willoughby","state":"OH","address":"36909 Ridge Road","name":""},
  {"lat":40.732101,"lon":-81.095308,"city":"Minerva","state":"OH","address":"687 Lynnwood Dr","name":""},
  {"lat":37.061468,"lon":-80.765547,"city":"Pulaski","state":"VA","address":"615 Oakhurst Ave","name":""},
  {"lat":33.577211,"lon":-81.770021,"city":"Graniteville","state":"SC","address":"621 Trolley Line Road","name":""},
  {"lat":35.234312,"lon":-81.153868,"city":"Gastonia","state":"NC","address":"2221 Robinwood Rd","name":""},
  {"lat":35.234312,"lon":-81.153868,"city":"Gastonia","state":"NC","address":"2221 Robinwood Rd","name":""},
  {"lat":44.474208,"lon":-83.385517,"city":"Oscoda","state":"MI","address":"6836 F 41","name":""},
  {"lat":34.9955,"lon":-81.237998,"city":"York","state":"SC","address":"103 East Madison St","name":""},
  {"lat":35.110965,"lon":-81.226835,"city":"Clover","state":"SC","address":"107 S Main St","name":""},
  {"lat":41.519825,"lon":-81.499766,"city":"Lyndhurst","state":"OH","address":"5000 Mayfield Road","name":""},
  {"lat":40.82827,"lon":-81.250599,"city":"Louisville","state":"OH","address":"1421 NickelPlate Ave S","name":""},
  {"lat":48.1385,"lon":-101.391,"city":"Minot","state":"ND","address":"PO Box 69","name":""},
  {"lat":41.43925,"lon":-81.526247,"city":"Warrensville Heights","state":"OH","address":"4433 Northfield Road","name":""},
  {"lat":41.311923,"lon":-81.487954,"city":"Macedonia","state":"OH","address":"8761 Shepard Rd","name":""},
  {"lat":40.960636,"lon":-81.362278,"city":"Uniontown","state":"OH","address":"428 King Church Ave sw","name":""},
  {"lat":34.278686,"lon":-81.610092,"city":"Newberry","state":"SC","address":"8220 Jolleystreet Rd","name":""},
  {"lat":33.497266,"lon":-81.959865,"city":"North Augusta","state":"SC","address":"401 Martintown Rd Suite 111","name":""},
  {"lat":35.473002,"lon":-81.235791,"city":"Lincolnton","state":"NC","address":"1402 E Gaston St","name":""},
  {"lat":33.507809,"lon":-81.962548,"city":"Augusta","state":"GA","address":"1058 Claussen Rd","name":""},
  {"lat":33.373278,"lon":-82.032429,"city":"Augusta","state":"GA","address":"2215 Tobacco Rd","name":""},
  {"lat":33.446232,"lon":-82.009705,"city":"Augusta","state":"GA","address":"2340 Milledgeville Rd","name":""},
  {"lat":40.2881,"lon":-81.2051,"city":"Tippecanoe","state":"OH","address":"81300 YMCA Rd","name":""},
  {"lat":35.243123,"lon":-81.331888,"city":"Kings Mountain","state":"NC","address":"211 Cleveland Avenue","name":""},
  {"lat":35.926127,"lon":-81.166583,"city":"Taylorsville","state":"NC","address":"260 Black Oak Ridge Road","name":""},
  {"lat":42.9814,"lon":-82.422199,"city":"Port Huron","state":"MI","address":"1525 Third Street","name":""},
  {"lat":40.831514,"lon":-81.38391,"city":"Canton","state":"OH","address":"4700 Dressler Rd NW","name":""},
  {"lat":41.1343,"lon":-81.489617,"city":"Cuyahoga Falls","state":"OH","address":"544 Broad Blvd","name":""},
  {"lat":35.7285,"lon":-81.2144,"city":"Conover","state":"NC","address":"1104 CONOVER BLVD.","name":""},
  {"lat":40.875301,"lon":-81.401895,"city":"North Canton","state":"OH","address":"200 S Main St","name":""},
  {"lat":40.800451,"lon":-81.377132,"city":"Canton","state":"OH","address":"420 - 3rd St NW","name":""},
  {"lat":41.066871,"lon":-81.480258,"city":"Akron","state":"OH","address":"65 Steiner Ave.","name":""},
  {"lat":41.488,"lon":-81.648591,"city":"Cleveland","state":"OH","address":"6001 Woodland Avenue","name":""},
  {"lat":41.079507,"lon":-81.50207,"city":"Akron","state":"OH","address":"477 E Market St","name":""},
  {"lat":40.813182,"lon":-81.412693,"city":"Canton","state":"OH","address":"1333 North Park Ave NW","name":""},
  {"lat":40.958812,"lon":-81.465421,"city":"Uniontown","state":"OH","address":"3800 Massillon Rd","name":""},
  {"lat":41.5004,"lon":-81.674299,"city":"Cleveland","state":"OH","address":"1301 E 9th St.","name":""},
  {"lat":41.5004,"lon":-81.674299,"city":"Cleveland","state":"OH","address":"1301 E. 9th St.","name":""},
  {"lat":41.507188,"lon":-81.679792,"city":"Cleveland","state":"OH","address":"1301 E. 9th St","name":""},
  {"lat":41.080215,"lon":-81.519869,"city":"Akron","state":"OH","address":"50 S. Main St., LL100","name":""},
  {"lat":41.079815,"lon":-81.519886,"city":"Akron","state":"OH","address":"50 S Main St LL 100","name":""},
  {"lat":41.039815,"lon":-81.513982,"city":"Akron","state":"OH","address":"350 E Wilbeth Rd","name":""},
  {"lat":35.365756,"lon":-81.367613,"city":"Cherryville","state":"NC","address":"215 N. Mountain Street","name":""},
  {"lat":33.483294,"lon":-82.079516,"city":"Augusta","state":"GA","address":"3570 Wheeler Rd","name":""},
  {"lat":33.484099,"lon":-82.080799,"city":"Augusta","state":"GA","address":"1058 Claussen Rd","name":""},
  {"lat":40.8618,"lon":-81.485,"city":"Massillon","state":"OH","address":"7389 Caritas Circle NW","name":""},
  {"lat":36.1545,"lon":-81.2111,"city":"Wilkesboro","state":"NC","address":"1801 YMCA Blvd","name":""},
  {"lat":34.715966,"lon":-81.616098,"city":"Union","state":"SC","address":"106 Lakeside Drive","name":""},
  {"lat":40.9104,"lon":-81.53766,"city":"Clinton","state":"OH","address":"815 Mount Pleasant Rd","name":""},
  {"lat":35.741416,"lon":-81.338798,"city":"Hickory","state":"NC","address":"701 1st St NW","name":""},
  {"lat":35.742152,"lon":-81.339666,"city":"Hickory","state":"NC","address":"315 1st Ave NW","name":""},
  {"lat":48.06293,"lon":-90.437897,"city":"Grand Marais","state":"MN","address":"55 Menogyn Tr","name":""},
  {"lat":33.530084,"lon":-82.132019,"city":"Evans","state":"GA","address":"1202 Town Park Lane","name":""},
  {"lat":40.795232,"lon":-81.52057,"city":"Massillon","state":"OH","address":"131 Tremont Ave SE","name":""},
  {"lat":35.12124,"lon":-81.515924,"city":"Blacksburg","state":"SC","address":"1299 Camp Cherokee Rd","name":""},
  {"lat":41.329474,"lon":-81.721959,"city":"North Royalton","state":"OH","address":"11409 State Road","name":""},
  {"lat":41.017606,"lon":-81.607892,"city":"Barberton","state":"OH","address":"500 W. Hopocan Ave","name":""},
  {"lat":36.041563,"lon":-81.299231,"city":"Boomer","state":"NC","address":"7901 South NC Highway 18","name":""},
  {"lat":40.722901,"lon":-81.518332,"city":"Navarre","state":"OH","address":"1226 Market Ave NE","name":""},
  {"lat":40.508055,"lon":-81.456719,"city":"Dover","state":"OH","address":"600 Monroe St","name":""},
  {"lat":41.485355,"lon":-81.814996,"city":"Lakewood","state":"OH","address":"16915 Detroit Avenue","name":""},
  {"lat":41.4521,"lon":-81.805915,"city":"Cleveland","state":"OH","address":"15501 Lorain Ave","name":""},
  {"lat":40.890731,"lon":-81.597727,"city":"Canal","state":"OH","address":"976 Canal Street South","name":""},
  {"lat":35.302516,"lon":-81.506036,"city":"Shelby","state":"NC","address":"411 Cherryville Rd","name":""},
  {"lat":35.303242,"lon":-81.505456,"city":"Shelby","state":"NC","address":"411 Cherryville Rd","name":""},
  {"lat":30.85023,"lon":-83.952838,"city":"Thomasville","state":"GA","address":"1304 Remington Ave","name":""},
  {"lat":45.374784,"lon":-84.953811,"city":"Petoskey","state":"MI","address":"523 West Jefferson Street","name":""},
  {"lat":30.839252,"lon":-83.977554,"city":"Thomasville","state":"GA","address":"PO Box 1037","name":""},
  {"lat":30.839252,"lon":-83.977554,"city":"Thomasville","state":"GA","address":"103 S. Dawson St","name":""},
  {"lat":33.207646,"lon":-82.391792,"city":"Wrens","state":"GA","address":"3001 GA Hwy 17 North","name":""},
  {"lat":30.838878,"lon":-83.987933,"city":"Thomasville","state":"GA","address":"PO Box 1037","name":""},
  {"lat":41.023176,"lon":-81.711279,"city":"Wadsworth","state":"OH","address":"623 School Dr","name":""},
  {"lat":37.778992,"lon":-81.186309,"city":"Beckley","state":"WV","address":"121 East Main Street","name":""},
  {"lat":35.249722,"lon":-81.588993,"city":"Shelby","state":"NC","address":"3005 Longwood Dr","name":""},
  {"lat":41.464281,"lon":-81.901847,"city":"Westlake","state":"OH","address":"1575 Columbia Road","name":""},
  {"lat":31.1374,"lon":-83.777388,"city":"Moultrie","state":"GA","address":"601 26th Ave SE","name":""},
  {"lat":34.456,"lon":-81.879899,"city":"Clinton","state":"SC","address":"PO Box 492","name":""},
  {"lat":31.446475,"lon":-83.546798,"city":"Tifton","state":"GA","address":"1657 CARPENTER RD S","name":""},
  {"lat":35.103128,"lon":-81.687465,"city":"Gaffney","state":"SC","address":"390 Whelchel Rd","name":""},
  {"lat":35.246032,"lon":-81.647512,"city":"Shelby","state":"NC","address":"1322 Patrick Avenue","name":""},
  {"lat":41.453158,"lon":-82.008014,"city":"Avon","state":"OH","address":"2010 Recreational Lane","name":""},
  {"lat":44.800312,"lon":-106.960999,"city":"Sheridan","state":"WY","address":"417 N Jefferson St","name":""},
  {"lat":40.8592,"lon":-81.785619,"city":"Orrville","state":"OH","address":"1801 Smucker Road","name":""},
  {"lat":39.419485,"lon":-81.448203,"city":"Marietta","state":"OH","address":"635-B State Route 821","name":""},
  {"lat":40.035273,"lon":-81.58267,"city":"Cambridge","state":"OH","address":"1301 Clairmont Avenue","name":""},
  {"lat":33.707633,"lon":-82.367874,"city":"Lincolnton","state":"GA","address":"1238 Dogwood Dr","name":""},
  {"lat":34.503435,"lon":-82.035288,"city":"Laurens","state":"SC","address":"410 Anderson Dr","name":""},
  {"lat":47.751899,"lon":-90.338784,"city":"Grand Marais","state":"MN","address":"PO Box 787","name":""},
  {"lat":33.460776,"lon":-82.507239,"city":"Thomson","state":"GA","address":"521 West Hill Street","name":""},
  {"lat":34.946959,"lon":-81.917825,"city":"Spartanburg","state":"SC","address":"151 Ribault St","name":""},
  {"lat":34.948288,"lon":-81.918533,"city":"Spartanburg","state":"SC","address":"151 Ribault","name":""},
  {"lat":39.281193,"lon":-81.52908,"city":"Parkersburg","state":"WV","address":"1800 30th Street","name":""},
  {"lat":34.212759,"lon":-82.204158,"city":"Laurens","state":"SC","address":"410 Anderson Drive","name":""},
  {"lat":34.2127,"lon":-82.204281,"city":"Greenwood","state":"SC","address":"1760 Calhoun Road","name":""},
  {"lat":44.419013,"lon":-84.278651,"city":"West Branch","state":"MI","address":"3269 Horseshoe Lake Rd","name":""},
  {"lat":40.806109,"lon":-81.949353,"city":"Wooster","state":"OH","address":"680 Woodland Ave","name":""},
  {"lat":37.114837,"lon":-81.519555,"city":"Tazewell","state":"VA","address":"106 Gratton Rd","name":""},
  {"lat":46.556728,"lon":-87.389299,"city":"Marquette","state":"MI","address":"1420 Pine St","name":""},
  {"lat":42.5984,"lon":-82.872929,"city":"Mount Clemens","state":"MI","address":"10 North River Rd","name":""},
  {"lat":48.000032,"lon":-91.952969,"city":"Ely","state":"MN","address":"3788 North Arm Road","name":""},
  {"lat":38.3517,"lon":-81.5867,"city":"Charleston","state":"WV","address":"100 YMCA Drive","name":""},
  {"lat":34.896915,"lon":-82.085514,"city":"Duncan","state":"SC","address":"720 Shoals Rd","name":""},
  {"lat":47.97444,"lon":-91.990417,"city":"Ely","state":"MN","address":"3606 North Arm Road","name":""},
  {"lat":41.427571,"lon":-82.329999,"city":"Vermilion","state":"OH","address":"1230 Beechview Dr","name":""},
  {"lat":45.043792,"lon":-85.304143,"city":"Central","state":"MI","address":"919 N East Torch Lake Drive","name":""},
  {"lat":45.043792,"lon":-85.304143,"city":"Central","state":"MI","address":"919 N East Torch Lake Drive","name":""},
  {"lat":36.05785,"lon":-81.871606,"city":"Linville","state":"NC","address":"PO Box 707","name":""},
  {"lat":30.9037,"lon":-84.545143,"city":"Bainbridge","state":"GA","address":"1818 E Shotwell St","name":""},
  {"lat":34.769239,"lon":-82.276908,"city":"Simpsonville","state":"SC","address":"550 Brookwood Point Place","name":""},
  {"lat":35.666714,"lon":-82.023285,"city":"Marion","state":"NC","address":"348 Grace Corpening Drive","name":""},
  {"lat":43.591854,"lon":-83.889241,"city":"Bay City","state":"MI","address":"225 Washington Avenue","name":""},
  {"lat":39.962476,"lon":-82.025648,"city":"Zanesville","state":"OH","address":"1425 Newark Rd","name":""},
  {"lat":40.86896,"lon":-82.307699,"city":"Ashland","state":"OH","address":"207 Miller St","name":""},
  {"lat":34.900181,"lon":-82.288892,"city":"Taylors","state":"SC","address":"1250 Taylors Rd","name":""},
  {"lat":34.828864,"lon":-82.330948,"city":"Greenville","state":"SC","address":"3 Legacy Park Rd","name":""},
  {"lat":42.335303,"lon":-83.0471,"city":"Detroit","state":"MI","address":"1401 Broadway St.","name":""},
  {"lat":42.33549,"lon":-83.047775,"city":"Detroit","state":"MI","address":"1401 Broadway, Suite 2A","name":""},
  {"lat":42.33549,"lon":-83.047776,"city":"Detroit","state":"MI","address":"1401 Broadway St.","name":""},
  {"lat":42.33549,"lon":-83.047776,"city":"Detroit","state":"MI","address":"1401 Broadway, Suite 3A","name":""},
  {"lat":47.77919,"lon":-91.938501,"city":"Babbitt","state":"MN","address":"9089 Hwy 21 N","name":""},
  {"lat":42.4896,"lon":-83.154905,"city":"Royal Oak","state":"MI","address":"1016 W 11 Mile Rd","name":""},
  {"lat":44.346054,"lon":-106.705971,"city":"Buffalo","state":"WY","address":"101 Klondike Drive","name":""},
  {"lat":42.5389,"lon":-83.212099,"city":"Birmingham","state":"MI","address":"400 E Lincoln St","name":""},
  {"lat":34.834883,"lon":-82.385939,"city":"Greenville","state":"SC","address":"723 Cleveland St","name":""},
  {"lat":34.835442,"lon":-82.38702,"city":"Greenville","state":"SC","address":"721 Cleveland St","name":""},
  {"lat":31.581399,"lon":-84.1906,"city":"Albany","state":"GA","address":"1701 Gillionville Road","name":""},
  {"lat":34.8336,"lon":-82.425765,"city":"Greenville","state":"SC","address":"2 Eighth St","name":""},
  {"lat":34.8335,"lon":-82.430407,"city":"Greenville","state":"SC","address":"723 Cleveland St","name":""},
  {"lat":38.450354,"lon":-81.927547,"city":"Scott Depot","state":"WV","address":"200 Carls Ln","name":""},
  {"lat":43.411048,"lon":-83.961946,"city":"Saginaw","state":"MI","address":"1915 Fordney St","name":""},
  {"lat":43.016064,"lon":-83.68477,"city":"Flint","state":"MI","address":"713 E Harrison St","name":""},
  {"lat":35.0265,"lon":-82.434,"city":"Travelers Rest","state":"SC","address":"100 Inspirational Way","name":""},
  {"lat":34.542905,"lon":-82.625328,"city":"Anderson","state":"SC","address":"201 E. Reed Rd","name":""},
  {"lat":42.501845,"lon":-83.378368,"city":"Farmington Hills","state":"MI","address":"28100 Farmington Rd","name":""},
  {"lat":34.614926,"lon":-82.613549,"city":"Anderson","state":"SC","address":"1939 Evergreen Road","name":""},
  {"lat":43.0602,"lon":-83.7821,"city":"Flushing","state":"MI","address":"G-5219 Pierson Rd","name":""},
  {"lat":42.2132,"lon":-83.219197,"city":"Southgate","state":"MI","address":"16777 Northline Rd","name":""},
  {"lat":35.600997,"lon":-82.31793,"city":"Black Mountain","state":"NC","address":"25 Jane Jacobs Rd","name":""},
  {"lat":47.923592,"lon":-97.037064,"city":"Grand Forks","state":"ND","address":"215 N 7th Street","name":""},
  {"lat":40.737714,"lon":-82.526873,"city":"Mansfield","state":"OH","address":"750 Scholl Rd.","name":""},
  {"lat":35.61215,"lon":-82.32345,"city":"Black Mountain","state":"NC","address":"84 Blue Ridge Circle","name":""},
  {"lat":34.829244,"lon":-82.578077,"city":"Easley","state":"SC","address":"200 Frank Parrott Rd","name":""},
  {"lat":34.829244,"lon":-82.578077,"city":"Piedmont","state":"SC","address":"9115 Hwy 81 N","name":""},
  {"lat":34.8289,"lon":-82.578499,"city":"Easley","state":"SC","address":"101 Burns Rd","name":""},
  {"lat":42.875197,"lon":-83.696877,"city":"Fenton","state":"MI","address":"10407 N Fenton Rd","name":""},
  {"lat":37.2775,"lon":-82.1002,"city":"Grundy","state":"VA","address":"1059 Golden Wave Drive","name":""},
  {"lat":34.55105,"lon":-82.71005,"city":"Anderson","state":"SC","address":"Green Tree Rd","name":""},
  {"lat":36.5902,"lon":-82.1823,"city":"Bristol","state":"TN","address":"400 Martin Luther King Jr. Blvd.","name":""},
  {"lat":35.318804,"lon":-82.4709,"city":"Hendersonville","state":"NC","address":"810 6th Ave W","name":""},
  {"lat":40.394412,"lon":-82.488,"city":"Mount Vernon","state":"OH","address":"200 W. Chestnut St","name":""},
  {"lat":40.394375,"lon":-82.488206,"city":"Mount Vernon","state":"OH","address":"103 North Main Street","name":""},
  {"lat":45.770279,"lon":-87.08093,"city":"Escanaba","state":"MI","address":"2000 North 30th Street","name":""},
  {"lat":40.886555,"lon":-82.67024,"city":"Shelby","state":"OH","address":"111 West Smiley Ave","name":""},
  {"lat":42.704229,"lon":-83.664564,"city":"Holly","state":"MI","address":"7300 Hickory Ridge Rd","name":""},
  {"lat":40.0574,"lon":-82.419618,"city":"Newark","state":"OH","address":"470 W Church St","name":""},
  {"lat":42.5914,"lon":-83.6088,"city":"Milford","state":"MI","address":"300 Family Dr","name":""},
  {"lat":42.370617,"lon":-83.467201,"city":"Plymouth","state":"MI","address":"605 Church St.","name":""},